ID,train_number,planned_arrival,planned_departure,planned_platform,planned_status,category_train,train,path,eva_nr,station_name,station_state,station_city,station_zipcode,station_long,station_lat,station_category,changed_arrival,changed_platform_arrival,changed_departure,changed_platform_departure,message_status,priority,info,arrival_hidden,departure_hidden,arrival_path,departure_path,arrival_status,departure_status,arrival_delay_m,departure_delay_m
2240230804009135876-2502030040-16,7180,2502030119,2502030119,4,,S,1,Stuttgart-Vaihingen|Stuttgart-Österfeld|Stuttgart Universität|Stuttgart Schwabstr.|Stuttgart Feuersee|Stuttgart Stadtmitte|Stuttgart Hbf (tief)|Stuttgart-Bad Cannstatt|Stuttgart Neckarpark|Stuttgart-Untertürkheim|Stuttgart-Obertürkheim|Esslingen-Mettingen|Esslingen(Neckar)|Oberesslingen|Esslingen-Zell,8000508,Altbach,Baden-Württemberg,Altbach,73776,9.382434033,48.72031354,3,2502030120,,2502030121,,h,2,Bauarbeiten,,,,,,,1.0,2.0
7365903133354661246-2502030052-10,7580,2502030117,2502030117,4,,S,5,Stuttgart Schwabstr.|Stuttgart Feuersee|Stuttgart Stadtmitte|Stuttgart Hbf (tief)|Stuttgart Nord|Stuttgart-Feuerbach|Stuttgart-Zuffenhausen|Kornwestheim Pbf|Ludwigsburg,8000630,Asperg,Baden-Württemberg,Asperg,71679,9.147977466,48.90725609,4,2502030117,,2502030117,,,,,,,,,,,0.0,0.0
4029757619719024765-2502030100-7,7378,2502030118,,4,,S,,Waiblingen|Neustadt-Hohenacker|Schwaikheim|Winnenden|Nellmersbach|Maubach,8000016,Backnang,Baden-Württemberg,Backnang,71522,9.425986107,48.94264844,3,2502030118,5,,,h,1,Bauarbeiten,,,,,,,0.0,0.0
3212831510387931381-2502030130-7,7380,2502030148,,4,,S,,Waiblingen|Neustadt-Hohenacker|Schwaikheim|Winnenden|Nellmersbach|Maubach,8000016,Backnang,Baden-Württemberg,Backnang,71522,9.425986107,48.94264844,3,2502030148,5,,,h,1,Bauarbeiten,,,,,,,0.0,0.0
-3094267637294118702-2502030032-12,7476,2502030102,2502030103,1,,S,4,Stuttgart Schwabstr.|Stuttgart Feuersee|Stuttgart Stadtmitte|Stuttgart Hbf (tief)|Stuttgart Nord|Stuttgart-Feuerbach|Stuttgart-Zuffenhausen|Kornwestheim Pbf|Ludwigsburg|Favoritepark|Freiberg(Neckar),8000873,Benningen (Neckar),Baden-Württemberg,Benningen am Neckar,71726,9.244299075,48.94379773,5,2502030103,,2502030103,,,,,,,,,,,1.0,0.0
6022170079335753158-2502030102-12,7478,2502030132,2502030133,1,,S,4,Stuttgart Schwabstr.|Stuttgart Feuersee|Stuttgart Stadtmitte|Stuttgart Hbf (tief)|Stuttgart Nord|Stuttgart-Feuerbach|Stuttgart-Zuffenhausen|Kornwestheim Pbf|Ludwigsburg|Favoritepark|Freiberg(Neckar),8000873,Benningen (Neckar),Baden-Württemberg,Benningen am Neckar,71726,9.244299075,48.94379773,5,2502030133,,2502030133,,,,,,,,,,,1.0,0.0
5788512131322567824-2502030120-5,7278,2502030128,2502030128,1,,S,2,Waiblingen|Rommelshausen|Stetten-Beinstein|Endersbach,8000934,Beutelsbach,Baden-Württemberg,Weinstadt,71384,9.38551589,48.81038925,5,2502030128,,2502030129,,h,1,Bauarbeiten,,,,,,,0.0,1.0
7365903133354661246-2502030052-12,7580,2502030124,,5,,S,,Stuttgart Schwabstr.|Stuttgart Feuersee|Stuttgart Stadtmitte|Stuttgart Hbf (tief)|Stuttgart Nord|Stuttgart-Feuerbach|Stuttgart-Zuffenhausen|Kornwestheim Pbf|Ludwigsburg|Asperg|Tamm(Württ),8000038,Bietigheim-Bissingen,Baden-Württemberg,Bietigheim-Bissingen,74321,9.137217396,48.94794988,2,2502030126,,,,,,,,,,,,,2.0,0.0
7486434665750124688-2502030135-3,7195,2502030144,2502030144,,,S,1,Stuttgart-Vaihingen|Goldberg(Württ),8001055,Böblingen,Baden-Württemberg,Böblingen,71034,9.004531864,48.68784871,3,2502030143,4,2502030144,4,h,2,Bauarbeiten,,,,,,,-1.0,0.0
9202616644594106254-2502030105-3,56229,2502030114,2502030114,,,S,1,Stuttgart-Vaihingen|Goldberg(Württ),8001055,Böblingen,Baden-Württemberg,Böblingen,71034,9.004531864,48.68784871,3,2502030114,4,2502030114,4,h,2,Bauarbeiten,,,,,,,0.0,0.0
8861760534950546127-2502030042-11,7678,2502030106,2502030106,2,,S,6,Stuttgart Schwabstr.|Stuttgart Feuersee|Stuttgart Stadtmitte|Stuttgart Hbf (tief)|Stuttgart Nord|Stuttgart-Feuerbach|Stuttgart-Zuffenhausen|Neuwirtshaus(Porscheplatz)|Korntal|Weilimdorf,8001476,Ditzingen,Baden-Württemberg,Ditzingen,71254,9.067095186,48.82358726,4,2502030106,,2502030107,,h,1,Störung,,,,,,,0.0,1.0
7486434665750124688-2502030135-5,7195,2502030149,2502030149,2,,S,1,Stuttgart-Vaihingen|Goldberg(Württ)|Böblingen|Hulb,8001689,Ehningen (b Böblingen),Baden-Württemberg,Ehningen,71139,8.944310368,48.66275549,4,2502030148,,2502030149,,h,2,Bauarbeiten,,,,,,,-1.0,0.0
9202616644594106254-2502030105-5,56229,2502030119,2502030119,2,,S,1,Stuttgart-Vaihingen|Goldberg(Württ)|Böblingen|Hulb,8001689,Ehningen (b Böblingen),Baden-Württemberg,Ehningen,71139,8.944310368,48.66275549,4,2502030119,,2502030119,,h,2,Bauarbeiten,,,,,,,0.0,0.0
5788512131322567824-2502030120-4,7278,2502030126,2502030126,2,,S,2,Waiblingen|Rommelshausen|Stetten-Beinstein,8001785,Endersbach,Baden-Württemberg,Weinstadt,71384,9.370192421,48.81317323,4,2502030127,,2502030127,,h,1,Bauarbeiten,,,,,,,1.0,1.0
4298409621250373506-2502030048-3,19343,2502030059,2502030100,5,,MEX,12,Stuttgart Hbf|Stuttgart-Bad Cannstatt,8001920,Esslingen (Neckar),Baden-Württemberg,Esslingen am Neckar,73728,9.300578149,48.73854148,3,2502030100,,2502030101,,,,,,,,,,,1.0,1.0
2240230804009135876-2502030040-13,7180,2502030112,2502030112,8,,S,1,Stuttgart-Vaihingen|Stuttgart-Österfeld|Stuttgart Universität|Stuttgart Schwabstr.|Stuttgart Feuersee|Stuttgart Stadtmitte|Stuttgart Hbf (tief)|Stuttgart-Bad Cannstatt|Stuttgart Neckarpark|Stuttgart-Untertürkheim|Stuttgart-Obertürkheim|Esslingen-Mettingen,8001920,Esslingen (Neckar),Baden-Württemberg,Esslingen am Neckar,73728,9.300578149,48.73854148,3,2502030113,,2502030113,,h,2,Bauarbeiten,,,,,,,1.0,1.0
-4896468785972896802-2502022346-20,19188,2502030104,2502030105,3,,MEX,16,Ulm Hbf|Beimerstetten|Westerstetten|Lonsee|Urspring|Amstetten(Württ)|Geislingen(Steige)|Geislingen(Steige)West|Kuchen|Gingen(Fils)|Süßen|Salach|Eislingen(Fils)|Göppingen|Faurndau|Uhingen|Ebersbach(Fils)|Reichenbach(Fils)|Plochingen,8001920,Esslingen (Neckar),Baden-Württemberg,Esslingen am Neckar,73728,9.300578149,48.73854148,3,2502030104,,2502030105,,,,,,,,,,,0.0,0.0
2240230804009135876-2502030040-12,7180,2502030109,2502030109,4,,S,1,Stuttgart-Vaihingen|Stuttgart-Österfeld|Stuttgart Universität|Stuttgart Schwabstr.|Stuttgart Feuersee|Stuttgart Stadtmitte|Stuttgart Hbf (tief)|Stuttgart-Bad Cannstatt|Stuttgart Neckarpark|Stuttgart-Untertürkheim|Stuttgart-Obertürkheim,8001921,Esslingen-Mettingen,Baden-Württemberg,Esslingen am Neckar,73733,9.275799007,48.74696655,3,2502030110,,2502030111,,h,2,Bauarbeiten,,,,,,,1.0,2.0
2240230804009135876-2502030040-15,7180,2502030117,2502030117,4,,S,1,Stuttgart-Vaihingen|Stuttgart-Österfeld|Stuttgart Universität|Stuttgart Schwabstr.|Stuttgart Feuersee|Stuttgart Stadtmitte|Stuttgart Hbf (tief)|Stuttgart-Bad Cannstatt|Stuttgart Neckarpark|Stuttgart-Untertürkheim|Stuttgart-Obertürkheim|Esslingen-Mettingen|Esslingen(Neckar)|Oberesslingen,8006642,Esslingen-Zell,Baden-Württemberg,Esslingen am Neckar,73730,9.359739507,48.72436142,3,2502030118,,2502030118,,h,2,Bauarbeiten,,,,,,,1.0,1.0
6022170079335753158-2502030102-10,7478,2502030126,2502030126,1,,S,4,Stuttgart Schwabstr.|Stuttgart Feuersee|Stuttgart Stadtmitte|Stuttgart Hbf (tief)|Stuttgart Nord|Stuttgart-Feuerbach|Stuttgart-Zuffenhausen|Kornwestheim Pbf|Ludwigsburg,8001967,Favoritepark,Baden-Württemberg,Ludwigsburg,71634,9.180574277,48.90948451,5,2502030126,,2502030127,,,,,,,,,,,0.0,1.0
6022170079335753158-2502030102-11,7478,2502030129,2502030129,3,,S,4,Stuttgart Schwabstr.|Stuttgart Feuersee|Stuttgart Stadtmitte|Stuttgart Hbf (tief)|Stuttgart Nord|Stuttgart-Feuerbach|Stuttgart-Zuffenhausen|Kornwestheim Pbf|Ludwigsburg|Favoritepark,8002065,Freiberg (Neckar),Baden-Württemberg,Freiberg am Neckar,71691,9.197530085,48.92994974,5,2502030130,,2502030130,,,,,,,,,,,1.0,1.0
7486434665750124688-2502030135-6,7195,2502030152,2502030152,1,,S,1,Stuttgart-Vaihingen|Goldberg(Württ)|Böblingen|Hulb|Ehningen(b Böblingen),8002165,Gärtringen,Baden-Württemberg,Gärtringen,71116,8.908864487,48.64080021,5,2502030152,,2502030152,,h,2,Bauarbeiten,,,,,,,0.0,0.0
9202616644594106254-2502030105-6,56229,2502030122,2502030122,1,,S,1,Stuttgart-Vaihingen|Goldberg(Württ)|Böblingen|Hulb|Ehningen(b Böblingen),8002165,Gärtringen,Baden-Württemberg,Gärtringen,71116,8.908864487,48.64080021,5,2502030122,,2502030122,,h,2,Bauarbeiten,,,,,,,0.0,0.0
-7630775927595037256-2502030050-7,7276,2502030102,2502030102,2,,S,2,Waiblingen|Rommelshausen|Stetten-Beinstein|Endersbach|Beutelsbach|Grunbach,8002240,Geradstetten,Baden-Württemberg,Remshalden,73630,9.439522346,48.80527689,5,2502030103,,2502030104,,h,1,Bauarbeiten,,,,,,,1.0,2.0
5788512131322567824-2502030120-7,7278,2502030132,2502030132,2,,S,2,Waiblingen|Rommelshausen|Stetten-Beinstein|Endersbach|Beutelsbach|Grunbach,8002240,Geradstetten,Baden-Württemberg,Remshalden,73630,9.439522346,48.80527689,5,2502030133,,2502030133,,h,1,Bauarbeiten,,,,,,,1.0,1.0
7486434665750124688-2502030135-2,7195,2502030142,2502030142,,,S,1,Stuttgart-Vaihingen,8005201,Goldberg,Baden-Württemberg,Böblingen,71032,9.019733387,48.69651581,5,2502030141,1,2502030142,1,h,2,Bauarbeiten,,,,,,,-1.0,0.0
9202616644594106254-2502030105-2,56229,2502030112,2502030112,,,S,1,Stuttgart-Vaihingen,8005201,Goldberg,Baden-Württemberg,Böblingen,71032,9.019733387,48.69651581,5,2502030111,1,2502030112,1,h,2,Bauarbeiten,,,,,,,-1.0,0.0
-7630775927595037256-2502030050-6,7276,2502030100,2502030100,3,,S,2,Waiblingen|Rommelshausen|Stetten-Beinstein|Endersbach|Beutelsbach,8002448,Grunbach,Baden-Württemberg,Remshalden,73630,9.419580601,48.810414,4,2502030101,,2502030102,,h,1,Bauarbeiten,,,,,,,1.0,2.0
5788512131322567824-2502030120-6,7278,2502030130,2502030130,3,,S,2,Waiblingen|Rommelshausen|Stetten-Beinstein|Endersbach|Beutelsbach,8002448,Grunbach,Baden-Württemberg,Remshalden,73630,9.419580601,48.810414,4,2502030131,,2502030131,,h,1,Bauarbeiten,,,,,,,1.0,1.0
7486434665750124688-2502030135-8,7195,2502030159,,,,S,,Stuttgart-Vaihingen|Goldberg(Württ)|Böblingen|Hulb|Ehningen(b Böblingen)|Gärtringen|Nufringen,8002785,Herrenberg,Baden-Württemberg,Herrenberg,71083,8.862625253,48.59395697,3,2502030159,2,,,h,2,Bauarbeiten,,,,,,,0.0,0.0
9202616644594106254-2502030105-8,56229,2502030129,,,,S,,Stuttgart-Vaihingen|Goldberg(Württ)|Böblingen|Hulb|Ehningen(b Böblingen)|Gärtringen|Nufringen,8002785,Herrenberg,Baden-Württemberg,Herrenberg,71083,8.862625253,48.59395697,3,2502030129,3,,,h,2,Bauarbeiten,,,,,,,0.0,0.0
8861760534950546127-2502030042-12,7678,2502030109,2502030109,2,,S,6,Stuttgart Schwabstr.|Stuttgart Feuersee|Stuttgart Stadtmitte|Stuttgart Hbf (tief)|Stuttgart Nord|Stuttgart-Feuerbach|Stuttgart-Zuffenhausen|Neuwirtshaus(Porscheplatz)|Korntal|Weilimdorf|Ditzingen,8002892,Höfingen,Baden-Württemberg,Leonberg,71229,9.026180834,48.81503436,5,2502030109,,2502030110,,h,1,Störung,,,,,,,0.0,1.0
7486434665750124688-2502030135-4,7195,2502030146,2502030146,1,,S,1,Stuttgart-Vaihingen|Goldberg(Württ)|Böblingen,8003022,Hulb,Baden-Württemberg,Böblingen-Hulb,71032,8.982396429,48.67924173,5,2502030146,,2502030146,,h,2,Bauarbeiten,,,,,,,0.0,0.0
9202616644594106254-2502030105-4,56229,2502030116,2502030116,1,,S,1,Stuttgart-Vaihingen|Goldberg(Württ)|Böblingen,8003022,Hulb,Baden-Württemberg,Böblingen-Hulb,71032,8.982396429,48.67924173,5,2502030116,,2502030116,,h,2,Bauarbeiten,,,,,,,0.0,0.0
8861760534950546127-2502030042-9,7678,2502030101,2502030101,1,,S,6,Stuttgart Schwabstr.|Stuttgart Feuersee|Stuttgart Stadtmitte|Stuttgart Hbf (tief)|Stuttgart Nord|Stuttgart-Feuerbach|Stuttgart-Zuffenhausen|Neuwirtshaus(Porscheplatz),8003409,Korntal,Baden-Württemberg,Korntal,70825,9.121099128,48.82640246,4,2502030102,,2502030102,,h,1,Störung,,,,,,,1.0,1.0
7365903133354661246-2502030052-8,7580,2502030110,2502030110,4,,S,5,Stuttgart Schwabstr.|Stuttgart Feuersee|Stuttgart Stadtmitte|Stuttgart Hbf (tief)|Stuttgart Nord|Stuttgart-Feuerbach|Stuttgart-Zuffenhausen,8003411,Kornwestheim Pbf,Baden-Württemberg,Kornwestheim,70806,9.179967278,48.86215948,3,2502030110,,2502030111,,,,,,,,,,,0.0,1.0
6022170079335753158-2502030102-8,7478,2502030120,2502030120,4,,S,4,Stuttgart Schwabstr.|Stuttgart Feuersee|Stuttgart Stadtmitte|Stuttgart Hbf (tief)|Stuttgart Nord|Stuttgart-Feuerbach|Stuttgart-Zuffenhausen,8003411,Kornwestheim Pbf,Baden-Württemberg,Kornwestheim,70806,9.179967278,48.86215948,3,2502030120,,2502030121,,,,,,,,,,,0.0,1.0
8861760534950546127-2502030042-13,7678,2502030113,2502030113,2,,S,6,Stuttgart Schwabstr.|Stuttgart Feuersee|Stuttgart Stadtmitte|Stuttgart Hbf (tief)|Stuttgart Nord|Stuttgart-Feuerbach|Stuttgart-Zuffenhausen|Neuwirtshaus(Porscheplatz)|Korntal|Weilimdorf|Ditzingen|Höfingen,8003652,Leonberg,Baden-Württemberg,Leonberg,71229,9.004025993,48.79970547,3,2502030113,,2502030113,,h,1,Störung,,,,,,,0.0,0.0
7365903133354661246-2502030052-9,7580,2502030113,2502030114,2,,S,5,Stuttgart Schwabstr.|Stuttgart Feuersee|Stuttgart Stadtmitte|Stuttgart Hbf (tief)|Stuttgart Nord|Stuttgart-Feuerbach|Stuttgart-Zuffenhausen|Kornwestheim Pbf,8000235,Ludwigsburg,Baden-Württemberg,Ludwigsburg,71638,9.185229823,48.89208622,3,2502030113,,2502030114,,,,,,,,,,,0.0,0.0
6022170079335753158-2502030102-9,7478,2502030123,2502030124,2,,S,4,Stuttgart Schwabstr.|Stuttgart Feuersee|Stuttgart Stadtmitte|Stuttgart Hbf (tief)|Stuttgart Nord|Stuttgart-Feuerbach|Stuttgart-Zuffenhausen|Kornwestheim Pbf,8000235,Ludwigsburg,Baden-Württemberg,Ludwigsburg,71638,9.185229823,48.89208622,3,2502030124,,2502030124,,,,,,,,,,,1.0,0.0
8861760534950546127-2502030042-16,7678,2502030124,2502030124,1,,S,6,Stuttgart Schwabstr.|Stuttgart Feuersee|Stuttgart Stadtmitte|Stuttgart Hbf (tief)|Stuttgart Nord|Stuttgart-Feuerbach|Stuttgart-Zuffenhausen|Neuwirtshaus(Porscheplatz)|Korntal|Weilimdorf|Ditzingen|Höfingen|Leonberg|Rutesheim|Renningen,8003831,Malmsheim,Baden-Württemberg,Renningen,71272,8.905105557,48.77183564,5,2502030124,,2502030126,,h,1,Störung,,,,,,,0.0,2.0
-3094267637294118702-2502030032-13,7476,2502030105,,1,,S,,Stuttgart Schwabstr.|Stuttgart Feuersee|Stuttgart Stadtmitte|Stuttgart Hbf (tief)|Stuttgart Nord|Stuttgart-Feuerbach|Stuttgart-Zuffenhausen|Kornwestheim Pbf|Ludwigsburg|Favoritepark|Freiberg(Neckar)|Benningen(Neckar),8003853,Marbach (Neckar),Baden-Württemberg,Marbach am Neckar,71672,9.264611825,48.9437708,3,2502030105,,,,,,,,,,,,,0.0,0.0
6022170079335753158-2502030102-13,7478,2502030135,,1,,S,,Stuttgart Schwabstr.|Stuttgart Feuersee|Stuttgart Stadtmitte|Stuttgart Hbf (tief)|Stuttgart Nord|Stuttgart-Feuerbach|Stuttgart-Zuffenhausen|Kornwestheim Pbf|Ludwigsburg|Favoritepark|Freiberg(Neckar)|Benningen(Neckar),8003853,Marbach (Neckar),Baden-Württemberg,Marbach am Neckar,71672,9.264611825,48.9437708,3,2502030136,,,,,,,,,,,,,1.0,0.0
4029757619719024765-2502030100-6,7378,2502030114,2502030115,2,,S,3,Waiblingen|Neustadt-Hohenacker|Schwaikheim|Winnenden|Nellmersbach,8003913,Maubach,Baden-Württemberg,Backnang,71522,9.419487062,48.92623463,4,2502030114,,2502030115,,h,1,Bauarbeiten,,,,,,,0.0,0.0
3212831510387931381-2502030130-6,7380,2502030144,2502030145,2,,S,3,Waiblingen|Neustadt-Hohenacker|Schwaikheim|Winnenden|Nellmersbach,8003913,Maubach,Baden-Württemberg,Backnang,71522,9.419487062,48.92623463,4,2502030145,,2502030145,,h,1,Bauarbeiten,,,,,,,1.0,0.0
4029757619719024765-2502030100-5,7378,2502030111,2502030112,2,,S,3,Waiblingen|Neustadt-Hohenacker|Schwaikheim|Winnenden,8004233,Nellmersbach,Baden-Württemberg,Leutenbach,71397,9.415421538,48.90336425,5,2502030111,,2502030112,,h,1,Bauarbeiten,,,,,,,0.0,0.0
3212831510387931381-2502030130-5,7380,2502030141,2502030142,2,,S,3,Waiblingen|Neustadt-Hohenacker|Schwaikheim|Winnenden,8004233,Nellmersbach,Baden-Württemberg,Leutenbach,71397,9.415421538,48.90336425,5,2502030142,,2502030142,,h,1,Bauarbeiten,,,,,,,1.0,0.0
4029757619719024765-2502030100-2,7378,2502030103,2502030103,1,,S,3,Waiblingen,8004333,Neustadt-Hohenacker,Baden-Württemberg,Waiblingen,71336,9.32455106,48.85921668,5,2502030103,,2502030104,,h,1,Bauarbeiten,,,,,,,0.0,1.0
3212831510387931381-2502030130-2,7380,2502030133,2502030133,1,,S,3,Waiblingen,8004333,Neustadt-Hohenacker,Baden-Württemberg,Waiblingen,71336,9.32455106,48.85921668,5,2502030134,,2502030134,,h,1,Bauarbeiten,,,,,,,1.0,1.0
7486434665750124688-2502030135-7,7195,2502030155,2502030155,1,,S,1,Stuttgart-Vaihingen|Goldberg(Württ)|Böblingen|Hulb|Ehningen(b Böblingen)|Gärtringen,8004490,Nufringen,Baden-Württemberg,Nufringen,71154,8.889817485,48.62010967,5,2502030154,,2502030155,,h,2,Bauarbeiten,,,,,,,-1.0,0.0
9202616644594106254-2502030105-7,56229,2502030125,2502030125,1,,S,1,Stuttgart-Vaihingen|Goldberg(Württ)|Böblingen|Hulb|Ehningen(b Böblingen)|Gärtringen,8004490,Nufringen,Baden-Württemberg,Nufringen,71154,8.889817485,48.62010967,5,2502030124,,2502030125,,h,2,Bauarbeiten,,,,,,,-1.0,0.0
2240230804009135876-2502030040-14,7180,2502030114,2502030114,4,,S,1,Stuttgart-Vaihingen|Stuttgart-Österfeld|Stuttgart Universität|Stuttgart Schwabstr.|Stuttgart Feuersee|Stuttgart Stadtmitte|Stuttgart Hbf (tief)|Stuttgart-Bad Cannstatt|Stuttgart Neckarpark|Stuttgart-Untertürkheim|Stuttgart-Obertürkheim|Esslingen-Mettingen|Esslingen(Neckar),8004528,Oberesslingen,Baden-Württemberg,Esslingen am Neckar,73730,9.327277435,48.72983585,3,2502030115,,2502030116,,h,2,Bauarbeiten,,,,,,,1.0,2.0
4298409621250373506-2502030048-4,19343,2502030106,2502030107,7,,MEX,12,Stuttgart Hbf|Stuttgart-Bad Cannstatt|Esslingen(Neckar),8000302,Plochingen,Baden-Württemberg,Plochingen,73207,9.411294578,48.71293906,2,2502030107,,2502030108,,,,,,,,,,,1.0,1.0
397053316391935562-2502030042-4,19189,2502030100,2502030100,4,,MEX,16,Stuttgart Hbf|Stuttgart-Bad Cannstatt|Esslingen(Neckar),8000302,Plochingen,Baden-Württemberg,Plochingen,73207,9.411294578,48.71293906,2,2502030101,,2502030101,,,,,,,,,,,1.0,1.0
2240230804009135876-2502030040-17,7180,2502030122,,9,,S,,Stuttgart-Vaihingen|Stuttgart-Österfeld|Stuttgart Universität|Stuttgart Schwabstr.|Stuttgart Feuersee|Stuttgart Stadtmitte|Stuttgart Hbf (tief)|Stuttgart-Bad Cannstatt|Stuttgart Neckarpark|Stuttgart-Untertürkheim|Stuttgart-Obertürkheim|Esslingen-Mettingen|Esslingen(Neckar)|Oberesslingen|Esslingen-Zell|Altbach,8000302,Plochingen,Baden-Württemberg,Plochingen,73207,9.411294578,48.71293906,2,2502030123,10,,,h,2,Bauarbeiten,,,,,,,1.0,0.0
8861760534950546127-2502030042-15,7678,2502030119,2502030122,3,,S,6,Stuttgart Schwabstr.|Stuttgart Feuersee|Stuttgart Stadtmitte|Stuttgart Hbf (tief)|Stuttgart Nord|Stuttgart-Feuerbach|Stuttgart-Zuffenhausen|Neuwirtshaus(Porscheplatz)|Korntal|Weilimdorf|Ditzingen|Höfingen|Leonberg|Rutesheim,8000313,Renningen,Baden-Württemberg,Renningen,71272,8.932650148,48.77515509,3,2502030121,,2502030122,,h,1,Störung,,,,,,,2.0,0.0
5788512131322567824-2502030120-2,7278,2502030122,2502030122,1,,S,2,Waiblingen,8005157,Rommelshausen,Baden-Württemberg,Kernen,71394,9.319175885,48.81552017,4,2502030122,,2502030123,,h,1,Bauarbeiten,,,,,,,0.0,1.0
8861760534950546127-2502030042-14,7678,2502030116,2502030116,2,,S,6,Stuttgart Schwabstr.|Stuttgart Feuersee|Stuttgart Stadtmitte|Stuttgart Hbf (tief)|Stuttgart Nord|Stuttgart-Feuerbach|Stuttgart-Zuffenhausen|Neuwirtshaus(Porscheplatz)|Korntal|Weilimdorf|Ditzingen|Höfingen|Leonberg,8005236,Rutesheim,Baden-Württemberg,Leonberg,71229,8.960325242,48.79031093,5,2502030117,,2502030118,,h,1,Störung,,,,,,,1.0,2.0
-7630775927595037256-2502030050-10,7276,2502030110,,1,,S,,Waiblingen|Rommelshausen|Stetten-Beinstein|Endersbach|Beutelsbach|Grunbach|Geradstetten|Winterbach(b Schorndorf)|Weiler(Rems),8005424,Schorndorf,Baden-Württemberg,Schorndorf,73614,9.525686251,48.80693898,3,2502030111,,,,h,1,Bauarbeiten,,,,,,,1.0,0.0
-7696913984968518161-2502030037-9,19446,2502030113,2502030114,3,,MEX,13,Aalen Hbf|Mögglingen(Gmünd)|Böbingen(Rems)|Schwäbisch Gmünd|Lorch(Württ)|Waldhausen(b Schorndorf)|Plüderhausen|Urbach(b Schorndorf),8005424,Schorndorf,Baden-Württemberg,Schorndorf,73614,9.525686251,48.80693898,3,2502030114,,2502030115,,,,,,,,,,,1.0,1.0
5788512131322567824-2502030120-10,7278,2502030140,,1,,S,,Waiblingen|Rommelshausen|Stetten-Beinstein|Endersbach|Beutelsbach|Grunbach|Geradstetten|Winterbach(b Schorndorf)|Weiler(Rems),8005424,Schorndorf,Baden-Württemberg,Schorndorf,73614,9.525686251,48.80693898,3,2502030141,14,,,h,1,Bauarbeiten,,,,,,,1.0,0.0
4029757619719024765-2502030100-3,7378,2502030106,2502030106,2,,S,3,Waiblingen|Neustadt-Hohenacker,8005454,Schwaikheim,Baden-Württemberg,Schwaikheim,71409,9.354747358,48.86832665,4,2502030106,,2502030106,,h,1,Bauarbeiten,,,,,,,0.0,0.0
3212831510387931381-2502030130-3,7380,2502030136,2502030136,2,,S,3,Waiblingen|Neustadt-Hohenacker,8005454,Schwaikheim,Baden-Württemberg,Schwaikheim,71409,9.354747358,48.86832665,4,2502030136,,2502030137,,h,1,Bauarbeiten,,,,,,,0.0,1.0
5788512131322567824-2502030120-3,7278,2502030124,2502030124,1,,S,2,Waiblingen|Rommelshausen,8005726,Stetten-Beinstein,Baden-Württemberg,Weinstadt,71384,9.352769725,48.81199601,5,2502030125,,2502030125,,h,1,Bauarbeiten,,,,,,,1.0,1.0
-1262072456597967463-2502022238-17,88652,2502030119,,15,,RE,,Nürnberg Hbf|Roßtal|Heilsbronn|Wicklesgreuth|Ansbach|Leutershausen-Wiedersbach|Dombühl|Schnelldorf|Crailsheim|Eckartshausen-Ilshofen|Schwäbisch Hall-Hessental|Gaildorf West|Murrhardt|Sulzbach(Murr)|Oppenweiler(Württ)|Backnang,8000096,Stuttgart Hbf,Baden-Württemberg,Stuttgart,70173,9.183172973,48.78473069,1,2502030117,,,,,,,,,,,,,-2.0,0.0
-4896468785972896802-2502022346-22,19188,2502030116,,12,,MEX,,Ulm Hbf|Beimerstetten|Westerstetten|Lonsee|Urspring|Amstetten(Württ)|Geislingen(Steige)|Geislingen(Steige)West|Kuchen|Gingen(Fils)|Süßen|Salach|Eislingen(Fils)|Göppingen|Faurndau|Uhingen|Ebersbach(Fils)|Reichenbach(Fils)|Plochingen|Esslingen(Neckar)|Stuttgart-Bad Cannstatt,8000096,Stuttgart Hbf,Baden-Württemberg,Stuttgart,70173,9.183172973,48.78473069,1,2502030116,,,,,,,,,,,,,0.0,0.0
-9111350698231530956-2502021900-11,937,2502030106,,9,,ICE,,Berlin Hbf|Berlin Südkreuz|Halle(Saale)Hbf|Erfurt Hbf|Frankfurt(Main)Hbf|Darmstadt Hbf|Bensheim|Weinheim(Bergstr)Hbf|Heidelberg Hbf|Vaihingen(Enz),8000096,Stuttgart Hbf,Baden-Württemberg,Stuttgart,70173,9.183172973,48.78473069,1,2502030106,,,,h,2,Information,,,,,,,0.0,0.0
2240230804009135876-2502030040-9,7180,2502030102,2502030102,2,,S,1,Stuttgart-Vaihingen|Stuttgart-Österfeld|Stuttgart Universität|Stuttgart Schwabstr.|Stuttgart Feuersee|Stuttgart Stadtmitte|Stuttgart Hbf (tief)|Stuttgart-Bad Cannstatt,8006743,Stuttgart Neckarpark,Baden-Württemberg,Stuttgart,70372,9.24106855,48.79194362,4,2502030102,,2502030102,,h,2,Bauarbeiten,,,,,,,0.0,0.0
7365903133354661246-2502030052-5,7580,2502030101,2502030101,3,,S,5,Stuttgart Schwabstr.|Stuttgart Feuersee|Stuttgart Stadtmitte|Stuttgart Hbf (tief),8005767,Stuttgart Nord,Baden-Württemberg,Stuttgard-Nord,70174,9.188061449,48.80374161,5,2502030101,,2502030101,,,,,,,,,,,0.0,0.0
6022170079335753158-2502030102-5,7478,2502030111,2502030111,3,,S,4,Stuttgart Schwabstr.|Stuttgart Feuersee|Stuttgart Stadtmitte|Stuttgart Hbf (tief),8005767,Stuttgart Nord,Baden-Württemberg,Stuttgard-Nord,70174,9.188061449,48.80374161,5,2502030106,,2502030111,,,,,,,,,,,-5.0,0.0
2856584661102317991-2502030038-16,7181,2502030117,2502030117,1,,S,1,Plochingen|Altbach|Esslingen-Zell|Oberesslingen|Esslingen(Neckar)|Esslingen-Mettingen|Stuttgart-Obertürkheim|Stuttgart-Untertürkheim|Stuttgart Neckarpark|Stuttgart-Bad Cannstatt|Stuttgart Hbf (tief)|Stuttgart Stadtmitte|Stuttgart Feuersee|Stuttgart Schwabstr.|Stuttgart Universität,8005779,Stuttgart Österfeld,Baden-Württemberg,Stuttgart,70563,9.116751457,48.73749946,4,2502030117,,2502030118,,h,2,Bauarbeiten,,,,,,,0.0,1.0
1988721982110202499-2502030055-6,7293,2502030107,2502030107,1,,S,2,Stuttgart Hbf (tief)|Stuttgart Stadtmitte|Stuttgart Feuersee|Stuttgart Schwabstr.|Stuttgart Universität,8005779,Stuttgart Österfeld,Baden-Württemberg,Stuttgart,70563,9.116751457,48.73749946,4,2502030107,,2502030108,,,,,,,,,,,0.0,1.0
2856584661102317991-2502030038-15,7181,2502030115,2502030115,1,,S,1,Plochingen|Altbach|Esslingen-Zell|Oberesslingen|Esslingen(Neckar)|Esslingen-Mettingen|Stuttgart-Obertürkheim|Stuttgart-Untertürkheim|Stuttgart Neckarpark|Stuttgart-Bad Cannstatt|Stuttgart Hbf (tief)|Stuttgart Stadtmitte|Stuttgart Feuersee|Stuttgart Schwabstr.,8006513,Stuttgart Universität,Baden-Württemberg,Stuttgart,70569,9.105864214,48.74511762,4,2502030115,,2502030116,,h,2,Bauarbeiten,,,,,,,0.0,1.0
1988721982110202499-2502030055-5,7293,2502030105,2502030105,1,,S,2,Stuttgart Hbf (tief)|Stuttgart Stadtmitte|Stuttgart Feuersee|Stuttgart Schwabstr.,8006513,Stuttgart Universität,Baden-Württemberg,Stuttgart,70569,9.105864214,48.74511762,4,2502030105,,2502030105,,,,,,,,,,,0.0,0.0
2856584661102317991-2502030038-10,7181,2502030100,2502030101,1,,S,1,Plochingen|Altbach|Esslingen-Zell|Oberesslingen|Esslingen(Neckar)|Esslingen-Mettingen|Stuttgart-Obertürkheim|Stuttgart-Untertürkheim|Stuttgart Neckarpark,8005769,Stuttgart-Bad Cannstatt,Baden-Württemberg,Stuttgart,70372,9.217468636,48.80127978,3,2502030100,,2502030101,,h,2,Bauarbeiten,,,,,,,0.0,0.0
-4896468785972896802-2502022346-21,19188,2502030112,2502030112,5,,MEX,16,Ulm Hbf|Beimerstetten|Westerstetten|Lonsee|Urspring|Amstetten(Württ)|Geislingen(Steige)|Geislingen(Steige)West|Kuchen|Gingen(Fils)|Süßen|Salach|Eislingen(Fils)|Göppingen|Faurndau|Uhingen|Ebersbach(Fils)|Reichenbach(Fils)|Plochingen|Esslingen(Neckar),8005769,Stuttgart-Bad Cannstatt,Baden-Württemberg,Stuttgart,70372,9.217468636,48.80127978,3,2502030112,,2502030112,,,,,,,,,,,0.0,0.0
7365903133354661246-2502030052-6,7580,2502030103,2502030104,2,,S,5,Stuttgart Schwabstr.|Stuttgart Feuersee|Stuttgart Stadtmitte|Stuttgart Hbf (tief)|Stuttgart Nord,8005770,Stuttgart-Feuerbach,Baden-Württemberg,Feuerbach,70469,9.169186287,48.81363554,3,2502030103,,2502030104,,,,,,,,,,,0.0,0.0
6022170079335753158-2502030102-6,7478,2502030113,2502030114,2,,S,4,Stuttgart Schwabstr.|Stuttgart Feuersee|Stuttgart Stadtmitte|Stuttgart Hbf (tief)|Stuttgart Nord,8005770,Stuttgart-Feuerbach,Baden-Württemberg,Feuerbach,70469,9.169186287,48.81363554,3,2502030113,,2502030114,,,,,,,,,,,0.0,0.0
2856584661102317991-2502030038-13,7181,2502030108,2502030109,1,,S,1,Plochingen|Altbach|Esslingen-Zell|Oberesslingen|Esslingen(Neckar)|Esslingen-Mettingen|Stuttgart-Obertürkheim|Stuttgart-Untertürkheim|Stuttgart Neckarpark|Stuttgart-Bad Cannstatt|Stuttgart Hbf (tief)|Stuttgart Stadtmitte,8006699,Stuttgart Feuersee,Baden-Württemberg,Stuttgart,70176,9.165850846,48.7726173,3,2502030109,,2502030109,,h,2,Bauarbeiten,,,,,,,1.0,0.0
6022170079335753158-2502030102-2,7478,2502030104,2502030104,2,,S,4,Stuttgart Schwabstr.,8006699,Stuttgart Feuersee,Baden-Württemberg,Stuttgart,70176,9.165850846,48.7726173,3,2502030057,,2502030058,,,,,,,,,,,-7.0,-6.0
-2485197927000197180-2502030050-5,7294,2502030101,2502030102,2,,S,2,Stuttgart-Vaihingen|Stuttgart-Österfeld|Stuttgart Universität|Stuttgart Schwabstr.,8006699,Stuttgart Feuersee,Baden-Württemberg,Stuttgart,70176,9.165850846,48.7726173,3,,,,,,,,,,,,c,c,0.0,0.0
2240230804009135876-2502030040-11,7180,2502030107,2502030107,6,,S,1,Stuttgart-Vaihingen|Stuttgart-Österfeld|Stuttgart Universität|Stuttgart Schwabstr.|Stuttgart Feuersee|Stuttgart Stadtmitte|Stuttgart Hbf (tief)|Stuttgart-Bad Cannstatt|Stuttgart Neckarpark|Stuttgart-Untertürkheim,8005772,Stuttgart-Obertürkheim,Baden-Württemberg,Stuttgart,70329,9.268167932,48.76175015,4,2502030107,,2502030108,,h,2,Bauarbeiten,,,,,,,0.0,1.0
2856584661102317991-2502030038-14,7181,2502030110,2502030110,1,,S,1,Plochingen|Altbach|Esslingen-Zell|Oberesslingen|Esslingen(Neckar)|Esslingen-Mettingen|Stuttgart-Obertürkheim|Stuttgart-Untertürkheim|Stuttgart Neckarpark|Stuttgart-Bad Cannstatt|Stuttgart Hbf (tief)|Stuttgart Stadtmitte|Stuttgart Feuersee,8006698,Stuttgart Schwabstraße,Baden-Württemberg,Stuttgart,70197,9.156496717,48.77013954,3,2502030111,,2502030111,,h,2,Bauarbeiten,,,,,,,1.0,1.0
1988721982110202499-2502030055-4,7293,2502030100,2502030100,1,,S,2,Stuttgart Hbf (tief)|Stuttgart Stadtmitte|Stuttgart Feuersee,8006698,Stuttgart Schwabstraße,Baden-Württemberg,Stuttgart,70197,9.156496717,48.77013954,3,2502030100,,2502030101,,,,,,,,,,,0.0,1.0
6022170079335753158-2502030102-1,7478,,2502030102,,,S,4,,8006698,Stuttgart Schwabstraße,Baden-Württemberg,Stuttgart,70197,9.156496717,48.77013954,3,,,2502030056,,,,,,,,,,,0.0,-6.0
-2485197927000197180-2502030050-4,7294,2502030100,2502030100,2,,S,2,Stuttgart-Vaihingen|Stuttgart-Österfeld|Stuttgart Universität,8006698,Stuttgart Schwabstraße,Baden-Württemberg,Stuttgart,70197,9.156496717,48.77013954,3,,,,,,,,,,,,c,c,0.0,0.0
2856584661102317991-2502030038-12,7181,2502030107,2502030107,1,,S,1,Plochingen|Altbach|Esslingen-Zell|Oberesslingen|Esslingen(Neckar)|Esslingen-Mettingen|Stuttgart-Obertürkheim|Stuttgart-Untertürkheim|Stuttgart Neckarpark|Stuttgart-Bad Cannstatt|Stuttgart Hbf (tief),8006700,Stuttgart Stadtmitte,Baden-Württemberg,Stuttgart,70173,9.173046906,48.77632953,3,2502030107,,2502030108,,h,2,Bauarbeiten,,,,,,,0.0,1.0
6022170079335753158-2502030102-3,7478,2502030105,2502030106,2,,S,4,Stuttgart Schwabstr.|Stuttgart Feuersee,8006700,Stuttgart Stadtmitte,Baden-Württemberg,Stuttgart,70173,9.173046906,48.77632953,3,2502030100,,2502030101,,,,,,,,,,,-5.0,-5.0
-2485197927000197180-2502030050-6,7294,2502030103,2502030103,2,,S,2,Stuttgart-Vaihingen|Stuttgart-Österfeld|Stuttgart Universität|Stuttgart Schwabstr.|Stuttgart Feuersee,8006700,Stuttgart Stadtmitte,Baden-Württemberg,Stuttgart,70173,9.173046906,48.77632953,3,,,,,,,,,,,,c,c,0.0,0.0
2240230804009135876-2502030040-10,7180,2502030104,2502030104,6,,S,1,Stuttgart-Vaihingen|Stuttgart-Österfeld|Stuttgart Universität|Stuttgart Schwabstr.|Stuttgart Feuersee|Stuttgart Stadtmitte|Stuttgart Hbf (tief)|Stuttgart-Bad Cannstatt|Stuttgart Neckarpark,8005775,Stuttgart-Untertürkheim Pbf,Baden-Württemberg,Stuttgart,70327,9.250467074,48.77984679,3,2502030104,,2502030104,,h,2,Bauarbeiten,,,,,,,0.0,0.0
2856584661102317991-2502030038-17,7181,2502030119,,2,,S,,Plochingen|Altbach|Esslingen-Zell|Oberesslingen|Esslingen(Neckar)|Esslingen-Mettingen|Stuttgart-Obertürkheim|Stuttgart-Untertürkheim|Stuttgart Neckarpark|Stuttgart-Bad Cannstatt|Stuttgart Hbf (tief)|Stuttgart Stadtmitte|Stuttgart Feuersee|Stuttgart Schwabstr.|Stuttgart Universität|Stuttgart-Österfeld,8005776,Stuttgart-Vaihingen,Baden-Württemberg,Stuttgart,70563,9.113913368,48.72698116,3,2502030120,,,,h,2,Bauarbeiten,,,,,,,1.0,0.0
7486434665750124688-2502030135-1,7195,,2502030135,,,S,1,,8005776,Stuttgart-Vaihingen,Baden-Württemberg,Stuttgart,70563,9.113913368,48.72698116,3,,,2502030134,,h,2,Bauarbeiten,,,,,,,0.0,-1.0
1988721982110202499-2502030055-7,7293,2502030109,,2,,S,,Stuttgart Hbf (tief)|Stuttgart Stadtmitte|Stuttgart Feuersee|Stuttgart Schwabstr.|Stuttgart Universität|Stuttgart-Österfeld,8005776,Stuttgart-Vaihingen,Baden-Württemberg,Stuttgart,70563,9.113913368,48.72698116,3,2502030110,,,,,,,,,,,,,1.0,0.0
9202616644594106254-2502030105-1,56229,,2502030105,,,S,1,,8005776,Stuttgart-Vaihingen,Baden-Württemberg,Stuttgart,70563,9.113913368,48.72698116,3,,,2502030105,6,h,2,Bauarbeiten,,,,,,,0.0,0.0
8861760534950546127-2502030042-10,7678,2502030103,2502030103,1,,S,6,Stuttgart Schwabstr.|Stuttgart Feuersee|Stuttgart Stadtmitte|Stuttgart Hbf (tief)|Stuttgart Nord|Stuttgart-Feuerbach|Stuttgart-Zuffenhausen|Neuwirtshaus(Porscheplatz)|Korntal,8006268,Stuttgart-Weilimdorf,Baden-Württemberg,Stuttgart,70499,9.094370086,48.82208429,5,2502030104,,2502030104,,h,1,Störung,,,,,,,1.0,1.0
7365903133354661246-2502030052-7,7580,2502030106,2502030107,2,,S,5,Stuttgart Schwabstr.|Stuttgart Feuersee|Stuttgart Stadtmitte|Stuttgart Hbf (tief)|Stuttgart Nord|Stuttgart-Feuerbach,8005778,Stuttgart-Zuffenhausen,Baden-Württemberg,Stuttgart,70435,9.167156375,48.82960884,3,2502030107,,2502030107,,,,,,,,,,,1.0,0.0
6022170079335753158-2502030102-7,7478,2502030116,2502030117,2,,S,4,Stuttgart Schwabstr.|Stuttgart Feuersee|Stuttgart Stadtmitte|Stuttgart Hbf (tief)|Stuttgart Nord|Stuttgart-Feuerbach,8005778,Stuttgart-Zuffenhausen,Baden-Württemberg,Stuttgart,70435,9.167156375,48.82960884,3,2502030117,,2502030117,,,,,,,,,,,1.0,0.0
7365903133354661246-2502030052-11,7580,2502030119,2502030120,3,,S,5,Stuttgart Schwabstr.|Stuttgart Feuersee|Stuttgart Stadtmitte|Stuttgart Hbf (tief)|Stuttgart Nord|Stuttgart-Feuerbach|Stuttgart-Zuffenhausen|Kornwestheim Pbf|Ludwigsburg|Asperg,8005820,Tamm (Württ),Baden-Württemberg,Tamm,71732,9.125288012,48.92187736,4,2502030120,,2502030120,,,,,,,,,,,1.0,0.0
-7696913984968518161-2502030037-10,19446,2502030128,,6,,MEX,,Aalen Hbf|Mögglingen(Gmünd)|Böbingen(Rems)|Schwäbisch Gmünd|Lorch(Württ)|Waldhausen(b Schorndorf)|Plüderhausen|Urbach(b Schorndorf)|Schorndorf,8000180,Waiblingen,Baden-Württemberg,Waiblingen,71332,9.300476874,48.8262444,3,2502030128,,,,,,,,,,,,,0.0,0.0
5788512131322567824-2502030120-1,7278,,2502030120,,,S,2,,8000180,Waiblingen,Baden-Württemberg,Waiblingen,71332,9.300476874,48.8262444,3,,,2502030120,,h,1,Bauarbeiten,,,,,,,0.0,0.0
4029757619719024765-2502030100-1,7378,,2502030100,,,S,3,,8000180,Waiblingen,Baden-Württemberg,Waiblingen,71332,9.300476874,48.8262444,3,,,2502030100,,h,1,Bauarbeiten,,,,,,,0.0,0.0
-9118522758999578394-2502030140-1,300,,2502030140,,,Bus,EV,,8000180,Waiblingen,Baden-Württemberg,Waiblingen,71332,9.300476874,48.8262444,3,,,,,,,,,,,,,,0.0,0.0
3212831510387931381-2502030130-1,7380,,2502030130,,,S,3,,8000180,Waiblingen,Baden-Württemberg,Waiblingen,71332,9.300476874,48.8262444,3,,,2502030130,,h,1,Bauarbeiten,,,,,,,0.0,0.0
8861760534950546127-2502030042-17,7678,2502030127,,1,,S,,Stuttgart Schwabstr.|Stuttgart Feuersee|Stuttgart Stadtmitte|Stuttgart Hbf (tief)|Stuttgart Nord|Stuttgart-Feuerbach|Stuttgart-Zuffenhausen|Neuwirtshaus(Porscheplatz)|Korntal|Weilimdorf|Ditzingen|Höfingen|Leonberg|Rutesheim|Renningen|Malmsheim,8006271,Weil der Stadt,Baden-Württemberg,Weil der Stadt,71263,8.873189074,48.7557357,4,2502030128,,,,h,1,Störung,,,,,,,1.0,0.0
-7630775927595037256-2502030050-9,7276,2502030107,2502030107,1,,S,2,Waiblingen|Rommelshausen|Stetten-Beinstein|Endersbach|Beutelsbach|Grunbach|Geradstetten|Winterbach(b Schorndorf),8006277,Weiler (Rems),Baden-Württemberg,Schorndorf,76314,9.501891172,48.80034585,5,2502030108,,2502030108,,h,1,Bauarbeiten,,,,,,,1.0,1.0
5788512131322567824-2502030120-9,7278,2502030137,2502030137,1,,S,2,Waiblingen|Rommelshausen|Stetten-Beinstein|Endersbach|Beutelsbach|Grunbach|Geradstetten|Winterbach(b Schorndorf),8006277,Weiler (Rems),Baden-Württemberg,Schorndorf,76314,9.501891172,48.80034585,5,2502030138,,2502030138,,h,1,Bauarbeiten,,,,,,,1.0,1.0
4298409621250373506-2502030048-6,19343,2502030114,2502030115,2,,MEX,12,Stuttgart Hbf|Stuttgart-Bad Cannstatt|Esslingen(Neckar)|Plochingen|Wernau(Neckar),8006331,Wendlingen (Neckar),Baden-Württemberg,Wendlingen am Neckar,73240,9.373662098,48.67368917,3,2502030115,,2502030116,,,,,,,,,,,1.0,1.0
4298409621250373506-2502030048-5,19343,2502030110,2502030111,1,,MEX,12,Stuttgart Hbf|Stuttgart-Bad Cannstatt|Esslingen(Neckar)|Plochingen,8006346,Wernau (Neckar),Baden-Württemberg,Wernau (Neckar),73249,9.413654423,48.69417221,4,2502030111,2,2502030112,2,,,,,,,,,,1.0,1.0
4029757619719024765-2502030100-4,7378,2502030109,2502030109,2,,S,3,Waiblingen|Neustadt-Hohenacker|Schwaikheim,8006479,Winnenden,Baden-Württemberg,Winnenden,71364,9.392155928,48.8795625,3,2502030109,,2502030109,,h,1,Bauarbeiten,,,,,,,0.0,0.0
3212831510387931381-2502030130-4,7380,2502030139,2502030139,2,,S,3,Waiblingen|Neustadt-Hohenacker|Schwaikheim,8006479,Winnenden,Baden-Württemberg,Winnenden,71364,9.392155928,48.8795625,3,2502030139,,2502030140,,h,1,Bauarbeiten,,,,,,,0.0,1.0
-7630775927595037256-2502030050-8,7276,2502030105,2502030105,2,,S,2,Waiblingen|Rommelshausen|Stetten-Beinstein|Endersbach|Beutelsbach|Grunbach|Geradstetten,8006485,Winterbach (b Schorndorf),Baden-Württemberg,Winterbach,73650,9.481549751,48.79842743,4,2502030106,,2502030107,,h,1,Bauarbeiten,,,,,,,1.0,2.0
5788512131322567824-2502030120-8,7278,2502030135,2502030135,2,,S,2,Waiblingen|Rommelshausen|Stetten-Beinstein|Endersbach|Beutelsbach|Grunbach|Geradstetten,8006485,Winterbach (b Schorndorf),Baden-Württemberg,Winterbach,73650,9.481549751,48.79842743,4,2502030136,,2502030136,,h,1,Bauarbeiten,,,,,,,1.0,1.0
2856584661102317991-2502030038-11,7181,2502030105,2502030105,101,,S,1,Plochingen|Altbach|Esslingen-Zell|Oberesslingen|Esslingen(Neckar)|Esslingen-Mettingen|Stuttgart-Obertürkheim|Stuttgart-Untertürkheim|Stuttgart Neckarpark|Stuttgart-Bad Cannstatt,8098096,Stuttgart Hbf (tief),Baden-Württemberg,Stuttgart,70173,9.180228831,48.78338649,1,2502030105,,2502030106,,h,2,Bauarbeiten,,,,,,,0.0,1.0
6022170079335753158-2502030102-4,7478,2502030107,2502030108,102,,S,4,Stuttgart Schwabstr.|Stuttgart Feuersee|Stuttgart Stadtmitte,8098096,Stuttgart Hbf (tief),Baden-Württemberg,Stuttgart,70173,9.180228831,48.78338649,1,2502030102,,2502030102,,,,,,,,,,,-5.0,-6.0
-2485197927000197180-2502030050-7,7294,2502030105,,102,,S,,Stuttgart-Vaihingen|Stuttgart-Österfeld|Stuttgart Universität|Stuttgart Schwabstr.|Stuttgart Feuersee|Stuttgart Stadtmitte,8098096,Stuttgart Hbf (tief),Baden-Württemberg,Stuttgart,70173,9.180228831,48.78338649,1,,,,,,,,,,,,c,,0.0,0.0
