ID,train_number,planned_arrival,planned_departure,planned_platform,planned_status,category_train,train,path,eva_nr,station_name,station_state,station_city,station_zipcode,station_long,station_lat,station_category,changed_arrival,changed_platform_arrival,changed_departure,changed_platform_departure,message_status,priority,info,arrival_hidden,departure_hidden,arrival_path,departure_path,arrival_status,departure_status,arrival_delay_m,departure_delay_m
-3366414490112859120-2503050055-10,7180,2503050119,2503050119,4,,S,1,Stuttgart Hbf|Stuttgart-Bad Cannstatt|Stuttgart Neckarpark|Stuttgart-Untertürkheim|Stuttgart-Obertürkheim|Esslingen-Mettingen|Esslingen(Neckar)|Oberesslingen|Esslingen-Zell,8000508,Altbach,Baden-Württemberg,Altbach,73776,9.382434033,48.72031354,3,2503050119,,2503050120,,,,,,,,,,,0.0,1.0
355081523282390241-2503050107-4,7580,2503050117,2503050117,4,,S,5,Stuttgart-Zuffenhausen|Kornwestheim Pbf|Ludwigsburg,8000630,Asperg,Baden-Württemberg,Asperg,71679,9.147977466,48.90725609,4,2503050120,,2503050121,,,,,,,,,,,3.0,4.0
8227250429284919402-2503050119-11,7380,2503050148,,4,,S,,Stuttgart-Bad Cannstatt|Stuttgart Nürnberger Str.|Stuttgart-Sommerrain|Fellbach|Waiblingen|Neustadt-Hohenacker|Schwaikheim|Winnenden|Nellmersbach|Maubach,8000016,Backnang,Baden-Württemberg,Backnang,71522,9.425986107,48.94264844,3,2503050147,,,,,,,,,,,,,-1.0,0.0
-8597257351984466856-2503050049-11,7378,2503050118,,5,,S,,Stuttgart-Bad Cannstatt|Stuttgart Nürnberger Str.|Stuttgart-Sommerrain|Fellbach|Waiblingen|Neustadt-Hohenacker|Schwaikheim|Winnenden|Nellmersbach|Maubach,8000016,Backnang,Baden-Württemberg,Backnang,71522,9.425986107,48.94264844,3,2503050118,,,,,,,,,,,,,0.0,0.0
7525780460691541142-2503050108-9,7478,2503050132,2503050133,1,,S,4,Stuttgart Hbf|Stuttgart Nord|Stuttgart-Feuerbach|Stuttgart-Zuffenhausen|Kornwestheim Pbf|Ludwigsburg|Favoritepark|Freiberg(Neckar),8000873,Benningen (Neckar),Baden-Württemberg,Benningen am Neckar,71726,9.244299075,48.94379773,5,2503050136,,2503050137,,,,,,,,,,,4.0,4.0
7846954886947346104-2503050038-9,7476,2503050102,2503050103,1,,S,4,Stuttgart Hbf|Stuttgart Nord|Stuttgart-Feuerbach|Stuttgart-Zuffenhausen|Kornwestheim Pbf|Ludwigsburg|Favoritepark|Freiberg(Neckar),8000873,Benningen (Neckar),Baden-Württemberg,Benningen am Neckar,71726,9.244299075,48.94379773,5,2503050106,,2503050107,,,,,,,,,,,4.0,4.0
7313231446534335906-2503050105-9,7278,2503050128,2503050128,1,,S,2,Stuttgart Hbf|Stuttgart-Bad Cannstatt|Stuttgart Nürnberger Str.|Stuttgart-Sommerrain|Fellbach|Waiblingen|Rommelshausen|Endersbach,8000934,Beutelsbach,Baden-Württemberg,Weinstadt,71384,9.38551589,48.81038925,5,2503050128,,2503050128,,h,1,Bauarbeiten,,,,,,,0.0,0.0
355081523282390241-2503050107-6,7580,2503050124,,5,,S,,Stuttgart-Zuffenhausen|Kornwestheim Pbf|Ludwigsburg|Asperg|Tamm(Württ),8000038,Bietigheim-Bissingen,Baden-Württemberg,Bietigheim-Bissingen,74321,9.137217396,48.94794988,2,2503050128,,,,,,,,,,,,,4.0,0.0
3842929548729935810-2503050053-3,17461,2503050100,2503050100,7,,MEX,17a,Sachsenheim|Ellental,8000038,Bietigheim-Bissingen,Baden-Württemberg,Bietigheim-Bissingen,74321,9.137217396,48.94794988,2,2503050119,,2503050121,,,,,,,,,,,19.0,21.0
8587666338237045955-2503050120-4,7191,2503050129,2503050129,4,,S,1,Stuttgart-Vaihingen|Stuttgart-Rohr|Goldberg(Württ),8001055,Böblingen,Baden-Württemberg,Böblingen,71034,9.004531864,48.68784871,3,2503050130,,2503050131,,,,,,,,,,,1.0,2.0
-6946765258423396201-2503050057-5,7678,2503050106,2503050106,2,,S,6,Stuttgart-Zuffenhausen|Neuwirtshaus(Porscheplatz)|Korntal|Weilimdorf,8001476,Ditzingen,Baden-Württemberg,Ditzingen,71254,9.067095186,48.82358726,4,2503050107,,2503050107,,,,,,,,,,,1.0,1.0
5014465631433888389-2503050110-5,7291,2503050119,2503050120,1,,S,2,Stuttgart-Vaihingen|Stuttgart-Rohr|Oberaichen|Leinfelden,8001650,Echterdingen,Baden-Württemberg,Echterdingen,70771,9.169307175,48.69214787,4,2503050120,,2503050120,,,,,,,,,,,1.0,0.0
8587666338237045955-2503050120-6,7191,2503050134,2503050134,2,,S,1,Stuttgart-Vaihingen|Stuttgart-Rohr|Goldberg(Württ)|Böblingen|Hulb,8001689,Ehningen (b Böblingen),Baden-Württemberg,Ehningen,71139,8.944310368,48.66275549,4,2503050135,,2503050136,,,,,,,,,,,1.0,2.0
799478456958062722-2503050050-6,56825,2503050104,2503050104,2,,S,1,Stuttgart-Vaihingen|Stuttgart-Rohr|Goldberg(Württ)|Böblingen|Hulb,8001689,Ehningen (b Böblingen),Baden-Württemberg,Ehningen,71139,8.944310368,48.66275549,4,2503050104,,2503050105,,,,,,,,,,,0.0,1.0
7313231446534335906-2503050105-8,7278,2503050126,2503050126,2,,S,2,Stuttgart Hbf|Stuttgart-Bad Cannstatt|Stuttgart Nürnberger Str.|Stuttgart-Sommerrain|Fellbach|Waiblingen|Rommelshausen,8001785,Endersbach,Baden-Württemberg,Weinstadt,71384,9.370192421,48.81317323,4,2503050126,,2503050127,,h,1,Bauarbeiten,,,,,,,0.0,1.0
-4896468785972896802-2503042346-20,19188,2503050104,2503050105,3,,MEX,16,Ulm Hbf|Beimerstetten|Westerstetten|Lonsee|Urspring|Amstetten(Württ)|Geislingen(Steige)|Geislingen(Steige)West|Kuchen|Gingen(Fils)|Süßen|Salach|Eislingen(Fils)|Göppingen|Faurndau|Uhingen|Ebersbach(Fils)|Reichenbach(Fils)|Plochingen,8001920,Esslingen (Neckar),Baden-Württemberg,Esslingen am Neckar,73728,9.300578149,48.73854148,3,2503050104,,2503050105,,,,,,,,,,,0.0,0.0
4298409621250373506-2503050048-3,19343,2503050059,2503050100,5,,MEX,12,Stuttgart Hbf|Stuttgart-Bad Cannstatt,8001920,Esslingen (Neckar),Baden-Württemberg,Esslingen am Neckar,73728,9.300578149,48.73854148,3,2503050059,8,2503050100,8,,,,,,,,,,0.0,0.0
-3366414490112859120-2503050055-7,7180,2503050112,2503050112,8,,S,1,Stuttgart Hbf|Stuttgart-Bad Cannstatt|Stuttgart Neckarpark|Stuttgart-Untertürkheim|Stuttgart-Obertürkheim|Esslingen-Mettingen,8001920,Esslingen (Neckar),Baden-Württemberg,Esslingen am Neckar,73728,9.300578149,48.73854148,3,2503050111,,2503050112,,,,,,,,,,,-1.0,0.0
-3366414490112859120-2503050055-6,7180,2503050109,2503050109,4,,S,1,Stuttgart Hbf|Stuttgart-Bad Cannstatt|Stuttgart Neckarpark|Stuttgart-Untertürkheim|Stuttgart-Obertürkheim,8001921,Esslingen-Mettingen,Baden-Württemberg,Esslingen am Neckar,73733,9.275799007,48.74696655,3,2503050109,,2503050109,,,,,,,,,,,0.0,0.0
-3366414490112859120-2503050055-9,7180,2503050117,2503050117,4,,S,1,Stuttgart Hbf|Stuttgart-Bad Cannstatt|Stuttgart Neckarpark|Stuttgart-Untertürkheim|Stuttgart-Obertürkheim|Esslingen-Mettingen|Esslingen(Neckar)|Oberesslingen,8006642,Esslingen-Zell,Baden-Württemberg,Esslingen am Neckar,73730,9.359739507,48.72436142,3,2503050117,,2503050117,,,,,,,,,,,0.0,0.0
7525780460691541142-2503050108-7,7478,2503050126,2503050126,2,,S,4,Stuttgart Hbf|Stuttgart Nord|Stuttgart-Feuerbach|Stuttgart-Zuffenhausen|Kornwestheim Pbf|Ludwigsburg,8001967,Favoritepark,Baden-Württemberg,Ludwigsburg,71634,9.180574277,48.90948451,5,2503050129,1,2503050130,1,,,,,,,,,,3.0,4.0
8227250429284919402-2503050119-4,7380,2503050126,2503050127,1,,S,3,Stuttgart-Bad Cannstatt|Stuttgart Nürnberger Str.|Stuttgart-Sommerrain,8001974,Fellbach,Baden-Württemberg,Fellbach,70736,9.270645988,48.8202936,3,2503050126,,2503050127,,,,,,,,,,,0.0,0.0
7313231446534335906-2503050105-5,7278,2503050116,2503050117,1,,S,2,Stuttgart Hbf|Stuttgart-Bad Cannstatt|Stuttgart Nürnberger Str.|Stuttgart-Sommerrain,8001974,Fellbach,Baden-Württemberg,Fellbach,70736,9.270645988,48.8202936,3,2503050117,,2503050117,,h,1,Bauarbeiten,,,,,,,1.0,0.0
5014465631433888389-2503050110-6,7291,2503050122,2503050123,1,,S,2,Stuttgart-Vaihingen|Stuttgart-Rohr|Oberaichen|Leinfelden|Echterdingen,8005768,Stuttgart Flughafen/Messe,Baden-Württemberg,Leinfelden-Echterdingen,70629,9.193411574,48.69075193,4,2503050122,,2503050122,,,,,,,,,,,0.0,-1.0
7525780460691541142-2503050108-8,7478,2503050129,2503050129,2,,S,4,Stuttgart Hbf|Stuttgart Nord|Stuttgart-Feuerbach|Stuttgart-Zuffenhausen|Kornwestheim Pbf|Ludwigsburg|Favoritepark,8002065,Freiberg (Neckar),Baden-Württemberg,Freiberg am Neckar,71691,9.197530085,48.92994974,5,2503050132,3,2503050133,3,,,,,,,,,,3.0,4.0
8587666338237045955-2503050120-7,7191,2503050137,2503050137,1,,S,1,Stuttgart-Vaihingen|Stuttgart-Rohr|Goldberg(Württ)|Böblingen|Hulb|Ehningen(b Böblingen),8002165,Gärtringen,Baden-Württemberg,Gärtringen,71116,8.908864487,48.64080021,5,2503050138,,2503050139,,,,,,,,,,,1.0,2.0
799478456958062722-2503050050-7,56825,2503050107,2503050107,1,,S,1,Stuttgart-Vaihingen|Stuttgart-Rohr|Goldberg(Württ)|Böblingen|Hulb|Ehningen(b Böblingen),8002165,Gärtringen,Baden-Württemberg,Gärtringen,71116,8.908864487,48.64080021,5,2503050107,,2503050108,,,,,,,,,,,0.0,1.0
6461875104419562950-2503050035-11,7276,2503050102,2503050102,2,,S,2,Stuttgart Hbf|Stuttgart-Bad Cannstatt|Stuttgart Nürnberger Str.|Stuttgart-Sommerrain|Fellbach|Waiblingen|Rommelshausen|Endersbach|Beutelsbach|Grunbach,8002240,Geradstetten,Baden-Württemberg,Remshalden,73630,9.439522346,48.80527689,5,2503050104,,2503050105,,h,1,Bauarbeiten,,,,,,,2.0,3.0
7313231446534335906-2503050105-11,7278,2503050132,2503050132,2,,S,2,Stuttgart Hbf|Stuttgart-Bad Cannstatt|Stuttgart Nürnberger Str.|Stuttgart-Sommerrain|Fellbach|Waiblingen|Rommelshausen|Endersbach|Beutelsbach|Grunbach,8002240,Geradstetten,Baden-Württemberg,Remshalden,73630,9.439522346,48.80527689,5,2503050133,,2503050133,,h,1,Bauarbeiten,,,,,,,1.0,1.0
8587666338237045955-2503050120-3,7191,2503050127,2503050127,1,,S,1,Stuttgart-Vaihingen|Stuttgart-Rohr,8005201,Goldberg,Baden-Württemberg,Böblingen,71032,9.019733387,48.69651581,5,2503050128,,2503050128,,,,,,,,,,,1.0,1.0
6461875104419562950-2503050035-10,7276,2503050100,2503050100,3,,S,2,Stuttgart Hbf|Stuttgart-Bad Cannstatt|Stuttgart Nürnberger Str.|Stuttgart-Sommerrain|Fellbach|Waiblingen|Rommelshausen|Endersbach|Beutelsbach,8002448,Grunbach,Baden-Württemberg,Remshalden,73630,9.419580601,48.810414,4,2503050102,,2503050103,,h,1,Bauarbeiten,,,,,,,2.0,3.0
729241055560411259-2503050128-1,246,,2503050128,,,Bus,EV,,8002448,Grunbach,Baden-Württemberg,Remshalden,73630,9.419580601,48.810414,4,,,2503050128,,,,,,,,,,,0.0,0.0
7313231446534335906-2503050105-10,7278,2503050130,2503050130,3,,S,2,Stuttgart Hbf|Stuttgart-Bad Cannstatt|Stuttgart Nürnberger Str.|Stuttgart-Sommerrain|Fellbach|Waiblingen|Rommelshausen|Endersbach|Beutelsbach,8002448,Grunbach,Baden-Württemberg,Remshalden,73630,9.419580601,48.810414,4,2503050130,,2503050131,,h,1,Bauarbeiten,,,,,,,0.0,1.0
-7696913984968518161-2503050037-10,19446,2503050120,,1,,MEX,,Aalen Hbf|Mögglingen(Gmünd)|Böbingen(Rems)|Schwäbisch Gmünd|Lorch(Württ)|Waldhausen(b Schorndorf)|Plüderhausen|Urbach(b Schorndorf)|Schorndorf,8002448,Grunbach,Baden-Württemberg,Remshalden,73630,9.419580601,48.810414,4,2503050120,,,,,,,,,,,,,0.0,0.0
8587666338237045955-2503050120-9,7191,2503050144,,3,,S,,Stuttgart-Vaihingen|Stuttgart-Rohr|Goldberg(Württ)|Böblingen|Hulb|Ehningen(b Böblingen)|Gärtringen|Nufringen,8002785,Herrenberg,Baden-Württemberg,Herrenberg,71083,8.862625253,48.59395697,3,2503050151,2,,,,,,,,,,,,7.0,0.0
799478456958062722-2503050050-9,56825,2503050114,,3,,S,,Stuttgart-Vaihingen|Stuttgart-Rohr|Goldberg(Württ)|Böblingen|Hulb|Ehningen(b Böblingen)|Gärtringen|Nufringen,8002785,Herrenberg,Baden-Württemberg,Herrenberg,71083,8.862625253,48.59395697,3,2503050115,2,,,,,,,,,,,,1.0,0.0
-6946765258423396201-2503050057-6,7678,2503050109,2503050109,2,,S,6,Stuttgart-Zuffenhausen|Neuwirtshaus(Porscheplatz)|Korntal|Weilimdorf|Ditzingen,8002892,Höfingen,Baden-Württemberg,Leonberg,71229,9.026180834,48.81503436,5,2503050110,,2503050110,,,,,,,,,,,1.0,1.0
8587666338237045955-2503050120-5,7191,2503050131,2503050131,1,,S,1,Stuttgart-Vaihingen|Stuttgart-Rohr|Goldberg(Württ)|Böblingen,8003022,Hulb,Baden-Württemberg,Böblingen-Hulb,71032,8.982396429,48.67924173,5,2503050132,,2503050133,,,,,,,,,,,1.0,2.0
799478456958062722-2503050050-5,56825,2503050101,2503050101,1,,S,1,Stuttgart-Vaihingen|Stuttgart-Rohr|Goldberg(Württ)|Böblingen,8003022,Hulb,Baden-Württemberg,Böblingen-Hulb,71032,8.982396429,48.67924173,5,2503050102,,2503050102,,,,,,,,,,,1.0,1.0
5014465631433888389-2503050110-7,7291,2503050127,,1,,S,,Stuttgart-Vaihingen|Stuttgart-Rohr|Oberaichen|Leinfelden|Echterdingen|Stuttgart Flughafen/Messe,8001984,Filderstadt,Baden-Württemberg,Filderstadt,70794,9.217581315,48.67649151,5,2503050126,,,,,,,,,,,,,-1.0,0.0
2298525024658281877-2503050025-15,7178,2503050109,,2,,S,,Stuttgart Hbf|Stuttgart-Bad Cannstatt|Stuttgart Neckarpark|Stuttgart-Untertürkheim|Stuttgart-Obertürkheim|Esslingen-Mettingen|Esslingen(Neckar)|Oberesslingen|Esslingen-Zell|Altbach|Plochingen|Wernau(Neckar)|Wendlingen(Neckar)|Kirchheim(Teck)-Ötlingen,8003280,Kirchheim (Teck),Baden-Württemberg,Kirchheim unter Teck,73230,9.443872422,48.64415981,4,2503050109,,,,,,,,,,,,,0.0,0.0
-3366414490112859120-2503050055-15,7180,2503050139,,2,,S,,Stuttgart Hbf|Stuttgart-Bad Cannstatt|Stuttgart Neckarpark|Stuttgart-Untertürkheim|Stuttgart-Obertürkheim|Esslingen-Mettingen|Esslingen(Neckar)|Oberesslingen|Esslingen-Zell|Altbach|Plochingen|Wernau(Neckar)|Wendlingen(Neckar)|Kirchheim(Teck)-Ötlingen,8003280,Kirchheim (Teck),Baden-Württemberg,Kirchheim unter Teck,73230,9.443872422,48.64415981,4,2503050140,,,,,,,,,,,,,1.0,0.0
2298525024658281877-2503050025-14,7178,2503050106,2503050107,1,,S,1,Stuttgart Hbf|Stuttgart-Bad Cannstatt|Stuttgart Neckarpark|Stuttgart-Untertürkheim|Stuttgart-Obertürkheim|Esslingen-Mettingen|Esslingen(Neckar)|Oberesslingen|Esslingen-Zell|Altbach|Plochingen|Wernau(Neckar)|Wendlingen(Neckar),8003282,Kirchheim (Teck)-Ötlingen,Baden-Württemberg,Kirchheim unter Teck,73230,9.416261302,48.65782388,5,2503050106,,2503050107,,,,,,,,,,,0.0,0.0
-3366414490112859120-2503050055-14,7180,2503050136,2503050137,1,,S,1,Stuttgart Hbf|Stuttgart-Bad Cannstatt|Stuttgart Neckarpark|Stuttgart-Untertürkheim|Stuttgart-Obertürkheim|Esslingen-Mettingen|Esslingen(Neckar)|Oberesslingen|Esslingen-Zell|Altbach|Plochingen|Wernau(Neckar)|Wendlingen(Neckar),8003282,Kirchheim (Teck)-Ötlingen,Baden-Württemberg,Kirchheim unter Teck,73230,9.416261302,48.65782388,5,2503050136,,2503050137,,,,,,,,,,,0.0,0.0
-6946765258423396201-2503050057-3,7678,2503050101,2503050101,1,,S,6,Stuttgart-Zuffenhausen|Neuwirtshaus(Porscheplatz),8003409,Korntal,Baden-Württemberg,Korntal,70825,9.121099128,48.82640246,4,2503050103,,2503050103,,,,,,,,,,,2.0,2.0
355081523282390241-2503050107-2,7580,2503050110,2503050110,4,,S,5,Stuttgart-Zuffenhausen,8003411,Kornwestheim Pbf,Baden-Württemberg,Kornwestheim,70806,9.179967278,48.86215948,3,2503050112,6,2503050113,6,,,,,,,,,,2.0,3.0
7525780460691541142-2503050108-5,7478,2503050120,2503050120,4,,S,4,Stuttgart Hbf|Stuttgart Nord|Stuttgart-Feuerbach|Stuttgart-Zuffenhausen,8003411,Kornwestheim Pbf,Baden-Württemberg,Kornwestheim,70806,9.179967278,48.86215948,3,2503050122,6,2503050122,6,,,,,,,,,,2.0,2.0
5014465631433888389-2503050110-4,7291,2503050116,2503050117,1,,S,2,Stuttgart-Vaihingen|Stuttgart-Rohr|Oberaichen,8003622,Leinfelden,Baden-Württemberg,Leinfelden-Echterdingen,70771,9.142859698,48.6964193,4,2503050117,,2503050117,,,,,,,,,,,1.0,0.0
-6946765258423396201-2503050057-7,7678,2503050113,2503050113,2,,S,6,Stuttgart-Zuffenhausen|Neuwirtshaus(Porscheplatz)|Korntal|Weilimdorf|Ditzingen|Höfingen,8003652,Leonberg,Baden-Württemberg,Leonberg,71229,9.004025993,48.79970547,3,2503050113,,2503050114,,,,,,,,,,,0.0,1.0
355081523282390241-2503050107-3,7580,2503050113,2503050114,3,,S,5,Stuttgart-Zuffenhausen|Kornwestheim Pbf,8000235,Ludwigsburg,Baden-Württemberg,Ludwigsburg,71638,9.185229823,48.89208622,3,2503050116,1,2503050117,1,,,,,,,,,,3.0,3.0
7525780460691541142-2503050108-6,7478,2503050123,2503050124,3,,S,4,Stuttgart Hbf|Stuttgart Nord|Stuttgart-Feuerbach|Stuttgart-Zuffenhausen|Kornwestheim Pbf,8000235,Ludwigsburg,Baden-Württemberg,Ludwigsburg,71638,9.185229823,48.89208622,3,2503050126,1,2503050127,1,,,,,,,,,,3.0,3.0
3842929548729935810-2503050053-4,17461,2503050107,2503050108,4,,MEX,17a,Sachsenheim|Ellental|Bietigheim-Bissingen,8000235,Ludwigsburg,Baden-Württemberg,Ludwigsburg,71638,9.185229823,48.89208622,3,2503050127,,2503050128,,,,,,,,,,,20.0,20.0
-6946765258423396201-2503050057-10,7678,2503050124,2503050124,1,,S,6,Stuttgart-Zuffenhausen|Neuwirtshaus(Porscheplatz)|Korntal|Weilimdorf|Ditzingen|Höfingen|Leonberg|Rutesheim|Renningen,8003831,Malmsheim,Baden-Württemberg,Renningen,71272,8.905105557,48.77183564,5,2503050124,,2503050124,,,,,,,,,,,0.0,0.0
7525780460691541142-2503050108-10,7478,2503050135,,1,,S,,Stuttgart Hbf|Stuttgart Nord|Stuttgart-Feuerbach|Stuttgart-Zuffenhausen|Kornwestheim Pbf|Ludwigsburg|Favoritepark|Freiberg(Neckar)|Benningen(Neckar),8003853,Marbach (Neckar),Baden-Württemberg,Marbach am Neckar,71672,9.264611825,48.9437708,3,2503050138,,,,,,,,,,,,,3.0,0.0
7846954886947346104-2503050038-10,7476,2503050105,,1,,S,,Stuttgart Hbf|Stuttgart Nord|Stuttgart-Feuerbach|Stuttgart-Zuffenhausen|Kornwestheim Pbf|Ludwigsburg|Favoritepark|Freiberg(Neckar)|Benningen(Neckar),8003853,Marbach (Neckar),Baden-Württemberg,Marbach am Neckar,71672,9.264611825,48.9437708,3,2503050108,,,,,,,,,,,,,3.0,0.0
8227250429284919402-2503050119-10,7380,2503050144,2503050145,2,,S,3,Stuttgart-Bad Cannstatt|Stuttgart Nürnberger Str.|Stuttgart-Sommerrain|Fellbach|Waiblingen|Neustadt-Hohenacker|Schwaikheim|Winnenden|Nellmersbach,8003913,Maubach,Baden-Württemberg,Backnang,71522,9.419487062,48.92623463,4,2503050144,,2503050145,,,,,,,,,,,0.0,0.0
-8597257351984466856-2503050049-10,7378,2503050114,2503050115,2,,S,3,Stuttgart-Bad Cannstatt|Stuttgart Nürnberger Str.|Stuttgart-Sommerrain|Fellbach|Waiblingen|Neustadt-Hohenacker|Schwaikheim|Winnenden|Nellmersbach,8003913,Maubach,Baden-Württemberg,Backnang,71522,9.419487062,48.92623463,4,2503050115,,2503050116,,,,,,,,,,,1.0,1.0
8227250429284919402-2503050119-9,7380,2503050141,2503050142,2,,S,3,Stuttgart-Bad Cannstatt|Stuttgart Nürnberger Str.|Stuttgart-Sommerrain|Fellbach|Waiblingen|Neustadt-Hohenacker|Schwaikheim|Winnenden,8004233,Nellmersbach,Baden-Württemberg,Leutenbach,71397,9.415421538,48.90336425,5,2503050141,,2503050142,,,,,,,,,,,0.0,0.0
-8597257351984466856-2503050049-9,7378,2503050111,2503050112,2,,S,3,Stuttgart-Bad Cannstatt|Stuttgart Nürnberger Str.|Stuttgart-Sommerrain|Fellbach|Waiblingen|Neustadt-Hohenacker|Schwaikheim|Winnenden,8004233,Nellmersbach,Baden-Württemberg,Leutenbach,71397,9.415421538,48.90336425,5,2503050112,,2503050113,,,,,,,,,,,1.0,1.0
8227250429284919402-2503050119-6,7380,2503050133,2503050133,1,,S,3,Stuttgart-Bad Cannstatt|Stuttgart Nürnberger Str.|Stuttgart-Sommerrain|Fellbach|Waiblingen,8004333,Neustadt-Hohenacker,Baden-Württemberg,Waiblingen,71336,9.32455106,48.85921668,5,2503050133,,2503050134,,,,,,,,,,,0.0,1.0
-8597257351984466856-2503050049-6,7378,2503050103,2503050103,1,,S,3,Stuttgart-Bad Cannstatt|Stuttgart Nürnberger Str.|Stuttgart-Sommerrain|Fellbach|Waiblingen,8004333,Neustadt-Hohenacker,Baden-Württemberg,Waiblingen,71336,9.32455106,48.85921668,5,2503050104,,2503050104,,,,,,,,,,,1.0,1.0
8587666338237045955-2503050120-8,7191,2503050140,2503050140,1,,S,1,Stuttgart-Vaihingen|Stuttgart-Rohr|Goldberg(Württ)|Böblingen|Hulb|Ehningen(b Böblingen)|Gärtringen,8004490,Nufringen,Baden-Württemberg,Nufringen,71154,8.889817485,48.62010967,5,2503050141,,2503050142,,,,,,,,,,,1.0,2.0
799478456958062722-2503050050-8,56825,2503050110,2503050110,1,,S,1,Stuttgart-Vaihingen|Stuttgart-Rohr|Goldberg(Württ)|Böblingen|Hulb|Ehningen(b Böblingen)|Gärtringen,8004490,Nufringen,Baden-Württemberg,Nufringen,71154,8.889817485,48.62010967,5,2503050110,,2503050111,,,,,,,,,,,0.0,1.0
5014465631433888389-2503050110-3,7291,2503050114,2503050114,1,,S,2,Stuttgart-Vaihingen|Stuttgart-Rohr,8004496,Oberaichen,Baden-Württemberg,Leinfelden-Echterdingen,70771,9.12743664,48.70512422,5,2503050114,,2503050115,,,,,,,,,,,0.0,1.0
-3366414490112859120-2503050055-8,7180,2503050114,2503050114,4,,S,1,Stuttgart Hbf|Stuttgart-Bad Cannstatt|Stuttgart Neckarpark|Stuttgart-Untertürkheim|Stuttgart-Obertürkheim|Esslingen-Mettingen|Esslingen(Neckar),8004528,Oberesslingen,Baden-Württemberg,Esslingen am Neckar,73730,9.327277435,48.72983585,3,2503050114,,2503050115,,,,,,,,,,,0.0,1.0
4298409621250373506-2503050048-4,19343,2503050106,2503050107,7,,MEX,12,Stuttgart Hbf|Stuttgart-Bad Cannstatt|Esslingen(Neckar),8000302,Plochingen,Baden-Württemberg,Plochingen,73207,9.411294578,48.71293906,2,2503050106,9,2503050107,9,,,,,,,,,,0.0,0.0
397053316391935562-2503050042-4,19189,2503050100,2503050100,4,,MEX,16,Stuttgart Hbf|Stuttgart-Bad Cannstatt|Esslingen(Neckar),8000302,Plochingen,Baden-Württemberg,Plochingen,73207,9.411294578,48.71293906,2,2503050100,,2503050100,,,,,,,,,,,0.0,0.0
-3366414490112859120-2503050055-11,7180,2503050122,2503050125,10,,S,1,Stuttgart Hbf|Stuttgart-Bad Cannstatt|Stuttgart Neckarpark|Stuttgart-Untertürkheim|Stuttgart-Obertürkheim|Esslingen-Mettingen|Esslingen(Neckar)|Oberesslingen|Esslingen-Zell|Altbach,8000302,Plochingen,Baden-Württemberg,Plochingen,73207,9.411294578,48.71293906,2,2503050122,,2503050125,,,,,,,,,,,0.0,0.0
-6946765258423396201-2503050057-9,7678,2503050119,2503050122,3,,S,6,Stuttgart-Zuffenhausen|Neuwirtshaus(Porscheplatz)|Korntal|Weilimdorf|Ditzingen|Höfingen|Leonberg|Rutesheim,8000313,Renningen,Baden-Württemberg,Renningen,71272,8.932650148,48.77515509,3,2503050119,,2503050122,,,,,,,,,,,0.0,0.0
7313231446534335906-2503050105-7,7278,2503050122,2503050122,1,,S,2,Stuttgart Hbf|Stuttgart-Bad Cannstatt|Stuttgart Nürnberger Str.|Stuttgart-Sommerrain|Fellbach|Waiblingen,8005157,Rommelshausen,Baden-Württemberg,Kernen,71394,9.319175885,48.81552017,4,2503050123,2,2503050123,2,h,1,Bauarbeiten,,,,,,,1.0,1.0
-6946765258423396201-2503050057-8,7678,2503050116,2503050116,2,,S,6,Stuttgart-Zuffenhausen|Neuwirtshaus(Porscheplatz)|Korntal|Weilimdorf|Ditzingen|Höfingen|Leonberg,8005236,Rutesheim,Baden-Württemberg,Leonberg,71229,8.960325242,48.79031093,5,2503050117,,2503050117,,,,,,,,,,,1.0,1.0
6461875104419562950-2503050035-14,7276,2503050110,,1,,S,,Stuttgart Hbf|Stuttgart-Bad Cannstatt|Stuttgart Nürnberger Str.|Stuttgart-Sommerrain|Fellbach|Waiblingen|Rommelshausen|Endersbach|Beutelsbach|Grunbach|Geradstetten|Winterbach(b Schorndorf)|Weiler(Rems),8005424,Schorndorf,Baden-Württemberg,Schorndorf,73614,9.525686251,48.80693898,3,2503050112,,,,h,1,Bauarbeiten,,,,,,,2.0,0.0
7313231446534335906-2503050105-14,7278,2503050140,,14,,S,,Stuttgart Hbf|Stuttgart-Bad Cannstatt|Stuttgart Nürnberger Str.|Stuttgart-Sommerrain|Fellbach|Waiblingen|Rommelshausen|Endersbach|Beutelsbach|Grunbach|Geradstetten|Winterbach(b Schorndorf)|Weiler(Rems),8005424,Schorndorf,Baden-Württemberg,Schorndorf,73614,9.525686251,48.80693898,3,2503050141,1,,,h,1,Bauarbeiten,,,,,,,1.0,0.0
-7696913984968518161-2503050037-9,19446,2503050113,2503050114,3,,MEX,13,Aalen Hbf|Mögglingen(Gmünd)|Böbingen(Rems)|Schwäbisch Gmünd|Lorch(Württ)|Waldhausen(b Schorndorf)|Plüderhausen|Urbach(b Schorndorf),8005424,Schorndorf,Baden-Württemberg,Schorndorf,73614,9.525686251,48.80693898,3,2503050114,,2503050115,,,,,,,,,,,1.0,1.0
8227250429284919402-2503050119-7,7380,2503050136,2503050136,2,,S,3,Stuttgart-Bad Cannstatt|Stuttgart Nürnberger Str.|Stuttgart-Sommerrain|Fellbach|Waiblingen|Neustadt-Hohenacker,8005454,Schwaikheim,Baden-Württemberg,Schwaikheim,71409,9.354747358,48.86832665,4,2503050136,,2503050136,,,,,,,,,,,0.0,0.0
-8597257351984466856-2503050049-7,7378,2503050106,2503050106,2,,S,3,Stuttgart-Bad Cannstatt|Stuttgart Nürnberger Str.|Stuttgart-Sommerrain|Fellbach|Waiblingen|Neustadt-Hohenacker,8005454,Schwaikheim,Baden-Württemberg,Schwaikheim,71409,9.354747358,48.86832665,4,2503050106,,2503050107,,,,,,,,,,,0.0,1.0
-4896468785972896802-2503042346-22,19188,2503050116,,2,,MEX,,Ulm Hbf|Beimerstetten|Westerstetten|Lonsee|Urspring|Amstetten(Württ)|Geislingen(Steige)|Geislingen(Steige)West|Kuchen|Gingen(Fils)|Süßen|Salach|Eislingen(Fils)|Göppingen|Faurndau|Uhingen|Ebersbach(Fils)|Reichenbach(Fils)|Plochingen|Esslingen(Neckar)|Stuttgart-Bad Cannstatt,8000096,Stuttgart Hbf,Baden-Württemberg,Stuttgart,70173,9.183172973,48.78473069,1,2503050119,,,,,,,,,,,,,3.0,0.0
7525780460691541142-2503050108-1,7478,,2503050108,,,S,4,,8000096,Stuttgart Hbf,Baden-Württemberg,Stuttgart,70173,9.183172973,48.78473069,1,,,2503050108,1,,,,,,,,,,0.0,0.0
5246255306842112279-2503050030-5,17399,2503050102,,15,,MEX,,Sachsenheim|Ellental|Bietigheim-Bissingen|Ludwigsburg,8000096,Stuttgart Hbf,Baden-Württemberg,Stuttgart,70173,9.183172973,48.78473069,1,2503050104,,,,,,,,,,,,,2.0,0.0
3842929548729935810-2503050053-5,17461,2503050118,,15,,MEX,,Sachsenheim|Ellental|Bietigheim-Bissingen|Ludwigsburg,8000096,Stuttgart Hbf,Baden-Württemberg,Stuttgart,70173,9.183172973,48.78473069,1,2503050138,,,,,,,,,,,,,20.0,0.0
7313231446534335906-2503050105-1,7278,,2503050105,,,S,2,,8000096,Stuttgart Hbf,Baden-Württemberg,Stuttgart,70173,9.183172973,48.78473069,1,,,2503050105,,h,1,Bauarbeiten,,,,,,,0.0,0.0
-8775031481172421761-2503050020-15,7181,2503050105,,4,,S,,Kirchheim(Teck)|Kirchheim(Teck)-Ötlingen|Wendlingen(Neckar)|Wernau(Neckar)|Plochingen|Altbach|Esslingen-Zell|Oberesslingen|Esslingen(Neckar)|Esslingen-Mettingen|Stuttgart-Obertürkheim|Stuttgart-Untertürkheim|Stuttgart Neckarpark|Stuttgart-Bad Cannstatt,8000096,Stuttgart Hbf,Baden-Württemberg,Stuttgart,70173,9.183172973,48.78473069,1,2503050105,,,,,,,,,,,,,0.0,0.0
-1262072456597967463-2503042238-20,88652,2503050109,,3,,RE,,Nürnberg Hbf|Roßtal|Heilsbronn|Wicklesgreuth|Ansbach|Leutershausen-Wiedersbach|Dombühl|Schnelldorf|Crailsheim|Eckartshausen-Ilshofen|Schwäbisch Hall-Hessental|Gaildorf West|Murrhardt|Sulzbach(Murr)|Oppenweiler(Württ)|Backnang|Winnenden|Waiblingen|Stuttgart-Bad Cannstatt,8000096,Stuttgart Hbf,Baden-Württemberg,Stuttgart,70173,9.183172973,48.78473069,1,2503050110,2,,,,,,,,,,,,1.0,0.0
-3366414490112859120-2503050055-3,7180,2503050102,2503050102,2,,S,1,Stuttgart Hbf|Stuttgart-Bad Cannstatt,8006743,Stuttgart Neckarpark,Baden-Württemberg,Stuttgart,70372,9.24106855,48.79194362,4,2503050102,,2503050103,,,,,,,,,,,0.0,1.0
7525780460691541142-2503050108-2,7478,2503050111,2503050111,3,,S,4,Stuttgart Hbf,8005767,Stuttgart Nord,Baden-Württemberg,Stuttgard-Nord,70174,9.188061449,48.80374161,5,2503050112,,2503050114,,,,,,,,,,,1.0,3.0
8227250429284919402-2503050119-2,7380,2503050122,2503050122,4,,S,3,Stuttgart-Bad Cannstatt,8004357,Stuttgart Nürnberger Straße,Baden-Württemberg,Stuttgart,70374,9.234576905,48.80656062,5,2503050122,,2503050122,,,,,,,,,,,0.0,0.0
7313231446534335906-2503050105-3,7278,2503050112,2503050112,4,,S,2,Stuttgart Hbf|Stuttgart-Bad Cannstatt,8004357,Stuttgart Nürnberger Straße,Baden-Württemberg,Stuttgart,70374,9.234576905,48.80656062,5,2503050112,,2503050112,,h,1,Bauarbeiten,,,,,,,0.0,0.0
8227250429284919402-2503050119-1,7380,,2503050119,,,S,3,,8005769,Stuttgart-Bad Cannstatt,Baden-Württemberg,Stuttgart,70372,9.217468636,48.80127978,3,,,2503050119,,,,,,,,,,,0.0,0.0
-4896468785972896802-2503042346-21,19188,2503050112,2503050112,5,,MEX,16,Ulm Hbf|Beimerstetten|Westerstetten|Lonsee|Urspring|Amstetten(Württ)|Geislingen(Steige)|Geislingen(Steige)West|Kuchen|Gingen(Fils)|Süßen|Salach|Eislingen(Fils)|Göppingen|Faurndau|Uhingen|Ebersbach(Fils)|Reichenbach(Fils)|Plochingen|Esslingen(Neckar),8005769,Stuttgart-Bad Cannstatt,Baden-Württemberg,Stuttgart,70372,9.217468636,48.80127978,3,2503050114,1,2503050114,1,,,,,,,,,,2.0,2.0
7313231446534335906-2503050105-2,7278,2503050109,2503050109,3,,S,2,Stuttgart Hbf,8005769,Stuttgart-Bad Cannstatt,Baden-Württemberg,Stuttgart,70372,9.217468636,48.80127978,3,2503050109,,2503050110,,h,1,Bauarbeiten,,,,,,,0.0,1.0
-8775031481172421761-2503050020-14,7181,2503050100,2503050101,1,,S,1,Kirchheim(Teck)|Kirchheim(Teck)-Ötlingen|Wendlingen(Neckar)|Wernau(Neckar)|Plochingen|Altbach|Esslingen-Zell|Oberesslingen|Esslingen(Neckar)|Esslingen-Mettingen|Stuttgart-Obertürkheim|Stuttgart-Untertürkheim|Stuttgart Neckarpark,8005769,Stuttgart-Bad Cannstatt,Baden-Württemberg,Stuttgart,70372,9.217468636,48.80127978,3,2503050100,,2503050101,,,,,,,,,,,0.0,0.0
-1262072456597967463-2503042238-19,88652,2503050102,2503050106,6,,RE,90,Nürnberg Hbf|Roßtal|Heilsbronn|Wicklesgreuth|Ansbach|Leutershausen-Wiedersbach|Dombühl|Schnelldorf|Crailsheim|Eckartshausen-Ilshofen|Schwäbisch Hall-Hessental|Gaildorf West|Murrhardt|Sulzbach(Murr)|Oppenweiler(Württ)|Backnang|Winnenden|Waiblingen,8005769,Stuttgart-Bad Cannstatt,Baden-Württemberg,Stuttgart,70372,9.217468636,48.80127978,3,2503050104,1,2503050103,1,,,,,,,,,,2.0,-3.0
7525780460691541142-2503050108-3,7478,2503050113,2503050114,2,,S,4,Stuttgart Hbf|Stuttgart Nord,8005770,Stuttgart-Feuerbach,Baden-Württemberg,Feuerbach,70469,9.169186287,48.81363554,3,2503050115,,2503050116,,,,,,,,,,,2.0,2.0
-3366414490112859120-2503050055-5,7180,2503050107,2503050107,6,,S,1,Stuttgart Hbf|Stuttgart-Bad Cannstatt|Stuttgart Neckarpark|Stuttgart-Untertürkheim,8005772,Stuttgart-Obertürkheim,Baden-Württemberg,Stuttgart,70329,9.268167932,48.76175015,4,2503050107,,2503050107,,,,,,,,,,,0.0,0.0
8587666338237045955-2503050120-2,7191,2503050121,2503050122,2,,S,1,Stuttgart-Vaihingen,8005773,Stuttgart-Rohr,Baden-Württemberg,Stuttgart,70565,9.108158025,48.71799427,4,2503050122,,2503050122,,,,,,,,,,,1.0,0.0
5014465631433888389-2503050110-2,7291,2503050111,2503050112,2,,S,2,Stuttgart-Vaihingen,8005773,Stuttgart-Rohr,Baden-Württemberg,Stuttgart,70565,9.108158025,48.71799427,4,2503050111,,2503050112,,,,,,,,,,,0.0,0.0
8227250429284919402-2503050119-3,7380,2503050124,2503050124,4,,S,3,Stuttgart-Bad Cannstatt|Stuttgart Nürnberger Str.,8005774,Stuttgart-Sommerrain,Baden-Württemberg,Stuttgart,70374,9.248369749,48.81521824,5,2503050124,,2503050124,,,,,,,,,,,0.0,0.0
7313231446534335906-2503050105-4,7278,2503050114,2503050114,4,,S,2,Stuttgart Hbf|Stuttgart-Bad Cannstatt|Stuttgart Nürnberger Str.,8005774,Stuttgart-Sommerrain,Baden-Württemberg,Stuttgart,70374,9.248369749,48.81521824,5,2503050114,,2503050115,,h,1,Bauarbeiten,,,,,,,0.0,1.0
-3366414490112859120-2503050055-4,7180,2503050104,2503050104,6,,S,1,Stuttgart Hbf|Stuttgart-Bad Cannstatt|Stuttgart Neckarpark,8005775,Stuttgart-Untertürkheim Pbf,Baden-Württemberg,Stuttgart,70327,9.250467074,48.77984679,3,2503050104,,2503050104,,,,,,,,,,,0.0,0.0
8587666338237045955-2503050120-1,7191,,2503050120,,,S,1,,8005776,Stuttgart-Vaihingen,Baden-Württemberg,Stuttgart,70563,9.113913368,48.72698116,3,,,2503050120,,,,,,,,,,,0.0,0.0
5014465631433888389-2503050110-1,7291,,2503050110,,,S,2,,8005776,Stuttgart-Vaihingen,Baden-Württemberg,Stuttgart,70563,9.113913368,48.72698116,3,,,2503050110,1,,,,,,,,,,0.0,0.0
-6946765258423396201-2503050057-4,7678,2503050103,2503050103,1,,S,6,Stuttgart-Zuffenhausen|Neuwirtshaus(Porscheplatz)|Korntal,8006268,Stuttgart-Weilimdorf,Baden-Württemberg,Stuttgart,70499,9.094370086,48.82208429,5,2503050105,,2503050105,,,,,,,,,,,2.0,2.0
355081523282390241-2503050107-1,7580,,2503050107,,,S,5,,8005778,Stuttgart-Zuffenhausen,Baden-Württemberg,Stuttgart,70435,9.167156375,48.82960884,3,,,2503050107,,,,,,,,,,,0.0,0.0
7525780460691541142-2503050108-4,7478,2503050116,2503050117,4,,S,4,Stuttgart Hbf|Stuttgart Nord|Stuttgart-Feuerbach,8005778,Stuttgart-Zuffenhausen,Baden-Württemberg,Stuttgart,70435,9.167156375,48.82960884,3,2503050118,,2503050118,,,,,,,,,,,2.0,1.0
355081523282390241-2503050107-5,7580,2503050119,2503050120,3,,S,5,Stuttgart-Zuffenhausen|Kornwestheim Pbf|Ludwigsburg|Asperg,8005820,Tamm (Württ),Baden-Württemberg,Tamm,71732,9.125288012,48.92187736,4,2503050123,,2503050124,,,,,,,,,,,4.0,4.0
8227250429284919402-2503050119-5,7380,2503050129,2503050130,3,,S,3,Stuttgart-Bad Cannstatt|Stuttgart Nürnberger Str.|Stuttgart-Sommerrain|Fellbach,8000180,Waiblingen,Baden-Württemberg,Waiblingen,71332,9.300476874,48.8262444,3,2503050129,,2503050130,,,,,,,,,,,0.0,0.0
729241055560411259-2503050128-2,246,2503050145,2503050145,,,Bus,EV,Grunbach,8000180,Waiblingen,Baden-Württemberg,Waiblingen,71332,9.300476874,48.8262444,3,2503050145,,2503050145,,,,,,,,,,,0.0,0.0
7313231446534335906-2503050105-6,7278,2503050119,2503050120,7,,S,2,Stuttgart Hbf|Stuttgart-Bad Cannstatt|Stuttgart Nürnberger Str.|Stuttgart-Sommerrain|Fellbach,8000180,Waiblingen,Baden-Württemberg,Waiblingen,71332,9.300476874,48.8262444,3,2503050120,,2503050120,,h,1,Bauarbeiten,,,,,,,1.0,0.0
-8597257351984466856-2503050049-5,7378,2503050059,2503050100,3,,S,3,Stuttgart-Bad Cannstatt|Stuttgart Nürnberger Str.|Stuttgart-Sommerrain|Fellbach,8000180,Waiblingen,Baden-Württemberg,Waiblingen,71332,9.300476874,48.8262444,3,2503050100,,2503050100,,,,,,,,,,,1.0,0.0
-6946765258423396201-2503050057-11,7678,2503050127,,1,,S,,Stuttgart-Zuffenhausen|Neuwirtshaus(Porscheplatz)|Korntal|Weilimdorf|Ditzingen|Höfingen|Leonberg|Rutesheim|Renningen|Malmsheim,8006271,Weil der Stadt,Baden-Württemberg,Weil der Stadt,71263,8.873189074,48.7557357,4,2503050128,,,,,,,,,,,,,1.0,0.0
6461875104419562950-2503050035-13,7276,2503050107,2503050107,1,,S,2,Stuttgart Hbf|Stuttgart-Bad Cannstatt|Stuttgart Nürnberger Str.|Stuttgart-Sommerrain|Fellbach|Waiblingen|Rommelshausen|Endersbach|Beutelsbach|Grunbach|Geradstetten|Winterbach(b Schorndorf),8006277,Weiler (Rems),Baden-Württemberg,Schorndorf,76314,9.501891172,48.80034585,5,2503050109,,2503050109,,h,1,Bauarbeiten,,,,,,,2.0,2.0
7313231446534335906-2503050105-13,7278,2503050137,2503050137,1,,S,2,Stuttgart Hbf|Stuttgart-Bad Cannstatt|Stuttgart Nürnberger Str.|Stuttgart-Sommerrain|Fellbach|Waiblingen|Rommelshausen|Endersbach|Beutelsbach|Grunbach|Geradstetten|Winterbach(b Schorndorf),8006277,Weiler (Rems),Baden-Württemberg,Schorndorf,76314,9.501891172,48.80034585,5,2503050137,,2503050138,,h,1,Bauarbeiten,,,,,,,0.0,1.0
2298525024658281877-2503050025-13,7178,2503050102,2503050103,11,,S,1,Stuttgart Hbf|Stuttgart-Bad Cannstatt|Stuttgart Neckarpark|Stuttgart-Untertürkheim|Stuttgart-Obertürkheim|Esslingen-Mettingen|Esslingen(Neckar)|Oberesslingen|Esslingen-Zell|Altbach|Plochingen|Wernau(Neckar),8006331,Wendlingen (Neckar),Baden-Württemberg,Wendlingen am Neckar,73240,9.373662098,48.67368917,3,2503050102,,2503050103,,,,,,,,,,,0.0,0.0
4298409621250373506-2503050048-6,19343,2503050114,2503050115,2,,MEX,12,Stuttgart Hbf|Stuttgart-Bad Cannstatt|Esslingen(Neckar)|Plochingen|Wernau(Neckar),8006331,Wendlingen (Neckar),Baden-Württemberg,Wendlingen am Neckar,73240,9.373662098,48.67368917,3,2503050114,,2503050115,,,,,,,,,,,0.0,0.0
-3366414490112859120-2503050055-13,7180,2503050132,2503050133,11,,S,1,Stuttgart Hbf|Stuttgart-Bad Cannstatt|Stuttgart Neckarpark|Stuttgart-Untertürkheim|Stuttgart-Obertürkheim|Esslingen-Mettingen|Esslingen(Neckar)|Oberesslingen|Esslingen-Zell|Altbach|Plochingen|Wernau(Neckar),8006331,Wendlingen (Neckar),Baden-Württemberg,Wendlingen am Neckar,73240,9.373662098,48.67368917,3,2503050132,,2503050133,,,,,,,,,,,0.0,0.0
4298409621250373506-2503050048-5,19343,2503050110,2503050111,2,,MEX,12,Stuttgart Hbf|Stuttgart-Bad Cannstatt|Esslingen(Neckar)|Plochingen,8006346,Wernau (Neckar),Baden-Württemberg,Wernau (Neckar),73249,9.413654423,48.69417221,4,2503050110,,2503050111,,,,,,,,,,,0.0,0.0
-3366414490112859120-2503050055-12,7180,2503050128,2503050129,2,,S,1,Stuttgart Hbf|Stuttgart-Bad Cannstatt|Stuttgart Neckarpark|Stuttgart-Untertürkheim|Stuttgart-Obertürkheim|Esslingen-Mettingen|Esslingen(Neckar)|Oberesslingen|Esslingen-Zell|Altbach|Plochingen,8006346,Wernau (Neckar),Baden-Württemberg,Wernau (Neckar),73249,9.413654423,48.69417221,4,2503050128,,2503050129,,,,,,,,,,,0.0,0.0
8227250429284919402-2503050119-8,7380,2503050139,2503050139,2,,S,3,Stuttgart-Bad Cannstatt|Stuttgart Nürnberger Str.|Stuttgart-Sommerrain|Fellbach|Waiblingen|Neustadt-Hohenacker|Schwaikheim,8006479,Winnenden,Baden-Württemberg,Winnenden,71364,9.392155928,48.8795625,3,2503050138,,2503050139,,,,,,,,,,,-1.0,0.0
-8597257351984466856-2503050049-8,7378,2503050109,2503050109,2,,S,3,Stuttgart-Bad Cannstatt|Stuttgart Nürnberger Str.|Stuttgart-Sommerrain|Fellbach|Waiblingen|Neustadt-Hohenacker|Schwaikheim,8006479,Winnenden,Baden-Württemberg,Winnenden,71364,9.392155928,48.8795625,3,2503050109,,2503050110,,,,,,,,,,,0.0,1.0
6461875104419562950-2503050035-12,7276,2503050105,2503050105,2,,S,2,Stuttgart Hbf|Stuttgart-Bad Cannstatt|Stuttgart Nürnberger Str.|Stuttgart-Sommerrain|Fellbach|Waiblingen|Rommelshausen|Endersbach|Beutelsbach|Grunbach|Geradstetten,8006485,Winterbach (b Schorndorf),Baden-Württemberg,Winterbach,73650,9.481549751,48.79842743,4,2503050107,,2503050107,,h,1,Bauarbeiten,,,,,,,2.0,2.0
7313231446534335906-2503050105-12,7278,2503050135,2503050135,2,,S,2,Stuttgart Hbf|Stuttgart-Bad Cannstatt|Stuttgart Nürnberger Str.|Stuttgart-Sommerrain|Fellbach|Waiblingen|Rommelshausen|Endersbach|Beutelsbach|Grunbach|Geradstetten,8006485,Winterbach (b Schorndorf),Baden-Württemberg,Winterbach,73650,9.481549751,48.79842743,4,2503050135,,2503050136,,h,1,Bauarbeiten,,,,,,,0.0,1.0
