ID,train_number,planned_arrival,planned_departure,planned_platform,planned_status,category_train,train,path,eva_nr,station_name,station_state,station_city,station_zipcode,station_long,station_lat,station_category,changed_arrival,changed_platform_arrival,changed_departure,changed_platform_departure,message_status,priority,info,arrival_hidden,departure_hidden,arrival_path,departure_path,arrival_status,departure_status,arrival_delay_m,departure_delay_m
-3366414490112859120-2508140055-8,7180,2508140119,2508140119,4,,S,1,Stuttgart Hbf|Stuttgart-Bad Cannstatt|Stuttgart-Untertürkheim|Esslingen-Mettingen|Esslingen(Neckar)|Oberesslingen|Esslingen-Zell,8000508,Altbach,Baden-Württemberg,Altbach,73776,9.382434033,48.72031354,3,2508140125,,2508140125,,,,,,,,,,,6.0,6.0
-4825921784207905950-2508140057-7,7580,2508140117,2508140117,4,,S,5,Stuttgart Hbf|Stuttgart Nord|Stuttgart-Feuerbach|Stuttgart-Zuffenhausen|Kornwestheim Pbf|Ludwigsburg,8000630,Asperg,Baden-Württemberg,Asperg,71679,9.147977466,48.90725609,4,2508140117,,2508140117,,,,,,,,,,,0.0,0.0
7376303308582692744-2508140057-8,7378,2508140119,,5,,S,,Fellbach|Waiblingen|Neustadt-Hohenacker|Schwaikheim|Winnenden|Nellmersbach|Maubach,8000016,Backnang,Baden-Württemberg,Backnang,71522,9.425986107,48.94264844,3,2508140119,,,,,,,,,,,,,0.0,0.0
-2066719181509379684-2508140127-8,7380,2508140149,,4,,S,,Fellbach|Waiblingen|Neustadt-Hohenacker|Schwaikheim|Winnenden|Nellmersbach|Maubach,8000016,Backnang,Baden-Württemberg,Backnang,71522,9.425986107,48.94264844,3,2508140148,,,,,,,,,,,,,-1.0,0.0
7525780460691541142-2508140107-9,7478,2508140132,2508140133,1,,S,4,Stuttgart Hbf|Stuttgart Nord|Stuttgart-Feuerbach|Stuttgart-Zuffenhausen|Kornwestheim Pbf|Ludwigsburg|Favoritepark|Freiberg(Neckar),8000873,Benningen (Neckar),Baden-Württemberg,Benningen am Neckar,71726,9.244299075,48.94379773,5,2508140132,,2508140132,,,,,,,,,,,0.0,-1.0
7846954886947346104-2508140037-9,7476,2508140102,2508140103,1,,S,4,Stuttgart Hbf|Stuttgart Nord|Stuttgart-Feuerbach|Stuttgart-Zuffenhausen|Kornwestheim Pbf|Ludwigsburg|Favoritepark|Freiberg(Neckar),8000873,Benningen (Neckar),Baden-Württemberg,Benningen am Neckar,71726,9.244299075,48.94379773,5,2508140102,,2508140103,,,,,,,,,,,0.0,0.0
-1441515051530061043-2508140120-8,7280,2508140143,2508140143,1,,S,2,Stuttgart Hbf|Stuttgart-Bad Cannstatt|Fellbach|Waiblingen|Rommelshausen|Stetten-Beinstein|Endersbach,8000934,Beutelsbach,Baden-Württemberg,Weinstadt,71384,9.38551589,48.81038925,5,2508140143,,2508140143,,,,,,,,,,,0.0,0.0
7313231446534335906-2508140050-8,7278,2508140113,2508140113,1,,S,2,Stuttgart Hbf|Stuttgart-Bad Cannstatt|Fellbach|Waiblingen|Rommelshausen|Stetten-Beinstein|Endersbach,8000934,Beutelsbach,Baden-Württemberg,Weinstadt,71384,9.38551589,48.81038925,5,2508140116,,2508140117,,,,,,,,,,,3.0,4.0
-4825921784207905950-2508140057-9,7580,2508140124,,5,,S,,Stuttgart Hbf|Stuttgart Nord|Stuttgart-Feuerbach|Stuttgart-Zuffenhausen|Kornwestheim Pbf|Ludwigsburg|Asperg|Tamm(Württ),8000038,Bietigheim-Bissingen,Baden-Württemberg,Bietigheim-Bissingen,74321,9.137217396,48.94794988,2,2508140124,,,,,,,,,,,,,0.0,0.0
-3828888404650944113-2508140046-4,7779,2508140059,2508140100,4,,S,1,Stuttgart-Vaihingen|Stuttgart-Rohr|Goldberg(Württ),8001055,Böblingen,Baden-Württemberg,Böblingen,71034,9.004531864,48.68784871,3,2508140100,,2508140101,,,,,,,,,,,1.0,1.0
-4784954416824888572-2508140116-4,7781,2508140129,2508140130,4,,S,1,Stuttgart-Vaihingen|Stuttgart-Rohr|Goldberg(Württ),8001055,Böblingen,Baden-Württemberg,Böblingen,71034,9.004531864,48.68784871,3,2508140130,5,2508140130,5,,,,,,,,,,1.0,0.0
7310467920449271-2508140047-8,7678,2508140106,2508140106,2,,S,6,Stuttgart Hbf|Stuttgart Nord|Stuttgart-Feuerbach|Stuttgart-Zuffenhausen|Neuwirtshaus(Porscheplatz)|Korntal|Weilimdorf,8001476,Ditzingen,Baden-Württemberg,Ditzingen,71254,9.067095186,48.82358726,4,2508140105,,2508140106,,,,,,,,,,,-1.0,0.0
-446483415299011653-2508140105-5,7981,2508140119,2508140120,1,,S,2,Stuttgart-Vaihingen|Stuttgart-Rohr|Oberaichen|Leinfelden,8001650,Echterdingen,Baden-Württemberg,Echterdingen,70771,9.169307175,48.69214787,4,2508140119,,2508140120,,,,,,,,,,,0.0,0.0
-3828888404650944113-2508140046-6,7779,2508140105,2508140105,2,,S,1,Stuttgart-Vaihingen|Stuttgart-Rohr|Goldberg(Württ)|Böblingen|Hulb,8001689,Ehningen (b Böblingen),Baden-Württemberg,Ehningen,71139,8.944310368,48.66275549,4,2508140105,,2508140106,,,,,,,,,,,0.0,1.0
-4784954416824888572-2508140116-6,7781,2508140135,2508140135,2,,S,1,Stuttgart-Vaihingen|Stuttgart-Rohr|Goldberg(Württ)|Böblingen|Hulb,8001689,Ehningen (b Böblingen),Baden-Württemberg,Ehningen,71139,8.944310368,48.66275549,4,2508140138,,2508140138,,,,,,,,,,,3.0,3.0
-1441515051530061043-2508140120-7,7280,2508140141,2508140141,2,,S,2,Stuttgart Hbf|Stuttgart-Bad Cannstatt|Fellbach|Waiblingen|Rommelshausen|Stetten-Beinstein,8001785,Endersbach,Baden-Württemberg,Weinstadt,71384,9.370192421,48.81317323,4,2508140141,,2508140141,,,,,,,,,,,0.0,0.0
7313231446534335906-2508140050-7,7278,2508140111,2508140111,2,,S,2,Stuttgart Hbf|Stuttgart-Bad Cannstatt|Fellbach|Waiblingen|Rommelshausen|Stetten-Beinstein,8001785,Endersbach,Baden-Württemberg,Weinstadt,71384,9.370192421,48.81317323,4,2508140115,,2508140115,,,,,,,,,,,4.0,4.0
-4896468785972896802-2508132346-20,19188,2508140104,2508140105,3,,MEX,16,Ulm Hbf|Beimerstetten|Westerstetten|Lonsee|Urspring|Amstetten(Württ)|Geislingen(Steige)|Geislingen(Steige)West|Kuchen|Gingen(Fils)|Süßen|Salach|Eislingen(Fils)|Göppingen|Faurndau|Uhingen|Ebersbach(Fils)|Reichenbach(Fils)|Plochingen,8001920,Esslingen (Neckar),Baden-Württemberg,Esslingen am Neckar,73728,9.300578149,48.73854148,3,2508140104,,2508140105,,h,1,Großstörung,,,,,,,0.0,0.0
4298409621250373506-2508140100-3,19343,2508140110,2508140111,5,,MEX,12,Stuttgart Hbf|Stuttgart-Bad Cannstatt,8001920,Esslingen (Neckar),Baden-Württemberg,Esslingen am Neckar,73728,9.300578149,48.73854148,3,2508140112,6,2508140113,6,,,,,,,,,,2.0,2.0
-3366414490112859120-2508140055-5,7180,2508140112,2508140112,8,,S,1,Stuttgart Hbf|Stuttgart-Bad Cannstatt|Stuttgart-Untertürkheim|Esslingen-Mettingen,8001920,Esslingen (Neckar),Baden-Württemberg,Esslingen am Neckar,73728,9.300578149,48.73854148,3,2508140118,,2508140118,,,,,,,,,,,6.0,6.0
-3366414490112859120-2508140055-4,7180,2508140108,2508140109,4,,S,1,Stuttgart Hbf|Stuttgart-Bad Cannstatt|Stuttgart-Untertürkheim,8001921,Esslingen-Mettingen,Baden-Württemberg,Esslingen am Neckar,73733,9.275799007,48.74696655,3,2508140116,,2508140116,,,,,,,,,,,8.0,7.0
-3366414490112859120-2508140055-7,7180,2508140117,2508140117,4,,S,1,Stuttgart Hbf|Stuttgart-Bad Cannstatt|Stuttgart-Untertürkheim|Esslingen-Mettingen|Esslingen(Neckar)|Oberesslingen,8006642,Esslingen-Zell,Baden-Württemberg,Esslingen am Neckar,73730,9.359739507,48.72436142,3,2508140123,,2508140123,,,,,,,,,,,6.0,6.0
7525780460691541142-2508140107-7,7478,2508140126,2508140126,1,,S,4,Stuttgart Hbf|Stuttgart Nord|Stuttgart-Feuerbach|Stuttgart-Zuffenhausen|Kornwestheim Pbf|Ludwigsburg,8001967,Favoritepark,Baden-Württemberg,Ludwigsburg,71634,9.180574277,48.90948451,5,2508140126,,2508140126,,,,,,,,,,,0.0,0.0
-2066719181509379684-2508140127-1,7380,,2508140127,,,S,3,,8001974,Fellbach,Baden-Württemberg,Fellbach,70736,9.270645988,48.8202936,3,,,2508140126,,,,,,,,,,,0.0,-1.0
-1441515051530061043-2508140120-3,7280,2508140131,2508140132,1,,S,2,Stuttgart Hbf|Stuttgart-Bad Cannstatt,8001974,Fellbach,Baden-Württemberg,Fellbach,70736,9.270645988,48.8202936,3,2508140131,,2508140132,,,,,,,,,,,0.0,0.0
7313231446534335906-2508140050-3,7278,2508140101,2508140102,1,,S,2,Stuttgart Hbf|Stuttgart-Bad Cannstatt,8001974,Fellbach,Baden-Württemberg,Fellbach,70736,9.270645988,48.8202936,3,2508140106,,2508140106,,,,,,,,,,,5.0,4.0
-446483415299011653-2508140105-6,7981,2508140122,2508140123,1,,S,2,Stuttgart-Vaihingen|Stuttgart-Rohr|Oberaichen|Leinfelden|Echterdingen,8005768,Stuttgart Flughafen/Messe,Baden-Württemberg,Leinfelden-Echterdingen,70629,9.193411574,48.69075193,4,2508140122,,2508140123,,,,,,,,,,,0.0,0.0
7525780460691541142-2508140107-8,7478,2508140129,2508140129,3,,S,4,Stuttgart Hbf|Stuttgart Nord|Stuttgart-Feuerbach|Stuttgart-Zuffenhausen|Kornwestheim Pbf|Ludwigsburg|Favoritepark,8002065,Freiberg (Neckar),Baden-Württemberg,Freiberg am Neckar,71691,9.197530085,48.92994974,5,2508140128,,2508140129,,,,,,,,,,,-1.0,0.0
-3828888404650944113-2508140046-7,7779,2508140108,2508140108,1,,S,1,Stuttgart-Vaihingen|Stuttgart-Rohr|Goldberg(Württ)|Böblingen|Hulb|Ehningen(b Böblingen),8002165,Gärtringen,Baden-Württemberg,Gärtringen,71116,8.908864487,48.64080021,5,2508140109,,2508140109,,,,,,,,,,,1.0,1.0
-4784954416824888572-2508140116-7,7781,2508140138,2508140138,1,,S,1,Stuttgart-Vaihingen|Stuttgart-Rohr|Goldberg(Württ)|Böblingen|Hulb|Ehningen(b Böblingen),8002165,Gärtringen,Baden-Württemberg,Gärtringen,71116,8.908864487,48.64080021,5,2508140141,,2508140141,,,,,,,,,,,3.0,3.0
-1441515051530061043-2508140120-10,7280,2508140147,2508140147,2,,S,2,Stuttgart Hbf|Stuttgart-Bad Cannstatt|Fellbach|Waiblingen|Rommelshausen|Stetten-Beinstein|Endersbach|Beutelsbach|Grunbach,8002240,Geradstetten,Baden-Württemberg,Remshalden,73630,9.439522346,48.80527689,5,2508140147,,2508140147,,,,,,,,,,,0.0,0.0
7313231446534335906-2508140050-10,7278,2508140117,2508140117,2,,S,2,Stuttgart Hbf|Stuttgart-Bad Cannstatt|Fellbach|Waiblingen|Rommelshausen|Stetten-Beinstein|Endersbach|Beutelsbach|Grunbach,8002240,Geradstetten,Baden-Württemberg,Remshalden,73630,9.439522346,48.80527689,5,2508140121,,2508140122,,,,,,,,,,,4.0,5.0
-4784954416824888572-2508140116-3,7781,2508140127,2508140128,1,,S,1,Stuttgart-Vaihingen|Stuttgart-Rohr,8005201,Goldberg,Baden-Württemberg,Böblingen,71032,9.019733387,48.69651581,5,2508140128,,2508140128,,,,,,,,,,,1.0,0.0
-1441515051530061043-2508140120-9,7280,2508140145,2508140145,3,,S,2,Stuttgart Hbf|Stuttgart-Bad Cannstatt|Fellbach|Waiblingen|Rommelshausen|Stetten-Beinstein|Endersbach|Beutelsbach,8002448,Grunbach,Baden-Württemberg,Remshalden,73630,9.419580601,48.810414,4,2508140145,,2508140145,,,,,,,,,,,0.0,0.0
7313231446534335906-2508140050-9,7278,2508140115,2508140115,3,,S,2,Stuttgart Hbf|Stuttgart-Bad Cannstatt|Fellbach|Waiblingen|Rommelshausen|Stetten-Beinstein|Endersbach|Beutelsbach,8002448,Grunbach,Baden-Württemberg,Remshalden,73630,9.419580601,48.810414,4,2508140119,,2508140120,,,,,,,,,,,4.0,5.0
-3828888404650944113-2508140046-9,7779,2508140114,,3,,S,,Stuttgart-Vaihingen|Stuttgart-Rohr|Goldberg(Württ)|Böblingen|Hulb|Ehningen(b Böblingen)|Gärtringen|Nufringen,8002785,Herrenberg,Baden-Württemberg,Herrenberg,71083,8.862625253,48.59395697,3,2508140116,,,,,,,,,,,,,2.0,0.0
-4784954416824888572-2508140116-9,7781,2508140144,,3,,S,,Stuttgart-Vaihingen|Stuttgart-Rohr|Goldberg(Württ)|Böblingen|Hulb|Ehningen(b Böblingen)|Gärtringen|Nufringen,8002785,Herrenberg,Baden-Württemberg,Herrenberg,71083,8.862625253,48.59395697,3,2508140147,,,,,,,,,,,,,3.0,0.0
7310467920449271-2508140047-9,7678,2508140109,2508140109,2,,S,6,Stuttgart Hbf|Stuttgart Nord|Stuttgart-Feuerbach|Stuttgart-Zuffenhausen|Neuwirtshaus(Porscheplatz)|Korntal|Weilimdorf|Ditzingen,8002892,Höfingen,Baden-Württemberg,Leonberg,71229,9.026180834,48.81503436,5,2508140109,,2508140109,,,,,,,,,,,0.0,0.0
-3828888404650944113-2508140046-5,7779,2508140102,2508140102,1,,S,1,Stuttgart-Vaihingen|Stuttgart-Rohr|Goldberg(Württ)|Böblingen,8003022,Hulb,Baden-Württemberg,Böblingen-Hulb,71032,8.982396429,48.67924173,5,2508140102,,2508140102,,,,,,,,,,,0.0,0.0
-4784954416824888572-2508140116-5,7781,2508140132,2508140132,1,,S,1,Stuttgart-Vaihingen|Stuttgart-Rohr|Goldberg(Württ)|Böblingen,8003022,Hulb,Baden-Württemberg,Böblingen-Hulb,71032,8.982396429,48.67924173,5,2508140132,,2508140135,,,,,,,,,,,0.0,3.0
-446483415299011653-2508140105-7,7981,2508140127,,1,,S,,Stuttgart-Vaihingen|Stuttgart-Rohr|Oberaichen|Leinfelden|Echterdingen|Stuttgart Flughafen/Messe,8001984,Filderstadt,Baden-Württemberg,Filderstadt,70794,9.217581315,48.67649151,5,2508140126,,,,,,,,,,,,,-1.0,0.0
-3366414490112859120-2508140055-13,7180,2508140139,,2,,S,,Stuttgart Hbf|Stuttgart-Bad Cannstatt|Stuttgart-Untertürkheim|Esslingen-Mettingen|Esslingen(Neckar)|Oberesslingen|Esslingen-Zell|Altbach|Plochingen|Wernau(Neckar)|Wendlingen(Neckar)|Kirchheim(Teck)-Ötlingen,8003280,Kirchheim (Teck),Baden-Württemberg,Kirchheim unter Teck,73230,9.443872422,48.64415981,4,2508140144,,,,,,,,,,,,,5.0,0.0
2298525024658281877-2508140025-13,7178,2508140109,,2,,S,,Stuttgart Hbf|Stuttgart-Bad Cannstatt|Stuttgart-Untertürkheim|Esslingen-Mettingen|Esslingen(Neckar)|Oberesslingen|Esslingen-Zell|Altbach|Plochingen|Wernau(Neckar)|Wendlingen(Neckar)|Kirchheim(Teck)-Ötlingen,8003280,Kirchheim (Teck),Baden-Württemberg,Kirchheim unter Teck,73230,9.443872422,48.64415981,4,2508140118,,,,,,,,,,,,,9.0,0.0
-3366414490112859120-2508140055-12,7180,2508140136,2508140137,1,,S,1,Stuttgart Hbf|Stuttgart-Bad Cannstatt|Stuttgart-Untertürkheim|Esslingen-Mettingen|Esslingen(Neckar)|Oberesslingen|Esslingen-Zell|Altbach|Plochingen|Wernau(Neckar)|Wendlingen(Neckar),8003282,Kirchheim (Teck)-Ötlingen,Baden-Württemberg,Kirchheim unter Teck,73230,9.416261302,48.65782388,5,2508140141,,2508140141,,,,,,,,,,,5.0,4.0
2298525024658281877-2508140025-12,7178,2508140106,2508140107,1,,S,1,Stuttgart Hbf|Stuttgart-Bad Cannstatt|Stuttgart-Untertürkheim|Esslingen-Mettingen|Esslingen(Neckar)|Oberesslingen|Esslingen-Zell|Altbach|Plochingen|Wernau(Neckar)|Wendlingen(Neckar),8003282,Kirchheim (Teck)-Ötlingen,Baden-Württemberg,Kirchheim unter Teck,73230,9.416261302,48.65782388,5,2508140115,,2508140116,,,,,,,,,,,9.0,9.0
7310467920449271-2508140047-6,7678,2508140101,2508140101,1,,S,6,Stuttgart Hbf|Stuttgart Nord|Stuttgart-Feuerbach|Stuttgart-Zuffenhausen|Neuwirtshaus(Porscheplatz),8003409,Korntal,Baden-Württemberg,Korntal,70825,9.121099128,48.82640246,4,2508140101,,2508140101,,,,,,,,,,,0.0,0.0
-4825921784207905950-2508140057-5,7580,2508140110,2508140110,4,,S,5,Stuttgart Hbf|Stuttgart Nord|Stuttgart-Feuerbach|Stuttgart-Zuffenhausen,8003411,Kornwestheim Pbf,Baden-Württemberg,Kornwestheim,70806,9.179967278,48.86215948,3,2508140110,,2508140111,,,,,,,,,,,0.0,1.0
7525780460691541142-2508140107-5,7478,2508140120,2508140120,4,,S,4,Stuttgart Hbf|Stuttgart Nord|Stuttgart-Feuerbach|Stuttgart-Zuffenhausen,8003411,Kornwestheim Pbf,Baden-Württemberg,Kornwestheim,70806,9.179967278,48.86215948,3,2508140120,,2508140121,,,,,,,,,,,0.0,1.0
-446483415299011653-2508140105-4,7981,2508140116,2508140117,1,,S,2,Stuttgart-Vaihingen|Stuttgart-Rohr|Oberaichen,8003622,Leinfelden,Baden-Württemberg,Leinfelden-Echterdingen,70771,9.142859698,48.6964193,4,2508140116,,2508140117,,,,,,,,,,,0.0,0.0
7310467920449271-2508140047-10,7678,2508140113,2508140113,2,,S,6,Stuttgart Hbf|Stuttgart Nord|Stuttgart-Feuerbach|Stuttgart-Zuffenhausen|Neuwirtshaus(Porscheplatz)|Korntal|Weilimdorf|Ditzingen|Höfingen,8003652,Leonberg,Baden-Württemberg,Leonberg,71229,9.004025993,48.79970547,3,2508140113,,2508140113,,,,,,,,,,,0.0,0.0
-4825921784207905950-2508140057-6,7580,2508140113,2508140114,2,,S,5,Stuttgart Hbf|Stuttgart Nord|Stuttgart-Feuerbach|Stuttgart-Zuffenhausen|Kornwestheim Pbf,8000235,Ludwigsburg,Baden-Württemberg,Ludwigsburg,71638,9.185229823,48.89208622,3,2508140114,,2508140114,,,,,,,,,,,1.0,0.0
7525780460691541142-2508140107-6,7478,2508140123,2508140124,2,,S,4,Stuttgart Hbf|Stuttgart Nord|Stuttgart-Feuerbach|Stuttgart-Zuffenhausen|Kornwestheim Pbf,8000235,Ludwigsburg,Baden-Württemberg,Ludwigsburg,71638,9.185229823,48.89208622,3,2508140123,,2508140124,,,,,,,,,,,0.0,0.0
7310467920449271-2508140047-13,7678,2508140124,2508140124,1,,S,6,Stuttgart Hbf|Stuttgart Nord|Stuttgart-Feuerbach|Stuttgart-Zuffenhausen|Neuwirtshaus(Porscheplatz)|Korntal|Weilimdorf|Ditzingen|Höfingen|Leonberg|Rutesheim|Renningen,8003831,Malmsheim,Baden-Württemberg,Renningen,71272,8.905105557,48.77183564,5,2508140124,,2508140124,,,,,,,,,,,0.0,0.0
7525780460691541142-2508140107-10,7478,2508140135,,1,,S,,Stuttgart Hbf|Stuttgart Nord|Stuttgart-Feuerbach|Stuttgart-Zuffenhausen|Kornwestheim Pbf|Ludwigsburg|Favoritepark|Freiberg(Neckar)|Benningen(Neckar),8003853,Marbach (Neckar),Baden-Württemberg,Marbach am Neckar,71672,9.264611825,48.9437708,3,2508140134,,,,,,,,,,,,,-1.0,0.0
7846954886947346104-2508140037-10,7476,2508140105,,1,,S,,Stuttgart Hbf|Stuttgart Nord|Stuttgart-Feuerbach|Stuttgart-Zuffenhausen|Kornwestheim Pbf|Ludwigsburg|Favoritepark|Freiberg(Neckar)|Benningen(Neckar),8003853,Marbach (Neckar),Baden-Württemberg,Marbach am Neckar,71672,9.264611825,48.9437708,3,2508140105,,,,,,,,,,,,,0.0,0.0
7376303308582692744-2508140057-7,7378,2508140116,2508140116,2,,S,3,Fellbach|Waiblingen|Neustadt-Hohenacker|Schwaikheim|Winnenden|Nellmersbach,8003913,Maubach,Baden-Württemberg,Backnang,71522,9.419487062,48.92623463,4,2508140115,,2508140116,,,,,,,,,,,-1.0,0.0
-2066719181509379684-2508140127-7,7380,2508140146,2508140146,2,,S,3,Fellbach|Waiblingen|Neustadt-Hohenacker|Schwaikheim|Winnenden|Nellmersbach,8003913,Maubach,Baden-Württemberg,Backnang,71522,9.419487062,48.92623463,4,2508140144,,2508140145,,,,,,,,,,,-2.0,-1.0
7376303308582692744-2508140057-6,7378,2508140113,2508140113,2,,S,3,Fellbach|Waiblingen|Neustadt-Hohenacker|Schwaikheim|Winnenden,8004233,Nellmersbach,Baden-Württemberg,Leutenbach,71397,9.415421538,48.90336425,5,2508140112,,2508140113,,,,,,,,,,,-1.0,0.0
-2066719181509379684-2508140127-6,7380,2508140143,2508140143,2,,S,3,Fellbach|Waiblingen|Neustadt-Hohenacker|Schwaikheim|Winnenden,8004233,Nellmersbach,Baden-Württemberg,Leutenbach,71397,9.415421538,48.90336425,5,2508140142,,2508140142,,,,,,,,,,,-1.0,-1.0
7376303308582692744-2508140057-3,7378,2508140104,2508140105,1,,S,3,Fellbach|Waiblingen,8004333,Neustadt-Hohenacker,Baden-Württemberg,Waiblingen,71336,9.32455106,48.85921668,5,2508140104,,2508140105,,,,,,,,,,,0.0,0.0
-2066719181509379684-2508140127-3,7380,2508140134,2508140135,1,,S,3,Fellbach|Waiblingen,8004333,Neustadt-Hohenacker,Baden-Württemberg,Waiblingen,71336,9.32455106,48.85921668,5,2508140133,,2508140134,,,,,,,,,,,-1.0,-1.0
-3828888404650944113-2508140046-8,7779,2508140110,2508140111,1,,S,1,Stuttgart-Vaihingen|Stuttgart-Rohr|Goldberg(Württ)|Böblingen|Hulb|Ehningen(b Böblingen)|Gärtringen,8004490,Nufringen,Baden-Württemberg,Nufringen,71154,8.889817485,48.62010967,5,2508140111,,2508140111,,,,,,,,,,,1.0,0.0
-4784954416824888572-2508140116-8,7781,2508140140,2508140141,1,,S,1,Stuttgart-Vaihingen|Stuttgart-Rohr|Goldberg(Württ)|Böblingen|Hulb|Ehningen(b Böblingen)|Gärtringen,8004490,Nufringen,Baden-Württemberg,Nufringen,71154,8.889817485,48.62010967,5,2508140143,,2508140144,,,,,,,,,,,3.0,3.0
-446483415299011653-2508140105-3,7981,2508140114,2508140114,1,,S,2,Stuttgart-Vaihingen|Stuttgart-Rohr,8004496,Oberaichen,Baden-Württemberg,Leinfelden-Echterdingen,70771,9.12743664,48.70512422,5,2508140114,,2508140114,,,,,,,,,,,0.0,0.0
-3366414490112859120-2508140055-6,7180,2508140114,2508140114,4,,S,1,Stuttgart Hbf|Stuttgart-Bad Cannstatt|Stuttgart-Untertürkheim|Esslingen-Mettingen|Esslingen(Neckar),8004528,Oberesslingen,Baden-Württemberg,Esslingen am Neckar,73730,9.327277435,48.72983585,3,2508140120,,2508140120,,,,,,,,,,,6.0,6.0
397053316391935562-2508140042-4,19189,2508140100,2508140100,4,,MEX,16,Stuttgart Hbf|Stuttgart-Bad Cannstatt|Esslingen(Neckar),8000302,Plochingen,Baden-Württemberg,Plochingen,73207,9.411294578,48.71293906,2,2508140100,,2508140101,,,,,,,,,,,0.0,1.0
4298409621250373506-2508140100-4,19343,2508140117,2508140118,7,,MEX,12,Stuttgart Hbf|Stuttgart-Bad Cannstatt|Esslingen(Neckar),8000302,Plochingen,Baden-Württemberg,Plochingen,73207,9.411294578,48.71293906,2,2508140120,9,2508140120,9,,,,,,,,,,3.0,2.0
-3366414490112859120-2508140055-9,7180,2508140122,2508140125,10,,S,1,Stuttgart Hbf|Stuttgart-Bad Cannstatt|Stuttgart-Untertürkheim|Esslingen-Mettingen|Esslingen(Neckar)|Oberesslingen|Esslingen-Zell|Altbach,8000302,Plochingen,Baden-Württemberg,Plochingen,73207,9.411294578,48.71293906,2,2508140131,9,2508140131,9,,,,,,,,,,9.0,6.0
7310467920449271-2508140047-12,7678,2508140119,2508140122,3,,S,6,Stuttgart Hbf|Stuttgart Nord|Stuttgart-Feuerbach|Stuttgart-Zuffenhausen|Neuwirtshaus(Porscheplatz)|Korntal|Weilimdorf|Ditzingen|Höfingen|Leonberg|Rutesheim,8000313,Renningen,Baden-Württemberg,Renningen,71272,8.932650148,48.77515509,3,2508140119,,2508140122,,,,,,,,,,,0.0,0.0
-1441515051530061043-2508140120-5,7280,2508140137,2508140137,1,,S,2,Stuttgart Hbf|Stuttgart-Bad Cannstatt|Fellbach|Waiblingen,8005157,Rommelshausen,Baden-Württemberg,Kernen,71394,9.319175885,48.81552017,4,2508140137,,2508140137,,,,,,,,,,,0.0,0.0
7313231446534335906-2508140050-5,7278,2508140107,2508140107,1,,S,2,Stuttgart Hbf|Stuttgart-Bad Cannstatt|Fellbach|Waiblingen,8005157,Rommelshausen,Baden-Württemberg,Kernen,71394,9.319175885,48.81552017,4,2508140110,,2508140111,,,,,,,,,,,3.0,4.0
7310467920449271-2508140047-11,7678,2508140116,2508140116,2,,S,6,Stuttgart Hbf|Stuttgart Nord|Stuttgart-Feuerbach|Stuttgart-Zuffenhausen|Neuwirtshaus(Porscheplatz)|Korntal|Weilimdorf|Ditzingen|Höfingen|Leonberg,8005236,Rutesheim,Baden-Württemberg,Leonberg,71229,8.960325242,48.79031093,5,2508140116,,2508140116,,,,,,,,,,,0.0,0.0
-1441515051530061043-2508140120-13,7280,2508140155,,14,,S,,Stuttgart Hbf|Stuttgart-Bad Cannstatt|Fellbach|Waiblingen|Rommelshausen|Stetten-Beinstein|Endersbach|Beutelsbach|Grunbach|Geradstetten|Winterbach(b Schorndorf)|Weiler(Rems),8005424,Schorndorf,Baden-Württemberg,Schorndorf,73614,9.525686251,48.80693898,3,2508140155,,,,,,,,,,,,,0.0,0.0
7313231446534335906-2508140050-13,7278,2508140125,,14,,S,,Stuttgart Hbf|Stuttgart-Bad Cannstatt|Fellbach|Waiblingen|Rommelshausen|Stetten-Beinstein|Endersbach|Beutelsbach|Grunbach|Geradstetten|Winterbach(b Schorndorf)|Weiler(Rems),8005424,Schorndorf,Baden-Württemberg,Schorndorf,73614,9.525686251,48.80693898,3,2508140129,1,,,,,,,,,,,,4.0,0.0
7376303308582692744-2508140057-4,7378,2508140107,2508140107,2,,S,3,Fellbach|Waiblingen|Neustadt-Hohenacker,8005454,Schwaikheim,Baden-Württemberg,Schwaikheim,71409,9.354747358,48.86832665,4,2508140107,,2508140107,,,,,,,,,,,0.0,0.0
-2066719181509379684-2508140127-4,7380,2508140137,2508140137,2,,S,3,Fellbach|Waiblingen|Neustadt-Hohenacker,8005454,Schwaikheim,Baden-Württemberg,Schwaikheim,71409,9.354747358,48.86832665,4,2508140136,,2508140137,,,,,,,,,,,-1.0,0.0
-1441515051530061043-2508140120-6,7280,2508140139,2508140139,1,,S,2,Stuttgart Hbf|Stuttgart-Bad Cannstatt|Fellbach|Waiblingen|Rommelshausen,8005726,Stetten-Beinstein,Baden-Württemberg,Weinstadt,71384,9.352769725,48.81199601,5,2508140139,,2508140139,,,,,,,,,,,0.0,0.0
7313231446534335906-2508140050-6,7278,2508140109,2508140109,1,,S,2,Stuttgart Hbf|Stuttgart-Bad Cannstatt|Fellbach|Waiblingen|Rommelshausen,8005726,Stetten-Beinstein,Baden-Württemberg,Weinstadt,71384,9.352769725,48.81199601,5,2508140113,,2508140113,,,,,,,,,,,4.0,4.0
-4896468785972896802-2508132346-22,19188,2508140116,,12,,MEX,,Ulm Hbf|Beimerstetten|Westerstetten|Lonsee|Urspring|Amstetten(Württ)|Geislingen(Steige)|Geislingen(Steige)West|Kuchen|Gingen(Fils)|Süßen|Salach|Eislingen(Fils)|Göppingen|Faurndau|Uhingen|Ebersbach(Fils)|Reichenbach(Fils)|Plochingen|Esslingen(Neckar)|Stuttgart-Bad Cannstatt,8000096,Stuttgart Hbf,Baden-Württemberg,Stuttgart,70173,9.183172973,48.78473069,1,2508140119,,,,h,1,Großstörung,,,,,,,3.0,0.0
-8097229136581884814-2508140033-13,7281,2508140110,,3,,S,,Schorndorf|Weiler(Rems)|Winterbach(b Schorndorf)|Geradstetten|Grunbach|Beutelsbach|Endersbach|Stetten-Beinstein|Rommelshausen|Waiblingen|Fellbach|Stuttgart-Bad Cannstatt,8000096,Stuttgart Hbf,Baden-Württemberg,Stuttgart,70173,9.183172973,48.78473069,1,2508140112,,,,,,,,,,,,,2.0,0.0
-7696913984968518161-2508140022-12,19446,2508140126,,13,,MEX,,Aalen Hbf|Mögglingen(Gmünd)|Böbingen(Rems)|Schwäbisch Gmünd|Lorch(Württ)|Waldhausen(b Schorndorf)|Plüderhausen|Urbach(b Schorndorf)|Schorndorf|Waiblingen|Stuttgart-Bad Cannstatt,8000096,Stuttgart Hbf,Baden-Württemberg,Stuttgart,70173,9.183172973,48.78473069,1,2508140128,,,,,,,,,,,,,2.0,0.0
-8775031481172421761-2508140020-15,7181,2508140102,,4,,S,,Kirchheim(Teck)|Kirchheim(Teck)-Ötlingen|Wendlingen(Neckar)|Wernau(Neckar)|Plochingen|Altbach|Esslingen-Zell|Oberesslingen|Esslingen(Neckar)|Esslingen-Mettingen|Stuttgart-Obertürkheim|Stuttgart-Untertürkheim|Stuttgart Neckarpark|Stuttgart-Bad Cannstatt,8000096,Stuttgart Hbf,Baden-Württemberg,Stuttgart,70173,9.183172973,48.78473069,1,2508140119,,,,,,,,,,,,,17.0,0.0
4298409621250373506-2508140100-1,19343,,2508140100,,,MEX,12,,8000096,Stuttgart Hbf,Baden-Württemberg,Stuttgart,70173,9.183172973,48.78473069,1,,,2508140101,,,,,,,,,,,0.0,1.0
-1441515051530061043-2508140120-1,7280,,2508140120,,,S,2,,8000096,Stuttgart Hbf,Baden-Württemberg,Stuttgart,70173,9.183172973,48.78473069,1,,,2508140120,,,,,,,,,,,0.0,0.0
7525780460691541142-2508140107-1,7478,,2508140107,,,S,4,,8000096,Stuttgart Hbf,Baden-Württemberg,Stuttgart,70173,9.183172973,48.78473069,1,,,2508140108,,,,,,,,,,,0.0,1.0
-1262072456597967463-2508132238-20,88652,2508140105,,11,,RE,,Nürnberg Hbf|Roßtal|Heilsbronn|Wicklesgreuth|Ansbach|Leutershausen-Wiedersbach|Dombühl|Schnelldorf|Crailsheim|Eckartshausen-Ilshofen|Schwäbisch Hall-Hessental|Gaildorf West|Murrhardt|Sulzbach(Murr)|Oppenweiler(Württ)|Backnang|Winnenden|Waiblingen|Stuttgart-Bad Cannstatt,8000096,Stuttgart Hbf,Baden-Württemberg,Stuttgart,70173,9.183172973,48.78473069,1,2508140110,,,,,,,,,,,,,5.0,0.0
-4825921784207905950-2508140057-2,7580,2508140100,2508140102,3,,S,5,Stuttgart Hbf,8005767,Stuttgart Nord,Baden-Württemberg,Stuttgard-Nord,70174,9.188061449,48.80374161,5,2508140101,,2508140102,,,,,,,,,,,1.0,0.0
7525780460691541142-2508140107-2,7478,2508140110,2508140112,3,,S,4,Stuttgart Hbf,8005767,Stuttgart Nord,Baden-Württemberg,Stuttgard-Nord,70174,9.188061449,48.80374161,5,2508140111,,2508140112,,,,,,,,,,,1.0,0.0
-4896468785972896802-2508132346-21,19188,2508140112,2508140112,5,,MEX,16,Ulm Hbf|Beimerstetten|Westerstetten|Lonsee|Urspring|Amstetten(Württ)|Geislingen(Steige)|Geislingen(Steige)West|Kuchen|Gingen(Fils)|Süßen|Salach|Eislingen(Fils)|Göppingen|Faurndau|Uhingen|Ebersbach(Fils)|Reichenbach(Fils)|Plochingen|Esslingen(Neckar),8005769,Stuttgart-Bad Cannstatt,Baden-Württemberg,Stuttgart,70372,9.217468636,48.80127978,3,2508140113,6,2508140116,6,h,1,Großstörung,,,,,,,1.0,4.0
-8097229136581884814-2508140033-12,7281,2508140105,2508140106,6,,S,2,Schorndorf|Weiler(Rems)|Winterbach(b Schorndorf)|Geradstetten|Grunbach|Beutelsbach|Endersbach|Stetten-Beinstein|Rommelshausen|Waiblingen|Fellbach,8005769,Stuttgart-Bad Cannstatt,Baden-Württemberg,Stuttgart,70372,9.217468636,48.80127978,3,2508140105,,2508140109,,,,,,,,,,,0.0,3.0
-7696913984968518161-2508140022-11,19446,2508140120,2508140122,6,,MEX,13,Aalen Hbf|Mögglingen(Gmünd)|Böbingen(Rems)|Schwäbisch Gmünd|Lorch(Württ)|Waldhausen(b Schorndorf)|Plüderhausen|Urbach(b Schorndorf)|Schorndorf|Waiblingen,8005769,Stuttgart-Bad Cannstatt,Baden-Württemberg,Stuttgart,70372,9.217468636,48.80127978,3,2508140122,,2508140123,,,,,,,,,,,2.0,1.0
4298409621250373506-2508140100-2,19343,2508140103,2508140104,8,,MEX,12,Stuttgart Hbf,8005769,Stuttgart-Bad Cannstatt,Baden-Württemberg,Stuttgart,70372,9.217468636,48.80127978,3,2508140104,,2508140105,,,,,,,,,,,1.0,1.0
-1441515051530061043-2508140120-2,7280,2508140124,2508140124,7,,S,2,Stuttgart Hbf,8005769,Stuttgart-Bad Cannstatt,Baden-Württemberg,Stuttgart,70372,9.217468636,48.80127978,3,2508140124,,2508140126,,,,,,,,,,,0.0,2.0
-3366414490112859120-2508140055-2,7180,2508140059,2508140100,8,,S,1,Stuttgart Hbf,8005769,Stuttgart-Bad Cannstatt,Baden-Württemberg,Stuttgart,70372,9.217468636,48.80127978,3,2508140108,,2508140108,,,,,,,,,,,9.0,8.0
-1262072456597967463-2508132238-19,88652,2508140100,2508140101,6,,RE,90,Nürnberg Hbf|Roßtal|Heilsbronn|Wicklesgreuth|Ansbach|Leutershausen-Wiedersbach|Dombühl|Schnelldorf|Crailsheim|Eckartshausen-Ilshofen|Schwäbisch Hall-Hessental|Gaildorf West|Murrhardt|Sulzbach(Murr)|Oppenweiler(Württ)|Backnang|Winnenden|Waiblingen,8005769,Stuttgart-Bad Cannstatt,Baden-Württemberg,Stuttgart,70372,9.217468636,48.80127978,3,2508140100,,2508140103,,,,,,,,,,,0.0,2.0
-4825921784207905950-2508140057-3,7580,2508140104,2508140104,2,,S,5,Stuttgart Hbf|Stuttgart Nord,8005770,Stuttgart-Feuerbach,Baden-Württemberg,Feuerbach,70469,9.169186287,48.81363554,3,2508140104,,2508140104,,,,,,,,,,,0.0,0.0
7525780460691541142-2508140107-3,7478,2508140114,2508140114,2,,S,4,Stuttgart Hbf|Stuttgart Nord,8005770,Stuttgart-Feuerbach,Baden-Württemberg,Feuerbach,70469,9.169186287,48.81363554,3,2508140114,,2508140114,,,,,,,,,,,0.0,0.0
-4784954416824888572-2508140116-2,7781,2508140117,2508140123,2,,S,1,Stuttgart-Vaihingen,8005773,Stuttgart-Rohr,Baden-Württemberg,Stuttgart,70565,9.108158025,48.71799427,4,2508140118,,2508140123,,,,,,,,,,,1.0,0.0
-446483415299011653-2508140105-2,7981,2508140106,2508140112,2,,S,2,Stuttgart-Vaihingen,8005773,Stuttgart-Rohr,Baden-Württemberg,Stuttgart,70565,9.108158025,48.71799427,4,2508140106,,2508140112,,,,,,,,,,,0.0,0.0
-3366414490112859120-2508140055-3,7180,2508140102,2508140103,4,,S,1,Stuttgart Hbf|Stuttgart-Bad Cannstatt,8005775,Stuttgart-Untertürkheim Pbf,Baden-Württemberg,Stuttgart,70327,9.250467074,48.77984679,3,2508140111,,2508140112,,,,,,,,,,,9.0,9.0
-4784954416824888572-2508140116-1,7781,,2508140116,,,S,1,,8005776,Stuttgart-Vaihingen,Baden-Württemberg,Stuttgart,70563,9.113913368,48.72698116,3,,,2508140116,,,,,,,,,,,0.0,0.0
-446483415299011653-2508140105-1,7981,,2508140105,,,S,2,,8005776,Stuttgart-Vaihingen,Baden-Württemberg,Stuttgart,70563,9.113913368,48.72698116,3,,,2508140105,,,,,,,,,,,0.0,0.0
7310467920449271-2508140047-7,7678,2508140103,2508140103,1,,S,6,Stuttgart Hbf|Stuttgart Nord|Stuttgart-Feuerbach|Stuttgart-Zuffenhausen|Neuwirtshaus(Porscheplatz)|Korntal,8006268,Stuttgart-Weilimdorf,Baden-Württemberg,Stuttgart,70499,9.094370086,48.82208429,5,2508140103,,2508140103,,,,,,,,,,,0.0,0.0
-4825921784207905950-2508140057-4,7580,2508140106,2508140107,4,,S,5,Stuttgart Hbf|Stuttgart Nord|Stuttgart-Feuerbach,8005778,Stuttgart-Zuffenhausen,Baden-Württemberg,Stuttgart,70435,9.167156375,48.82960884,3,2508140106,,2508140107,,,,,,,,,,,0.0,0.0
7525780460691541142-2508140107-4,7478,2508140116,2508140117,4,,S,4,Stuttgart Hbf|Stuttgart Nord|Stuttgart-Feuerbach,8005778,Stuttgart-Zuffenhausen,Baden-Württemberg,Stuttgart,70435,9.167156375,48.82960884,3,2508140116,,2508140117,,,,,,,,,,,0.0,0.0
-4825921784207905950-2508140057-8,7580,2508140119,2508140120,3,,S,5,Stuttgart Hbf|Stuttgart Nord|Stuttgart-Feuerbach|Stuttgart-Zuffenhausen|Kornwestheim Pbf|Ludwigsburg|Asperg,8005820,Tamm (Württ),Baden-Württemberg,Tamm,71732,9.125288012,48.92187736,4,2508140119,,2508140120,,,,,,,,,,,0.0,0.0
7376303308582692744-2508140057-2,7378,2508140059,2508140101,3,,S,3,Fellbach,8000180,Waiblingen,Baden-Württemberg,Waiblingen,71332,9.300476874,48.8262444,3,2508140059,,2508140101,,,,,,,,,,,0.0,0.0
-7696913984968518161-2508140022-10,19446,2508140113,2508140113,6,,MEX,13,Aalen Hbf|Mögglingen(Gmünd)|Böbingen(Rems)|Schwäbisch Gmünd|Lorch(Württ)|Waldhausen(b Schorndorf)|Plüderhausen|Urbach(b Schorndorf)|Schorndorf,8000180,Waiblingen,Baden-Württemberg,Waiblingen,71332,9.300476874,48.8262444,3,2508140115,,2508140115,,,,,,,,,,,2.0,2.0
-2066719181509379684-2508140127-2,7380,2508140129,2508140131,3,,S,3,Fellbach,8000180,Waiblingen,Baden-Württemberg,Waiblingen,71332,9.300476874,48.8262444,3,2508140128,,2508140130,,,,,,,,,,,-1.0,-1.0
-1441515051530061043-2508140120-4,7280,2508140134,2508140135,7,,S,2,Stuttgart Hbf|Stuttgart-Bad Cannstatt|Fellbach,8000180,Waiblingen,Baden-Württemberg,Waiblingen,71332,9.300476874,48.8262444,3,2508140134,,2508140135,,,,,,,,,,,0.0,0.0
7313231446534335906-2508140050-4,7278,2508140104,2508140105,7,,S,2,Stuttgart Hbf|Stuttgart-Bad Cannstatt|Fellbach,8000180,Waiblingen,Baden-Württemberg,Waiblingen,71332,9.300476874,48.8262444,3,2508140109,,2508140109,,,,,,,,,,,5.0,4.0
7310467920449271-2508140047-14,7678,2508140127,,1,,S,,Stuttgart Hbf|Stuttgart Nord|Stuttgart-Feuerbach|Stuttgart-Zuffenhausen|Neuwirtshaus(Porscheplatz)|Korntal|Weilimdorf|Ditzingen|Höfingen|Leonberg|Rutesheim|Renningen|Malmsheim,8006271,Weil der Stadt,Baden-Württemberg,Weil der Stadt,71263,8.873189074,48.7557357,4,2508140127,,,,,,,,,,,,,0.0,0.0
-1441515051530061043-2508140120-12,7280,2508140152,2508140152,1,,S,2,Stuttgart Hbf|Stuttgart-Bad Cannstatt|Fellbach|Waiblingen|Rommelshausen|Stetten-Beinstein|Endersbach|Beutelsbach|Grunbach|Geradstetten|Winterbach(b Schorndorf),8006277,Weiler (Rems),Baden-Württemberg,Schorndorf,76314,9.501891172,48.80034585,5,2508140152,,2508140152,,,,,,,,,,,0.0,0.0
7313231446534335906-2508140050-12,7278,2508140122,2508140122,1,,S,2,Stuttgart Hbf|Stuttgart-Bad Cannstatt|Fellbach|Waiblingen|Rommelshausen|Stetten-Beinstein|Endersbach|Beutelsbach|Grunbach|Geradstetten|Winterbach(b Schorndorf),8006277,Weiler (Rems),Baden-Württemberg,Schorndorf,76314,9.501891172,48.80034585,5,2508140126,,2508140126,,,,,,,,,,,4.0,4.0
4298409621250373506-2508140100-6,19343,2508140126,2508140126,2,,MEX,12,Stuttgart Hbf|Stuttgart-Bad Cannstatt|Esslingen(Neckar)|Plochingen|Wernau(Neckar),8006331,Wendlingen (Neckar),Baden-Württemberg,Wendlingen am Neckar,73240,9.373662098,48.67368917,3,2508140126,,2508140127,,,,,,,,,,,0.0,1.0
-3366414490112859120-2508140055-11,7180,2508140132,2508140133,11,,S,1,Stuttgart Hbf|Stuttgart-Bad Cannstatt|Stuttgart-Untertürkheim|Esslingen-Mettingen|Esslingen(Neckar)|Oberesslingen|Esslingen-Zell|Altbach|Plochingen|Wernau(Neckar),8006331,Wendlingen (Neckar),Baden-Württemberg,Wendlingen am Neckar,73240,9.373662098,48.67368917,3,2508140137,,2508140138,,,,,,,,,,,5.0,5.0
2298525024658281877-2508140025-11,7178,2508140102,2508140103,11,,S,1,Stuttgart Hbf|Stuttgart-Bad Cannstatt|Stuttgart-Untertürkheim|Esslingen-Mettingen|Esslingen(Neckar)|Oberesslingen|Esslingen-Zell|Altbach|Plochingen|Wernau(Neckar),8006331,Wendlingen (Neckar),Baden-Württemberg,Wendlingen am Neckar,73240,9.373662098,48.67368917,3,2508140111,,2508140112,,,,,,,,,,,9.0,9.0
4298409621250373506-2508140100-5,19343,2508140121,2508140122,2,,MEX,12,Stuttgart Hbf|Stuttgart-Bad Cannstatt|Esslingen(Neckar)|Plochingen,8006346,Wernau (Neckar),Baden-Württemberg,Wernau (Neckar),73249,9.413654423,48.69417221,4,2508140122,,2508140123,,,,,,,,,,,1.0,1.0
-3366414490112859120-2508140055-10,7180,2508140128,2508140129,2,,S,1,Stuttgart Hbf|Stuttgart-Bad Cannstatt|Stuttgart-Untertürkheim|Esslingen-Mettingen|Esslingen(Neckar)|Oberesslingen|Esslingen-Zell|Altbach|Plochingen,8006346,Wernau (Neckar),Baden-Württemberg,Wernau (Neckar),73249,9.413654423,48.69417221,4,2508140133,,2508140134,,,,,,,,,,,5.0,5.0
7376303308582692744-2508140057-5,7378,2508140110,2508140110,2,,S,3,Fellbach|Waiblingen|Neustadt-Hohenacker|Schwaikheim,8006479,Winnenden,Baden-Württemberg,Winnenden,71364,9.392155928,48.8795625,3,2508140110,,2508140110,,,,,,,,,,,0.0,0.0
-2066719181509379684-2508140127-5,7380,2508140140,2508140140,2,,S,3,Fellbach|Waiblingen|Neustadt-Hohenacker|Schwaikheim,8006479,Winnenden,Baden-Württemberg,Winnenden,71364,9.392155928,48.8795625,3,2508140139,,2508140139,,,,,,,,,,,-1.0,-1.0
-1441515051530061043-2508140120-11,7280,2508140150,2508140150,2,,S,2,Stuttgart Hbf|Stuttgart-Bad Cannstatt|Fellbach|Waiblingen|Rommelshausen|Stetten-Beinstein|Endersbach|Beutelsbach|Grunbach|Geradstetten,8006485,Winterbach (b Schorndorf),Baden-Württemberg,Winterbach,73650,9.481549751,48.79842743,4,2508140150,,2508140151,,,,,,,,,,,0.0,1.0
7313231446534335906-2508140050-11,7278,2508140120,2508140120,2,,S,2,Stuttgart Hbf|Stuttgart-Bad Cannstatt|Fellbach|Waiblingen|Rommelshausen|Stetten-Beinstein|Endersbach|Beutelsbach|Grunbach|Geradstetten,8006485,Winterbach (b Schorndorf),Baden-Württemberg,Winterbach,73650,9.481549751,48.79842743,4,2508140124,,2508140124,,,,,,,,,,,4.0,4.0
