ID,train_number,planned_arrival,planned_departure,planned_platform,planned_status,category_train,train,path,eva_nr,station_name,station_state,station_city,station_zipcode,station_long,station_lat,station_category,changed_arrival,changed_platform_arrival,changed_departure,changed_platform_departure,message_status,priority,info,arrival_hidden,departure_hidden,arrival_path,departure_path,arrival_status,departure_status,arrival_delay_m,departure_delay_m
-3366414490112859120-2508010055-7,7180,2508010119,2508010119,4,,S,1,Stuttgart Hbf|Stuttgart-Bad Cannstatt|Stuttgart-Untertürkheim|Esslingen(Neckar)|Oberesslingen|Esslingen-Zell,8000508,Altbach,Baden-Württemberg,Altbach,73776,9.382434033,48.72031354,3,2508010119,2,2508010121,2,,,,,,,,,,0.0,2.0
-4825921784207905950-2508010057-7,7580,2508010117,2508010117,4,,S,5,Stuttgart Hbf|Stuttgart Nord|Stuttgart-Feuerbach|Stuttgart-Zuffenhausen|Kornwestheim Pbf|Ludwigsburg,8000630,Asperg,Baden-Württemberg,Asperg,71679,9.147977466,48.90725609,4,2508010121,,2508010122,,,,,,,,,,,4.0,5.0
-2066719181509379684-2508010127-8,7380,2508010149,,4,,S,,Fellbach|Waiblingen|Neustadt-Hohenacker|Schwaikheim|Winnenden|Nellmersbach|Maubach,8000016,Backnang,Baden-Württemberg,Backnang,71522,9.425986107,48.94264844,3,2508010149,5,,,,,,,,,,,,0.0,0.0
7376303308582692744-2508010057-8,7378,2508010119,,5,,S,,Fellbach|Waiblingen|Neustadt-Hohenacker|Schwaikheim|Winnenden|Nellmersbach|Maubach,8000016,Backnang,Baden-Württemberg,Backnang,71522,9.425986107,48.94264844,3,2508010119,,,,,,,,,,,,,0.0,0.0
7313231446534335906-2508010050-8,7278,2508010113,2508010113,1,,S,2,Stuttgart Hbf|Stuttgart-Bad Cannstatt|Fellbach|Waiblingen|Rommelshausen|Stetten-Beinstein|Endersbach,8000934,Beutelsbach,Baden-Württemberg,Weinstadt,71384,9.38551589,48.81038925,5,2508010124,,2508010125,,,,,,,,,,,11.0,12.0
-1441515051530061043-2508010120-8,7280,2508010143,2508010143,1,,S,2,Stuttgart Hbf|Stuttgart-Bad Cannstatt|Fellbach|Waiblingen|Rommelshausen|Stetten-Beinstein|Endersbach,8000934,Beutelsbach,Baden-Württemberg,Weinstadt,71384,9.38551589,48.81038925,5,2508010154,,2508010154,,,,,,,,,,,11.0,11.0
-4825921784207905950-2508010057-9,7580,2508010124,,5,,S,,Stuttgart Hbf|Stuttgart Nord|Stuttgart-Feuerbach|Stuttgart-Zuffenhausen|Kornwestheim Pbf|Ludwigsburg|Asperg|Tamm(Württ),8000038,Bietigheim-Bissingen,Baden-Württemberg,Bietigheim-Bissingen,74321,9.137217396,48.94794988,2,2508010129,,,,,,,,,,,,,5.0,0.0
-4784954416824888572-2508010116-4,7781,2508010129,2508010130,4,,S,1,Stuttgart-Vaihingen|Stuttgart-Rohr|Goldberg(Württ),8001055,Böblingen,Baden-Württemberg,Böblingen,71034,9.004531864,48.68784871,3,2508010131,5,2508010131,5,,,,,,,,,,2.0,1.0
-3828888404650944113-2508010046-4,7779,2508010059,2508010100,4,,S,1,Stuttgart-Vaihingen|Stuttgart-Rohr|Goldberg(Württ),8001055,Böblingen,Baden-Württemberg,Böblingen,71034,9.004531864,48.68784871,3,2508010101,5,2508010101,5,,,,,,,,,,2.0,1.0
7310467920449271-2508010047-8,7678,2508010106,2508010106,2,,S,6,Stuttgart Hbf|Stuttgart Nord|Stuttgart-Feuerbach|Stuttgart-Zuffenhausen|Neuwirtshaus(Porscheplatz)|Korntal|Weilimdorf,8001476,Ditzingen,Baden-Württemberg,Ditzingen,71254,9.067095186,48.82358726,4,2508010106,,2508010106,,,,,,,,,,,0.0,0.0
-4784954416824888572-2508010116-6,7781,2508010135,2508010135,2,,S,1,Stuttgart-Vaihingen|Stuttgart-Rohr|Goldberg(Württ)|Böblingen|Hulb,8001689,Ehningen (b Böblingen),Baden-Württemberg,Ehningen,71139,8.944310368,48.66275549,4,2508010136,,2508010136,,,,,,,,,,,1.0,1.0
-3828888404650944113-2508010046-6,7779,2508010105,2508010105,2,,S,1,Stuttgart-Vaihingen|Stuttgart-Rohr|Goldberg(Württ)|Böblingen|Hulb,8001689,Ehningen (b Böblingen),Baden-Württemberg,Ehningen,71139,8.944310368,48.66275549,4,2508010105,,2508010106,,,,,,,,,,,0.0,1.0
7313231446534335906-2508010050-7,7278,2508010111,2508010111,2,,S,2,Stuttgart Hbf|Stuttgart-Bad Cannstatt|Fellbach|Waiblingen|Rommelshausen|Stetten-Beinstein,8001785,Endersbach,Baden-Württemberg,Weinstadt,71384,9.370192421,48.81317323,4,2508010123,,2508010123,,,,,,,,,,,12.0,12.0
-1441515051530061043-2508010120-7,7280,2508010141,2508010141,2,,S,2,Stuttgart Hbf|Stuttgart-Bad Cannstatt|Fellbach|Waiblingen|Rommelshausen|Stetten-Beinstein,8001785,Endersbach,Baden-Württemberg,Weinstadt,71384,9.370192421,48.81317323,4,2508010152,,2508010152,,,,,,,,,,,11.0,11.0
-3366414490112859120-2508010055-4,7180,2508010112,2508010112,8,,S,1,Stuttgart Hbf|Stuttgart-Bad Cannstatt|Stuttgart-Untertürkheim,8001920,Esslingen (Neckar),Baden-Württemberg,Esslingen am Neckar,73728,9.300578149,48.73854148,3,2508010111,5,2508010112,5,,,,,,,,,,-1.0,0.0
4298409621250373506-2508010049-3,19343,2508010059,2508010100,5,,MEX,12,Stuttgart Hbf|Stuttgart-Bad Cannstatt,8001920,Esslingen (Neckar),Baden-Württemberg,Esslingen am Neckar,73728,9.300578149,48.73854148,3,2508010113,6,2508010115,6,,,,,,,,,,14.0,15.0
-4896468785972896802-2507312346-20,19188,2508010104,2508010105,3,,MEX,16,Ulm Hbf|Beimerstetten|Westerstetten|Lonsee|Urspring|Amstetten(Württ)|Geislingen(Steige)|Geislingen(Steige)West|Kuchen|Gingen(Fils)|Süßen|Salach|Eislingen(Fils)|Göppingen|Faurndau|Uhingen|Ebersbach(Fils)|Reichenbach(Fils)|Plochingen,8001920,Esslingen (Neckar),Baden-Württemberg,Esslingen am Neckar,73728,9.300578149,48.73854148,3,2508010104,,2508010105,,h,3,Information,,,,,,,0.0,0.0
-3366414490112859120-2508010055-6,7180,2508010117,2508010117,4,,S,1,Stuttgart Hbf|Stuttgart-Bad Cannstatt|Stuttgart-Untertürkheim|Esslingen(Neckar)|Oberesslingen,8006642,Esslingen-Zell,Baden-Württemberg,Esslingen am Neckar,73730,9.359739507,48.72436142,3,2508010117,2,2508010118,2,,,,,,,,,,0.0,1.0
7313231446534335906-2508010050-3,7278,2508010101,2508010102,1,,S,2,Stuttgart Hbf|Stuttgart-Bad Cannstatt,8001974,Fellbach,Baden-Württemberg,Fellbach,70736,9.270645988,48.8202936,3,2508010114,,2508010114,,,,,,,,,,,13.0,12.0
-1441515051530061043-2508010120-3,7280,2508010131,2508010132,1,,S,2,Stuttgart Hbf|Stuttgart-Bad Cannstatt,8001974,Fellbach,Baden-Württemberg,Fellbach,70736,9.270645988,48.8202936,3,2508010143,,2508010143,,,,,,,,,,,12.0,11.0
-2066719181509379684-2508010127-1,7380,,2508010127,,,S,3,,8001974,Fellbach,Baden-Württemberg,Fellbach,70736,9.270645988,48.8202936,3,,,2508010125,,,,,,,,,,,0.0,-2.0
-4784954416824888572-2508010116-7,7781,2508010138,2508010138,1,,S,1,Stuttgart-Vaihingen|Stuttgart-Rohr|Goldberg(Württ)|Böblingen|Hulb|Ehningen(b Böblingen),8002165,Gärtringen,Baden-Württemberg,Gärtringen,71116,8.908864487,48.64080021,5,2508010139,,2508010140,,,,,,,,,,,1.0,2.0
-3828888404650944113-2508010046-7,7779,2508010108,2508010108,1,,S,1,Stuttgart-Vaihingen|Stuttgart-Rohr|Goldberg(Württ)|Böblingen|Hulb|Ehningen(b Böblingen),8002165,Gärtringen,Baden-Württemberg,Gärtringen,71116,8.908864487,48.64080021,5,2508010109,,2508010110,,,,,,,,,,,1.0,2.0
7313231446534335906-2508010050-10,7278,2508010117,2508010117,2,,S,2,Stuttgart Hbf|Stuttgart-Bad Cannstatt|Fellbach|Waiblingen|Rommelshausen|Stetten-Beinstein|Endersbach|Beutelsbach|Grunbach,8002240,Geradstetten,Baden-Württemberg,Remshalden,73630,9.439522346,48.80527689,5,2508010128,,2508010129,,,,,,,,,,,11.0,12.0
-1441515051530061043-2508010120-10,7280,2508010147,2508010147,2,,S,2,Stuttgart Hbf|Stuttgart-Bad Cannstatt|Fellbach|Waiblingen|Rommelshausen|Stetten-Beinstein|Endersbach|Beutelsbach|Grunbach,8002240,Geradstetten,Baden-Württemberg,Remshalden,73630,9.439522346,48.80527689,5,2508010158,,2508010158,,,,,,,,,,,11.0,11.0
-4784954416824888572-2508010116-3,7781,2508010127,2508010128,1,,S,1,Stuttgart-Vaihingen|Stuttgart-Rohr,8005201,Goldberg,Baden-Württemberg,Böblingen,71032,9.019733387,48.69651581,5,2508010128,,2508010129,,,,,,,,,,,1.0,1.0
7313231446534335906-2508010050-9,7278,2508010115,2508010115,3,,S,2,Stuttgart Hbf|Stuttgart-Bad Cannstatt|Fellbach|Waiblingen|Rommelshausen|Stetten-Beinstein|Endersbach|Beutelsbach,8002448,Grunbach,Baden-Württemberg,Remshalden,73630,9.419580601,48.810414,4,2508010127,,2508010127,,,,,,,,,,,12.0,12.0
-1441515051530061043-2508010120-9,7280,2508010145,2508010145,3,,S,2,Stuttgart Hbf|Stuttgart-Bad Cannstatt|Fellbach|Waiblingen|Rommelshausen|Stetten-Beinstein|Endersbach|Beutelsbach,8002448,Grunbach,Baden-Württemberg,Remshalden,73630,9.419580601,48.810414,4,2508010156,,2508010157,,,,,,,,,,,11.0,12.0
-4784954416824888572-2508010116-9,7781,2508010144,,3,,S,,Stuttgart-Vaihingen|Stuttgart-Rohr|Goldberg(Württ)|Böblingen|Hulb|Ehningen(b Böblingen)|Gärtringen|Nufringen,8002785,Herrenberg,Baden-Württemberg,Herrenberg,71083,8.862625253,48.59395697,3,2508010146,,,,,,,,,,,,,2.0,0.0
-3828888404650944113-2508010046-9,7779,2508010114,,3,,S,,Stuttgart-Vaihingen|Stuttgart-Rohr|Goldberg(Württ)|Böblingen|Hulb|Ehningen(b Böblingen)|Gärtringen|Nufringen,8002785,Herrenberg,Baden-Württemberg,Herrenberg,71083,8.862625253,48.59395697,3,2508010116,2,,,,,,,,,,,,2.0,0.0
7310467920449271-2508010047-9,7678,2508010109,2508010109,2,,S,6,Stuttgart Hbf|Stuttgart Nord|Stuttgart-Feuerbach|Stuttgart-Zuffenhausen|Neuwirtshaus(Porscheplatz)|Korntal|Weilimdorf|Ditzingen,8002892,Höfingen,Baden-Württemberg,Leonberg,71229,9.026180834,48.81503436,5,2508010109,,2508010109,,,,,,,,,,,0.0,0.0
-4784954416824888572-2508010116-5,7781,2508010132,2508010132,1,,S,1,Stuttgart-Vaihingen|Stuttgart-Rohr|Goldberg(Württ)|Böblingen,8003022,Hulb,Baden-Württemberg,Böblingen-Hulb,71032,8.982396429,48.67924173,5,2508010133,,2508010133,,,,,,,,,,,1.0,1.0
-3828888404650944113-2508010046-5,7779,2508010102,2508010102,1,,S,1,Stuttgart-Vaihingen|Stuttgart-Rohr|Goldberg(Württ)|Böblingen,8003022,Hulb,Baden-Württemberg,Böblingen-Hulb,71032,8.982396429,48.67924173,5,2508010103,,2508010103,,,,,,,,,,,1.0,1.0
2298525024658281877-2508010025-12,7178,2508010109,,2,,S,,Stuttgart Hbf|Stuttgart-Bad Cannstatt|Stuttgart-Untertürkheim|Esslingen(Neckar)|Oberesslingen|Esslingen-Zell|Altbach|Plochingen|Wernau(Neckar)|Wendlingen(Neckar)|Kirchheim(Teck)-Ötlingen,8003280,Kirchheim (Teck),Baden-Württemberg,Kirchheim unter Teck,73230,9.443872422,48.64415981,4,2508010131,,,,,,,,,,,,,22.0,0.0
-3366414490112859120-2508010055-12,7180,2508010139,,2,,S,,Stuttgart Hbf|Stuttgart-Bad Cannstatt|Stuttgart-Untertürkheim|Esslingen(Neckar)|Oberesslingen|Esslingen-Zell|Altbach|Plochingen|Wernau(Neckar)|Wendlingen(Neckar)|Kirchheim(Teck)-Ötlingen,8003280,Kirchheim (Teck),Baden-Württemberg,Kirchheim unter Teck,73230,9.443872422,48.64415981,4,2508010145,,,,,,,,,,,,,6.0,0.0
2298525024658281877-2508010025-11,7178,2508010106,2508010107,1,,S,1,Stuttgart Hbf|Stuttgart-Bad Cannstatt|Stuttgart-Untertürkheim|Esslingen(Neckar)|Oberesslingen|Esslingen-Zell|Altbach|Plochingen|Wernau(Neckar)|Wendlingen(Neckar),8003282,Kirchheim (Teck)-Ötlingen,Baden-Württemberg,Kirchheim unter Teck,73230,9.416261302,48.65782388,5,2508010128,,2508010129,,,,,,,,,,,22.0,22.0
-3366414490112859120-2508010055-11,7180,2508010136,2508010137,1,,S,1,Stuttgart Hbf|Stuttgart-Bad Cannstatt|Stuttgart-Untertürkheim|Esslingen(Neckar)|Oberesslingen|Esslingen-Zell|Altbach|Plochingen|Wernau(Neckar)|Wendlingen(Neckar),8003282,Kirchheim (Teck)-Ötlingen,Baden-Württemberg,Kirchheim unter Teck,73230,9.416261302,48.65782388,5,2508010142,,2508010143,,,,,,,,,,,6.0,6.0
7310467920449271-2508010047-6,7678,2508010101,2508010101,1,,S,6,Stuttgart Hbf|Stuttgart Nord|Stuttgart-Feuerbach|Stuttgart-Zuffenhausen|Neuwirtshaus(Porscheplatz),8003409,Korntal,Baden-Württemberg,Korntal,70825,9.121099128,48.82640246,4,2508010101,,2508010102,,,,,,,,,,,0.0,1.0
7525780460691541142-2508010107-5,7478,2508010120,2508010120,4,,S,4,Stuttgart Hbf|Stuttgart Nord|Stuttgart-Feuerbach|Stuttgart-Zuffenhausen,8003411,Kornwestheim Pbf,Baden-Württemberg,Kornwestheim,70806,9.179967278,48.86215948,3,2508010149,,2508010150,,,,,,,Stuttgart Hbf|Stuttgart Nord|Stuttgart-Feuerbach|Stuttgart-Zuffenhausen,Ludwigsburg,,,29.0,30.0
-4825921784207905950-2508010057-5,7580,2508010110,2508010110,4,,S,5,Stuttgart Hbf|Stuttgart Nord|Stuttgart-Feuerbach|Stuttgart-Zuffenhausen,8003411,Kornwestheim Pbf,Baden-Württemberg,Kornwestheim,70806,9.179967278,48.86215948,3,2508010114,,2508010115,,,,,,,,,,,4.0,5.0
7310467920449271-2508010047-10,7678,2508010113,2508010113,2,,S,6,Stuttgart Hbf|Stuttgart Nord|Stuttgart-Feuerbach|Stuttgart-Zuffenhausen|Neuwirtshaus(Porscheplatz)|Korntal|Weilimdorf|Ditzingen|Höfingen,8003652,Leonberg,Baden-Württemberg,Leonberg,71229,9.004025993,48.79970547,3,2508010112,,2508010113,,,,,,,,,,,-1.0,0.0
7525780460691541142-2508010107-6,7478,2508010123,,2,,S,,Stuttgart Hbf|Stuttgart Nord|Stuttgart-Feuerbach|Stuttgart-Zuffenhausen|Kornwestheim Pbf,8000235,Ludwigsburg,Baden-Württemberg,Ludwigsburg,71638,9.185229823,48.89208622,3,2508010152,,2508010153,,,,,,,Stuttgart Hbf|Stuttgart Nord|Stuttgart-Feuerbach|Stuttgart-Zuffenhausen|Kornwestheim Pbf,,,,29.0,0.0
-4825921784207905950-2508010057-6,7580,2508010113,2508010114,2,,S,5,Stuttgart Hbf|Stuttgart Nord|Stuttgart-Feuerbach|Stuttgart-Zuffenhausen|Kornwestheim Pbf,8000235,Ludwigsburg,Baden-Württemberg,Ludwigsburg,71638,9.185229823,48.89208622,3,2508010118,,2508010118,,,,,,,,,,,5.0,4.0
7310467920449271-2508010047-13,7678,2508010124,2508010124,1,,S,6,Stuttgart Hbf|Stuttgart Nord|Stuttgart-Feuerbach|Stuttgart-Zuffenhausen|Neuwirtshaus(Porscheplatz)|Korntal|Weilimdorf|Ditzingen|Höfingen|Leonberg|Rutesheim|Renningen,8003831,Malmsheim,Baden-Württemberg,Renningen,71272,8.905105557,48.77183564,5,2508010124,,2508010124,,,,,,,,,,,0.0,0.0
-2066719181509379684-2508010127-7,7380,2508010146,2508010146,2,,S,3,Fellbach|Waiblingen|Neustadt-Hohenacker|Schwaikheim|Winnenden|Nellmersbach,8003913,Maubach,Baden-Württemberg,Backnang,71522,9.419487062,48.92623463,4,2508010146,,2508010147,,,,,,,,,,,0.0,1.0
7376303308582692744-2508010057-7,7378,2508010116,2508010116,2,,S,3,Fellbach|Waiblingen|Neustadt-Hohenacker|Schwaikheim|Winnenden|Nellmersbach,8003913,Maubach,Baden-Württemberg,Backnang,71522,9.419487062,48.92623463,4,2508010115,,2508010116,,,,,,,,,,,-1.0,0.0
-2066719181509379684-2508010127-6,7380,2508010143,2508010143,2,,S,3,Fellbach|Waiblingen|Neustadt-Hohenacker|Schwaikheim|Winnenden,8004233,Nellmersbach,Baden-Württemberg,Leutenbach,71397,9.415421538,48.90336425,5,2508010143,,2508010143,,,,,,,,,,,0.0,0.0
7376303308582692744-2508010057-6,7378,2508010113,2508010113,2,,S,3,Fellbach|Waiblingen|Neustadt-Hohenacker|Schwaikheim|Winnenden,8004233,Nellmersbach,Baden-Württemberg,Leutenbach,71397,9.415421538,48.90336425,5,2508010113,,2508010113,,,,,,,,,,,0.0,0.0
-2066719181509379684-2508010127-3,7380,2508010134,2508010135,1,,S,3,Fellbach|Waiblingen,8004333,Neustadt-Hohenacker,Baden-Württemberg,Waiblingen,71336,9.32455106,48.85921668,5,2508010133,,2508010134,,,,,,,,,,,-1.0,-1.0
7376303308582692744-2508010057-3,7378,2508010104,2508010105,1,,S,3,Fellbach|Waiblingen,8004333,Neustadt-Hohenacker,Baden-Württemberg,Waiblingen,71336,9.32455106,48.85921668,5,2508010104,,2508010105,,,,,,,,,,,0.0,0.0
-4784954416824888572-2508010116-8,7781,2508010140,2508010141,1,,S,1,Stuttgart-Vaihingen|Stuttgart-Rohr|Goldberg(Württ)|Böblingen|Hulb|Ehningen(b Böblingen)|Gärtringen,8004490,Nufringen,Baden-Württemberg,Nufringen,71154,8.889817485,48.62010967,5,2508010142,,2508010142,,,,,,,,,,,2.0,1.0
-3828888404650944113-2508010046-8,7779,2508010110,2508010111,1,,S,1,Stuttgart-Vaihingen|Stuttgart-Rohr|Goldberg(Württ)|Böblingen|Hulb|Ehningen(b Böblingen)|Gärtringen,8004490,Nufringen,Baden-Württemberg,Nufringen,71154,8.889817485,48.62010967,5,2508010112,,2508010112,,,,,,,,,,,2.0,1.0
-3366414490112859120-2508010055-5,7180,2508010114,2508010114,4,,S,1,Stuttgart Hbf|Stuttgart-Bad Cannstatt|Stuttgart-Untertürkheim|Esslingen(Neckar),8004528,Oberesslingen,Baden-Württemberg,Esslingen am Neckar,73730,9.327277435,48.72983585,3,2508010114,,2508010115,,,,,,,,,,,0.0,1.0
-3366414490112859120-2508010055-8,7180,2508010122,2508010125,10,,S,1,Stuttgart Hbf|Stuttgart-Bad Cannstatt|Stuttgart-Untertürkheim|Esslingen(Neckar)|Oberesslingen|Esslingen-Zell|Altbach,8000302,Plochingen,Baden-Württemberg,Plochingen,73207,9.411294578,48.71293906,2,2508010124,7,2508010125,7,,,,,,,,,,2.0,0.0
4298409621250373506-2508010049-4,19343,2508010106,2508010118,7,,MEX,12,Stuttgart Hbf|Stuttgart-Bad Cannstatt|Esslingen(Neckar),8000302,Plochingen,Baden-Württemberg,Plochingen,73207,9.411294578,48.71293906,2,2508010127,4,2508010130,4,,,,,,,,,,21.0,12.0
397053316391935562-2508010042-4,19189,2508010100,2508010100,4,,MEX,16,Stuttgart Hbf|Stuttgart-Bad Cannstatt|Esslingen(Neckar),8000302,Plochingen,Baden-Württemberg,Plochingen,73207,9.411294578,48.71293906,2,2508010103,,2508010104,,h,3,Information,,,,,,,3.0,4.0
7310467920449271-2508010047-12,7678,2508010119,2508010122,3,,S,6,Stuttgart Hbf|Stuttgart Nord|Stuttgart-Feuerbach|Stuttgart-Zuffenhausen|Neuwirtshaus(Porscheplatz)|Korntal|Weilimdorf|Ditzingen|Höfingen|Leonberg|Rutesheim,8000313,Renningen,Baden-Württemberg,Renningen,71272,8.932650148,48.77515509,3,2508010119,,2508010122,,,,,,,,,,,0.0,0.0
7313231446534335906-2508010050-5,7278,2508010107,2508010107,1,,S,2,Stuttgart Hbf|Stuttgart-Bad Cannstatt|Fellbach|Waiblingen,8005157,Rommelshausen,Baden-Württemberg,Kernen,71394,9.319175885,48.81552017,4,2508010118,,2508010119,,,,,,,,,,,11.0,12.0
-1441515051530061043-2508010120-5,7280,2508010137,2508010137,1,,S,2,Stuttgart Hbf|Stuttgart-Bad Cannstatt|Fellbach|Waiblingen,8005157,Rommelshausen,Baden-Württemberg,Kernen,71394,9.319175885,48.81552017,4,2508010148,,2508010148,,,,,,,,,,,11.0,11.0
7310467920449271-2508010047-11,7678,2508010116,2508010116,2,,S,6,Stuttgart Hbf|Stuttgart Nord|Stuttgart-Feuerbach|Stuttgart-Zuffenhausen|Neuwirtshaus(Porscheplatz)|Korntal|Weilimdorf|Ditzingen|Höfingen|Leonberg,8005236,Rutesheim,Baden-Württemberg,Leonberg,71229,8.960325242,48.79031093,5,2508010116,,2508010116,,,,,,,,,,,0.0,0.0
7313231446534335906-2508010050-13,7278,2508010125,,14,,S,,Stuttgart Hbf|Stuttgart-Bad Cannstatt|Fellbach|Waiblingen|Rommelshausen|Stetten-Beinstein|Endersbach|Beutelsbach|Grunbach|Geradstetten|Winterbach(b Schorndorf)|Weiler(Rems),8005424,Schorndorf,Baden-Württemberg,Schorndorf,73614,9.525686251,48.80693898,3,2508010136,1,,,,,,,,,,,,11.0,0.0
-1441515051530061043-2508010120-13,7280,2508010155,,14,,S,,Stuttgart Hbf|Stuttgart-Bad Cannstatt|Fellbach|Waiblingen|Rommelshausen|Stetten-Beinstein|Endersbach|Beutelsbach|Grunbach|Geradstetten|Winterbach(b Schorndorf)|Weiler(Rems),8005424,Schorndorf,Baden-Württemberg,Schorndorf,73614,9.525686251,48.80693898,3,2508010206,1,,,,,,,,,,,,11.0,0.0
-2066719181509379684-2508010127-4,7380,2508010137,2508010137,2,,S,3,Fellbach|Waiblingen|Neustadt-Hohenacker,8005454,Schwaikheim,Baden-Württemberg,Schwaikheim,71409,9.354747358,48.86832665,4,2508010136,,2508010137,,,,,,,,,,,-1.0,0.0
7376303308582692744-2508010057-4,7378,2508010107,2508010107,2,,S,3,Fellbach|Waiblingen|Neustadt-Hohenacker,8005454,Schwaikheim,Baden-Württemberg,Schwaikheim,71409,9.354747358,48.86832665,4,2508010107,,2508010107,,,,,,,,,,,0.0,0.0
7313231446534335906-2508010050-6,7278,2508010109,2508010109,1,,S,2,Stuttgart Hbf|Stuttgart-Bad Cannstatt|Fellbach|Waiblingen|Rommelshausen,8005726,Stetten-Beinstein,Baden-Württemberg,Weinstadt,71384,9.352769725,48.81199601,5,2508010121,,2508010121,,,,,,,,,,,12.0,12.0
-1441515051530061043-2508010120-6,7280,2508010139,2508010139,1,,S,2,Stuttgart Hbf|Stuttgart-Bad Cannstatt|Fellbach|Waiblingen|Rommelshausen,8005726,Stetten-Beinstein,Baden-Württemberg,Weinstadt,71384,9.352769725,48.81199601,5,2508010150,,2508010151,,,,,,,,,,,11.0,12.0
7525780460691541142-2508010107-1,7478,,2508010107,,,S,4,,8000096,Stuttgart Hbf,Baden-Württemberg,Stuttgart,70173,9.183172973,48.78473069,1,,,2508010137,5,,,,,,,Stuttgart Nord|Stuttgart-Feuerbach|Stuttgart-Zuffenhausen|Kornwestheim Pbf|Ludwigsburg,,,0.0,30.0
-1441515051530061043-2508010120-1,7280,,2508010120,,,S,2,,8000096,Stuttgart Hbf,Baden-Württemberg,Stuttgart,70173,9.183172973,48.78473069,1,,,2508010127,,,,,,,,,,,0.0,7.0
-8775031481172421761-2508010020-15,7181,2508010102,,4,,S,,Kirchheim(Teck)|Kirchheim(Teck)-Ötlingen|Wendlingen(Neckar)|Wernau(Neckar)|Plochingen|Altbach|Esslingen-Zell|Oberesslingen|Esslingen(Neckar)|Esslingen-Mettingen|Stuttgart-Obertürkheim|Stuttgart-Untertürkheim|Stuttgart Neckarpark|Stuttgart-Bad Cannstatt,8000096,Stuttgart Hbf,Baden-Württemberg,Stuttgart,70173,9.183172973,48.78473069,1,2508010110,,,,,,,,,,,,,8.0,0.0
-7696913984968518161-2508010022-12,19446,2508010126,,13,,MEX,,Aalen Hbf|Mögglingen(Gmünd)|Böbingen(Rems)|Schwäbisch Gmünd|Lorch(Württ)|Waldhausen(b Schorndorf)|Plüderhausen|Urbach(b Schorndorf)|Schorndorf|Waiblingen|Stuttgart-Bad Cannstatt,8000096,Stuttgart Hbf,Baden-Württemberg,Stuttgart,70173,9.183172973,48.78473069,1,2508010125,,,,,,,,,,,,,-1.0,0.0
-8097229136581884814-2508010033-13,7281,2508010110,,3,,S,,Schorndorf|Weiler(Rems)|Winterbach(b Schorndorf)|Geradstetten|Grunbach|Beutelsbach|Endersbach|Stetten-Beinstein|Rommelshausen|Waiblingen|Fellbach|Stuttgart-Bad Cannstatt,8000096,Stuttgart Hbf,Baden-Württemberg,Stuttgart,70173,9.183172973,48.78473069,1,2508010116,,,,,,,,,,,,,6.0,0.0
-1262072456597967463-2507312238-20,88652,2508010109,,11,,RE,,Nürnberg Hbf|Roßtal|Heilsbronn|Wicklesgreuth|Ansbach|Leutershausen-Wiedersbach|Dombühl|Schnelldorf|Crailsheim|Eckartshausen-Ilshofen|Schwäbisch Hall-Hessental|Gaildorf West|Murrhardt|Sulzbach(Murr)|Oppenweiler(Württ)|Backnang|Winnenden|Waiblingen|Stuttgart-Bad Cannstatt,8000096,Stuttgart Hbf,Baden-Württemberg,Stuttgart,70173,9.183172973,48.78473069,1,2508010114,,,,h,3,Information,,,,,,,5.0,0.0
-4896468785972896802-2507312346-22,19188,2508010116,,12,,MEX,,Ulm Hbf|Beimerstetten|Westerstetten|Lonsee|Urspring|Amstetten(Württ)|Geislingen(Steige)|Geislingen(Steige)West|Kuchen|Gingen(Fils)|Süßen|Salach|Eislingen(Fils)|Göppingen|Faurndau|Uhingen|Ebersbach(Fils)|Reichenbach(Fils)|Plochingen|Esslingen(Neckar)|Stuttgart-Bad Cannstatt,8000096,Stuttgart Hbf,Baden-Württemberg,Stuttgart,70173,9.183172973,48.78473069,1,2508010121,,,,h,3,Information,,,,,,,5.0,0.0
7525780460691541142-2508010107-2,7478,2508010110,2508010112,3,,S,4,Stuttgart Hbf,8005767,Stuttgart Nord,Baden-Württemberg,Stuttgard-Nord,70174,9.188061449,48.80374161,5,2508010140,,2508010140,,,,,,,,,,,30.0,28.0
-4825921784207905950-2508010057-2,7580,2508010100,2508010102,3,,S,5,Stuttgart Hbf,8005767,Stuttgart Nord,Baden-Württemberg,Stuttgard-Nord,70174,9.188061449,48.80374161,5,2508010107,,2508010107,,,,,,,,,,,7.0,5.0
-3366414490112859120-2508010055-2,7180,2508010059,2508010100,8,,S,1,Stuttgart Hbf,8005769,Stuttgart-Bad Cannstatt,Baden-Württemberg,Stuttgart,70372,9.217468636,48.80127978,3,2508010059,,2508010100,,,,,,,,,,,0.0,0.0
-1441515051530061043-2508010120-2,7280,2508010124,2508010124,7,,S,2,Stuttgart Hbf,8005769,Stuttgart-Bad Cannstatt,Baden-Württemberg,Stuttgart,70372,9.217468636,48.80127978,3,2508010136,,2508010137,,,,,,,,,,,12.0,13.0
-7696913984968518161-2508010022-11,19446,2508010120,2508010122,6,,MEX,13,Aalen Hbf|Mögglingen(Gmünd)|Böbingen(Rems)|Schwäbisch Gmünd|Lorch(Württ)|Waldhausen(b Schorndorf)|Plüderhausen|Urbach(b Schorndorf)|Schorndorf|Waiblingen,8005769,Stuttgart-Bad Cannstatt,Baden-Württemberg,Stuttgart,70372,9.217468636,48.80127978,3,2508010120,,2508010121,,,,,,,,,,,0.0,-1.0
-8097229136581884814-2508010033-12,7281,2508010105,2508010106,6,,S,2,Schorndorf|Weiler(Rems)|Winterbach(b Schorndorf)|Geradstetten|Grunbach|Beutelsbach|Endersbach|Stetten-Beinstein|Rommelshausen|Waiblingen|Fellbach,8005769,Stuttgart-Bad Cannstatt,Baden-Württemberg,Stuttgart,70372,9.217468636,48.80127978,3,2508010113,,2508010113,,,,,,,,,,,8.0,7.0
-1262072456597967463-2507312238-19,88652,2508010102,2508010106,6,,RE,90,Nürnberg Hbf|Roßtal|Heilsbronn|Wicklesgreuth|Ansbach|Leutershausen-Wiedersbach|Dombühl|Schnelldorf|Crailsheim|Eckartshausen-Ilshofen|Schwäbisch Hall-Hessental|Gaildorf West|Murrhardt|Sulzbach(Murr)|Oppenweiler(Württ)|Backnang|Winnenden|Waiblingen,8005769,Stuttgart-Bad Cannstatt,Baden-Württemberg,Stuttgart,70372,9.217468636,48.80127978,3,2508010102,,2508010110,,h,3,Information,,,,,,,0.0,4.0
-4896468785972896802-2507312346-21,19188,2508010112,2508010112,5,,MEX,16,Ulm Hbf|Beimerstetten|Westerstetten|Lonsee|Urspring|Amstetten(Württ)|Geislingen(Steige)|Geislingen(Steige)West|Kuchen|Gingen(Fils)|Süßen|Salach|Eislingen(Fils)|Göppingen|Faurndau|Uhingen|Ebersbach(Fils)|Reichenbach(Fils)|Plochingen|Esslingen(Neckar),8005769,Stuttgart-Bad Cannstatt,Baden-Württemberg,Stuttgart,70372,9.217468636,48.80127978,3,2508010113,,2508010116,,h,3,Information,,,,,,,1.0,4.0
7525780460691541142-2508010107-3,7478,2508010114,2508010114,2,,S,4,Stuttgart Hbf|Stuttgart Nord,8005770,Stuttgart-Feuerbach,Baden-Württemberg,Feuerbach,70469,9.169186287,48.81363554,3,2508010142,,2508010142,,,,,,,,,,,28.0,28.0
-4825921784207905950-2508010057-3,7580,2508010104,2508010104,2,,S,5,Stuttgart Hbf|Stuttgart Nord,8005770,Stuttgart-Feuerbach,Baden-Württemberg,Feuerbach,70469,9.169186287,48.81363554,3,2508010109,,2508010109,,,,,,,,,,,5.0,5.0
-4784954416824888572-2508010116-2,7781,2508010117,2508010123,2,,S,1,Stuttgart-Vaihingen,8005773,Stuttgart-Rohr,Baden-Württemberg,Stuttgart,70565,9.108158025,48.71799427,4,2508010118,,2508010123,,,,,,,,,,,1.0,0.0
-3366414490112859120-2508010055-3,7180,2508010102,2508010103,4,,S,1,Stuttgart Hbf|Stuttgart-Bad Cannstatt,8005775,Stuttgart-Untertürkheim Pbf,Baden-Württemberg,Stuttgart,70327,9.250467074,48.77984679,3,2508010103,,2508010104,,,,,,,,,,,1.0,1.0
-4784954416824888572-2508010116-1,7781,,2508010116,,,S,1,,8005776,Stuttgart-Vaihingen,Baden-Württemberg,Stuttgart,70563,9.113913368,48.72698116,3,,,2508010116,,,,,,,,,,,0.0,0.0
7310467920449271-2508010047-7,7678,2508010103,2508010103,1,,S,6,Stuttgart Hbf|Stuttgart Nord|Stuttgart-Feuerbach|Stuttgart-Zuffenhausen|Neuwirtshaus(Porscheplatz)|Korntal,8006268,Stuttgart-Weilimdorf,Baden-Württemberg,Stuttgart,70499,9.094370086,48.82208429,5,2508010103,,2508010104,,,,,,,,,,,0.0,1.0
7525780460691541142-2508010107-4,7478,2508010116,2508010117,4,,S,4,Stuttgart Hbf|Stuttgart Nord|Stuttgart-Feuerbach,8005778,Stuttgart-Zuffenhausen,Baden-Württemberg,Stuttgart,70435,9.167156375,48.82960884,3,2508010144,,2508010145,,,,,,,,,,,28.0,28.0
-4825921784207905950-2508010057-4,7580,2508010106,2508010107,4,,S,5,Stuttgart Hbf|Stuttgart Nord|Stuttgart-Feuerbach,8005778,Stuttgart-Zuffenhausen,Baden-Württemberg,Stuttgart,70435,9.167156375,48.82960884,3,2508010111,,2508010112,,,,,,,,,,,5.0,5.0
-4825921784207905950-2508010057-8,7580,2508010119,2508010120,3,,S,5,Stuttgart Hbf|Stuttgart Nord|Stuttgart-Feuerbach|Stuttgart-Zuffenhausen|Kornwestheim Pbf|Ludwigsburg|Asperg,8005820,Tamm (Württ),Baden-Württemberg,Tamm,71732,9.125288012,48.92187736,4,2508010124,,2508010124,,,,,,,,,,,5.0,4.0
7313231446534335906-2508010050-4,7278,2508010104,2508010105,7,,S,2,Stuttgart Hbf|Stuttgart-Bad Cannstatt|Fellbach,8000180,Waiblingen,Baden-Württemberg,Waiblingen,71332,9.300476874,48.8262444,3,2508010117,,2508010117,,,,,,,,,,,13.0,12.0
-1441515051530061043-2508010120-4,7280,2508010134,2508010135,7,,S,2,Stuttgart Hbf|Stuttgart-Bad Cannstatt|Fellbach,8000180,Waiblingen,Baden-Württemberg,Waiblingen,71332,9.300476874,48.8262444,3,2508010146,,2508010146,,,,,,,,,,,12.0,11.0
-7696913984968518161-2508010022-10,19446,2508010113,2508010113,6,,MEX,13,Aalen Hbf|Mögglingen(Gmünd)|Böbingen(Rems)|Schwäbisch Gmünd|Lorch(Württ)|Waldhausen(b Schorndorf)|Plüderhausen|Urbach(b Schorndorf)|Schorndorf,8000180,Waiblingen,Baden-Württemberg,Waiblingen,71332,9.300476874,48.8262444,3,2508010114,,2508010114,,,,,,,,,,,1.0,1.0
-2066719181509379684-2508010127-2,7380,2508010129,2508010131,3,,S,3,Fellbach,8000180,Waiblingen,Baden-Württemberg,Waiblingen,71332,9.300476874,48.8262444,3,2508010128,,2508010130,,,,,,,,,,,-1.0,-1.0
7376303308582692744-2508010057-2,7378,2508010059,2508010101,3,,S,3,Fellbach,8000180,Waiblingen,Baden-Württemberg,Waiblingen,71332,9.300476874,48.8262444,3,2508010059,,2508010101,,,,,,,,,,,0.0,0.0
7310467920449271-2508010047-14,7678,2508010127,,1,,S,,Stuttgart Hbf|Stuttgart Nord|Stuttgart-Feuerbach|Stuttgart-Zuffenhausen|Neuwirtshaus(Porscheplatz)|Korntal|Weilimdorf|Ditzingen|Höfingen|Leonberg|Rutesheim|Renningen|Malmsheim,8006271,Weil der Stadt,Baden-Württemberg,Weil der Stadt,71263,8.873189074,48.7557357,4,2508010127,2,,,,,,,,,,,,0.0,0.0
7313231446534335906-2508010050-12,7278,2508010122,2508010122,1,,S,2,Stuttgart Hbf|Stuttgart-Bad Cannstatt|Fellbach|Waiblingen|Rommelshausen|Stetten-Beinstein|Endersbach|Beutelsbach|Grunbach|Geradstetten|Winterbach(b Schorndorf),8006277,Weiler (Rems),Baden-Württemberg,Schorndorf,76314,9.501891172,48.80034585,5,2508010133,,2508010133,,,,,,,,,,,11.0,11.0
-1441515051530061043-2508010120-12,7280,2508010152,2508010152,1,,S,2,Stuttgart Hbf|Stuttgart-Bad Cannstatt|Fellbach|Waiblingen|Rommelshausen|Stetten-Beinstein|Endersbach|Beutelsbach|Grunbach|Geradstetten|Winterbach(b Schorndorf),8006277,Weiler (Rems),Baden-Württemberg,Schorndorf,76314,9.501891172,48.80034585,5,2508010203,,2508010203,,,,,,,,,,,11.0,11.0
2298525024658281877-2508010025-10,7178,2508010102,2508010103,11,,S,1,Stuttgart Hbf|Stuttgart-Bad Cannstatt|Stuttgart-Untertürkheim|Esslingen(Neckar)|Oberesslingen|Esslingen-Zell|Altbach|Plochingen|Wernau(Neckar),8006331,Wendlingen (Neckar),Baden-Württemberg,Wendlingen am Neckar,73240,9.373662098,48.67368917,3,2508010124,,2508010125,,,,,,,,,,,22.0,22.0
-3366414490112859120-2508010055-10,7180,2508010132,2508010133,11,,S,1,Stuttgart Hbf|Stuttgart-Bad Cannstatt|Stuttgart-Untertürkheim|Esslingen(Neckar)|Oberesslingen|Esslingen-Zell|Altbach|Plochingen|Wernau(Neckar),8006331,Wendlingen (Neckar),Baden-Württemberg,Wendlingen am Neckar,73240,9.373662098,48.67368917,3,2508010133,12,2508010134,12,,,,,,,,,,1.0,1.0
4298409621250373506-2508010049-6,19343,2508010126,2508010126,2,,MEX,12,Stuttgart Hbf|Stuttgart-Bad Cannstatt|Esslingen(Neckar)|Plochingen|Wernau(Neckar),8006331,Wendlingen (Neckar),Baden-Württemberg,Wendlingen am Neckar,73240,9.373662098,48.67368917,3,2508010137,,2508010137,,,,,,,,,,,11.0,11.0
-3366414490112859120-2508010055-9,7180,2508010128,2508010129,2,,S,1,Stuttgart Hbf|Stuttgart-Bad Cannstatt|Stuttgart-Untertürkheim|Esslingen(Neckar)|Oberesslingen|Esslingen-Zell|Altbach|Plochingen,8006346,Wernau (Neckar),Baden-Württemberg,Wernau (Neckar),73249,9.413654423,48.69417221,4,2508010128,,2508010129,,,,,,,,,,,0.0,0.0
4298409621250373506-2508010049-5,19343,2508010121,2508010122,2,,MEX,12,Stuttgart Hbf|Stuttgart-Bad Cannstatt|Esslingen(Neckar)|Plochingen,8006346,Wernau (Neckar),Baden-Württemberg,Wernau (Neckar),73249,9.413654423,48.69417221,4,2508010133,,2508010133,,,,,,,,,,,12.0,11.0
-2066719181509379684-2508010127-5,7380,2508010140,2508010140,2,,S,3,Fellbach|Waiblingen|Neustadt-Hohenacker|Schwaikheim,8006479,Winnenden,Baden-Württemberg,Winnenden,71364,9.392155928,48.8795625,3,2508010139,,2508010140,,,,,,,,,,,-1.0,0.0
7376303308582692744-2508010057-5,7378,2508010110,2508010110,2,,S,3,Fellbach|Waiblingen|Neustadt-Hohenacker|Schwaikheim,8006479,Winnenden,Baden-Württemberg,Winnenden,71364,9.392155928,48.8795625,3,2508010110,,2508010110,,,,,,,,,,,0.0,0.0
7313231446534335906-2508010050-11,7278,2508010120,2508010120,2,,S,2,Stuttgart Hbf|Stuttgart-Bad Cannstatt|Fellbach|Waiblingen|Rommelshausen|Stetten-Beinstein|Endersbach|Beutelsbach|Grunbach|Geradstetten,8006485,Winterbach (b Schorndorf),Baden-Württemberg,Winterbach,73650,9.481549751,48.79842743,4,2508010131,,2508010132,,,,,,,,,,,11.0,12.0
-1441515051530061043-2508010120-11,7280,2508010150,2508010150,2,,S,2,Stuttgart Hbf|Stuttgart-Bad Cannstatt|Fellbach|Waiblingen|Rommelshausen|Stetten-Beinstein|Endersbach|Beutelsbach|Grunbach|Geradstetten,8006485,Winterbach (b Schorndorf),Baden-Württemberg,Winterbach,73650,9.481549751,48.79842743,4,2508010201,,2508010201,,,,,,,,,,,11.0,11.0
