ID,train_number,planned_arrival,planned_departure,planned_platform,planned_status,category_train,train,path,eva_nr,station_name,station_state,station_city,station_zipcode,station_long,station_lat,station_category,changed_arrival,changed_platform_arrival,changed_departure,changed_platform_departure,message_status,priority,info,arrival_hidden,departure_hidden,arrival_path,departure_path,arrival_status,departure_status,arrival_delay_m,departure_delay_m
-3366414490112859120-2508110055-8,7180,2508110119,2508110119,4,,S,1,Stuttgart Hbf|Stuttgart-Bad Cannstatt|Stuttgart-Untertürkheim|Esslingen-Mettingen|Esslingen(Neckar)|Oberesslingen|Esslingen-Zell,8000508,Altbach,Baden-Württemberg,Altbach,73776,9.382434033,48.72031354,3,2508110121,,2508110121,,,,,,,,,,,2.0,2.0
-4825921784207905950-2508110057-7,7580,2508110117,2508110117,4,,S,5,Stuttgart Hbf|Stuttgart Nord|Stuttgart-Feuerbach|Stuttgart-Zuffenhausen|Kornwestheim Pbf|Ludwigsburg,8000630,Asperg,Baden-Württemberg,Asperg,71679,9.147977466,48.90725609,4,2508110121,,2508110121,,,,,,,,,,,4.0,4.0
7376303308582692744-2508110057-8,7378,2508110119,,4,,S,,Fellbach|Waiblingen|Neustadt-Hohenacker|Schwaikheim|Winnenden|Nellmersbach|Maubach,8000016,Backnang,Baden-Württemberg,Backnang,71522,9.425986107,48.94264844,3,2508110119,5,,,,,,,,,,,,0.0,0.0
-2066719181509379684-2508110127-8,7380,2508110149,,4,,S,,Fellbach|Waiblingen|Neustadt-Hohenacker|Schwaikheim|Winnenden|Nellmersbach|Maubach,8000016,Backnang,Baden-Württemberg,Backnang,71522,9.425986107,48.94264844,3,2508110148,,,,,,,,,,,,,-1.0,0.0
-1441515051530061043-2508110120-8,7280,2508110143,2508110143,1,,S,2,Stuttgart Hbf|Stuttgart-Bad Cannstatt|Fellbach|Waiblingen|Rommelshausen|Stetten-Beinstein|Endersbach,8000934,Beutelsbach,Baden-Württemberg,Weinstadt,71384,9.38551589,48.81038925,5,2508110144,,2508110145,,,,,,,,,,,1.0,2.0
7313231446534335906-2508110050-8,7278,2508110113,2508110113,1,,S,2,Stuttgart Hbf|Stuttgart-Bad Cannstatt|Fellbach|Waiblingen|Rommelshausen|Stetten-Beinstein|Endersbach,8000934,Beutelsbach,Baden-Württemberg,Weinstadt,71384,9.38551589,48.81038925,5,2508110113,,2508110114,,,,,,,,,,,0.0,1.0
-4825921784207905950-2508110057-9,7580,2508110124,,5,,S,,Stuttgart Hbf|Stuttgart Nord|Stuttgart-Feuerbach|Stuttgart-Zuffenhausen|Kornwestheim Pbf|Ludwigsburg|Asperg|Tamm(Württ),8000038,Bietigheim-Bissingen,Baden-Württemberg,Bietigheim-Bissingen,74321,9.137217396,48.94794988,2,2508110127,,,,,,,,,,,,,3.0,0.0
-3828888404650944113-2508110046-4,7779,2508110059,2508110100,4,,S,1,Stuttgart-Vaihingen|Stuttgart-Rohr|Goldberg(Württ),8001055,Böblingen,Baden-Württemberg,Böblingen,71034,9.004531864,48.68784871,3,2508110100,,2508110101,,,,,,,,,,,1.0,1.0
-4784954416824888572-2508110116-4,7781,2508110129,2508110130,4,,S,1,Stuttgart-Vaihingen|Stuttgart-Rohr|Goldberg(Württ),8001055,Böblingen,Baden-Württemberg,Böblingen,71034,9.004531864,48.68784871,3,2508110130,,2508110131,,,,,,,,,,,1.0,1.0
-5928528055954623583-2508110112-7,8009,2508110125,,1,,WEG,,Holzgerlingen Bf|Holzgerlingen Hülben|Böblingen Zimmerschlag|Böblingen Heusteigstr|Böblingen Südbf|Böblingen Danziger Str,8001055,Böblingen,Baden-Württemberg,Böblingen,71034,9.004531864,48.68784871,3,2508110125,,,,,,,,,,,,,0.0,0.0
7310467920449271-2508110047-8,7678,2508110106,2508110106,2,,S,6,Stuttgart Hbf|Stuttgart Nord|Stuttgart-Feuerbach|Stuttgart-Zuffenhausen|Neuwirtshaus(Porscheplatz)|Korntal|Weilimdorf,8001476,Ditzingen,Baden-Württemberg,Ditzingen,71254,9.067095186,48.82358726,4,2508110109,,2508110110,,,,,,,,,,,3.0,4.0
-446483415299011653-2508110105-5,7981,2508110119,2508110120,1,,S,2,Stuttgart-Vaihingen|Stuttgart-Rohr|Oberaichen|Leinfelden,8001650,Echterdingen,Baden-Württemberg,Echterdingen,70771,9.169307175,48.69214787,4,2508110119,,2508110120,,,,,,,,,,,0.0,0.0
-3828888404650944113-2508110046-6,7779,2508110105,2508110105,2,,S,1,Stuttgart-Vaihingen|Stuttgart-Rohr|Goldberg(Württ)|Böblingen|Hulb,8001689,Ehningen (b Böblingen),Baden-Württemberg,Ehningen,71139,8.944310368,48.66275549,4,2508110105,,2508110106,,,,,,,,,,,0.0,1.0
-4784954416824888572-2508110116-6,7781,2508110135,2508110135,2,,S,1,Stuttgart-Vaihingen|Stuttgart-Rohr|Goldberg(Württ)|Böblingen|Hulb,8001689,Ehningen (b Böblingen),Baden-Württemberg,Ehningen,71139,8.944310368,48.66275549,4,2508110136,,2508110136,,,,,,,,,,,1.0,1.0
-1441515051530061043-2508110120-7,7280,2508110141,2508110141,2,,S,2,Stuttgart Hbf|Stuttgart-Bad Cannstatt|Fellbach|Waiblingen|Rommelshausen|Stetten-Beinstein,8001785,Endersbach,Baden-Württemberg,Weinstadt,71384,9.370192421,48.81317323,4,2508110142,,2508110143,,,,,,,,,,,1.0,2.0
7313231446534335906-2508110050-7,7278,2508110111,2508110111,2,,S,2,Stuttgart Hbf|Stuttgart-Bad Cannstatt|Fellbach|Waiblingen|Rommelshausen|Stetten-Beinstein,8001785,Endersbach,Baden-Württemberg,Weinstadt,71384,9.370192421,48.81317323,4,2508110111,,2508110112,,,,,,,,,,,0.0,1.0
-3366414490112859120-2508110055-5,7180,2508110112,2508110112,8,,S,1,Stuttgart Hbf|Stuttgart-Bad Cannstatt|Stuttgart-Untertürkheim|Esslingen-Mettingen,8001920,Esslingen (Neckar),Baden-Württemberg,Esslingen am Neckar,73728,9.300578149,48.73854148,3,2508110113,,2508110114,,,,,,,,,,,1.0,2.0
-4896468785972896802-2508102346-20,19188,2508110104,2508110105,3,,MEX,16,Ulm Hbf|Beimerstetten|Westerstetten|Lonsee|Urspring|Amstetten(Württ)|Geislingen(Steige)|Geislingen(Steige)West|Kuchen|Gingen(Fils)|Süßen|Salach|Eislingen(Fils)|Göppingen|Faurndau|Uhingen|Ebersbach(Fils)|Reichenbach(Fils)|Plochingen,8001920,Esslingen (Neckar),Baden-Württemberg,Esslingen am Neckar,73728,9.300578149,48.73854148,3,2508110104,,2508110105,,,,,,,,,,,0.0,0.0
4298409621250373506-2508110100-3,19343,2508110110,2508110111,5,,MEX,12,Stuttgart Hbf|Stuttgart-Bad Cannstatt,8001920,Esslingen (Neckar),Baden-Württemberg,Esslingen am Neckar,73728,9.300578149,48.73854148,3,2508110115,7,2508110116,7,h,2,Störung,,,,,,,5.0,5.0
-3366414490112859120-2508110055-4,7180,2508110108,2508110109,4,,S,1,Stuttgart Hbf|Stuttgart-Bad Cannstatt|Stuttgart-Untertürkheim,8001921,Esslingen-Mettingen,Baden-Württemberg,Esslingen am Neckar,73733,9.275799007,48.74696655,3,2508110111,,2508110111,,,,,,,,,,,3.0,2.0
-3366414490112859120-2508110055-7,7180,2508110117,2508110117,4,,S,1,Stuttgart Hbf|Stuttgart-Bad Cannstatt|Stuttgart-Untertürkheim|Esslingen-Mettingen|Esslingen(Neckar)|Oberesslingen,8006642,Esslingen-Zell,Baden-Württemberg,Esslingen am Neckar,73730,9.359739507,48.72436142,3,2508110119,,2508110119,,,,,,,,,,,2.0,2.0
-1441515051530061043-2508110120-3,7280,2508110131,2508110132,1,,S,2,Stuttgart Hbf|Stuttgart-Bad Cannstatt,8001974,Fellbach,Baden-Württemberg,Fellbach,70736,9.270645988,48.8202936,3,2508110132,,2508110132,,,,,,,,,,,1.0,0.0
7313231446534335906-2508110050-3,7278,2508110101,2508110102,1,,S,2,Stuttgart Hbf|Stuttgart-Bad Cannstatt,8001974,Fellbach,Baden-Württemberg,Fellbach,70736,9.270645988,48.8202936,3,2508110102,,2508110102,,,,,,,,,,,1.0,0.0
-2066719181509379684-2508110127-1,7380,,2508110127,,,S,3,,8001974,Fellbach,Baden-Württemberg,Fellbach,70736,9.270645988,48.8202936,3,,,2508110125,,,,,,,,,,,0.0,-2.0
-446483415299011653-2508110105-6,7981,2508110122,2508110123,1,,S,2,Stuttgart-Vaihingen|Stuttgart-Rohr|Oberaichen|Leinfelden|Echterdingen,8005768,Stuttgart Flughafen/Messe,Baden-Württemberg,Leinfelden-Echterdingen,70629,9.193411574,48.69075193,4,2508110122,,2508110123,,,,,,,,,,,0.0,0.0
-3828888404650944113-2508110046-7,7779,2508110108,2508110108,1,,S,1,Stuttgart-Vaihingen|Stuttgart-Rohr|Goldberg(Württ)|Böblingen|Hulb|Ehningen(b Böblingen),8002165,Gärtringen,Baden-Württemberg,Gärtringen,71116,8.908864487,48.64080021,5,2508110109,,2508110110,,,,,,,,,,,1.0,2.0
-4784954416824888572-2508110116-7,7781,2508110138,2508110138,1,,S,1,Stuttgart-Vaihingen|Stuttgart-Rohr|Goldberg(Württ)|Böblingen|Hulb|Ehningen(b Böblingen),8002165,Gärtringen,Baden-Württemberg,Gärtringen,71116,8.908864487,48.64080021,5,2508110139,,2508110139,,,,,,,,,,,1.0,1.0
-1441515051530061043-2508110120-10,7280,2508110147,2508110147,2,,S,2,Stuttgart Hbf|Stuttgart-Bad Cannstatt|Fellbach|Waiblingen|Rommelshausen|Stetten-Beinstein|Endersbach|Beutelsbach|Grunbach,8002240,Geradstetten,Baden-Württemberg,Remshalden,73630,9.439522346,48.80527689,5,2508110149,,2508110150,,,,,,,,,,,2.0,3.0
7313231446534335906-2508110050-10,7278,2508110117,2508110117,2,,S,2,Stuttgart Hbf|Stuttgart-Bad Cannstatt|Fellbach|Waiblingen|Rommelshausen|Stetten-Beinstein|Endersbach|Beutelsbach|Grunbach,8002240,Geradstetten,Baden-Württemberg,Remshalden,73630,9.439522346,48.80527689,5,2508110118,,2508110118,,,,,,,,,,,1.0,1.0
-4784954416824888572-2508110116-3,7781,2508110127,2508110128,1,,S,1,Stuttgart-Vaihingen|Stuttgart-Rohr,8005201,Goldberg,Baden-Württemberg,Böblingen,71032,9.019733387,48.69651581,5,2508110128,,2508110129,,,,,,,,,,,1.0,1.0
-1441515051530061043-2508110120-9,7280,2508110145,2508110145,3,,S,2,Stuttgart Hbf|Stuttgart-Bad Cannstatt|Fellbach|Waiblingen|Rommelshausen|Stetten-Beinstein|Endersbach|Beutelsbach,8002448,Grunbach,Baden-Württemberg,Remshalden,73630,9.419580601,48.810414,4,2508110147,,2508110147,,,,,,,,,,,2.0,2.0
7313231446534335906-2508110050-9,7278,2508110115,2508110115,3,,S,2,Stuttgart Hbf|Stuttgart-Bad Cannstatt|Fellbach|Waiblingen|Rommelshausen|Stetten-Beinstein|Endersbach|Beutelsbach,8002448,Grunbach,Baden-Württemberg,Remshalden,73630,9.419580601,48.810414,4,2508110116,,2508110116,,,,,,,,,,,1.0,1.0
-3828888404650944113-2508110046-9,7779,2508110114,,3,,S,,Stuttgart-Vaihingen|Stuttgart-Rohr|Goldberg(Württ)|Böblingen|Hulb|Ehningen(b Böblingen)|Gärtringen|Nufringen,8002785,Herrenberg,Baden-Württemberg,Herrenberg,71083,8.862625253,48.59395697,3,2508110116,2,,,,,,,,,,,,2.0,0.0
-4784954416824888572-2508110116-9,7781,2508110144,,3,,S,,Stuttgart-Vaihingen|Stuttgart-Rohr|Goldberg(Württ)|Böblingen|Hulb|Ehningen(b Böblingen)|Gärtringen|Nufringen,8002785,Herrenberg,Baden-Württemberg,Herrenberg,71083,8.862625253,48.59395697,3,2508110146,1,,,,,,,,,,,,2.0,0.0
7310467920449271-2508110047-9,7678,2508110109,2508110109,2,,S,6,Stuttgart Hbf|Stuttgart Nord|Stuttgart-Feuerbach|Stuttgart-Zuffenhausen|Neuwirtshaus(Porscheplatz)|Korntal|Weilimdorf|Ditzingen,8002892,Höfingen,Baden-Württemberg,Leonberg,71229,9.026180834,48.81503436,5,2508110112,,2508110113,,,,,,,,,,,3.0,4.0
-3828888404650944113-2508110046-5,7779,2508110102,2508110102,1,,S,1,Stuttgart-Vaihingen|Stuttgart-Rohr|Goldberg(Württ)|Böblingen,8003022,Hulb,Baden-Württemberg,Böblingen-Hulb,71032,8.982396429,48.67924173,5,2508110105,,2508110103,,,,,,,,,,,3.0,1.0
-4784954416824888572-2508110116-5,7781,2508110132,2508110132,1,,S,1,Stuttgart-Vaihingen|Stuttgart-Rohr|Goldberg(Württ)|Böblingen,8003022,Hulb,Baden-Württemberg,Böblingen-Hulb,71032,8.982396429,48.67924173,5,2508110133,,2508110133,,,,,,,,,,,1.0,1.0
-446483415299011653-2508110105-7,7981,2508110127,,1,,S,,Stuttgart-Vaihingen|Stuttgart-Rohr|Oberaichen|Leinfelden|Echterdingen|Stuttgart Flughafen/Messe,8001984,Filderstadt,Baden-Württemberg,Filderstadt,70794,9.217581315,48.67649151,5,2508110126,2,,,,,,,,,,,,-1.0,0.0
-3366414490112859120-2508110055-13,7180,2508110139,,2,,S,,Stuttgart Hbf|Stuttgart-Bad Cannstatt|Stuttgart-Untertürkheim|Esslingen-Mettingen|Esslingen(Neckar)|Oberesslingen|Esslingen-Zell|Altbach|Plochingen|Wernau(Neckar)|Wendlingen(Neckar)|Kirchheim(Teck)-Ötlingen,8003280,Kirchheim (Teck),Baden-Württemberg,Kirchheim unter Teck,73230,9.443872422,48.64415981,4,2508110140,,,,,,,,,,,,,1.0,0.0
2298525024658281877-2508110025-13,7178,2508110109,,2,,S,,Stuttgart Hbf|Stuttgart-Bad Cannstatt|Stuttgart-Untertürkheim|Esslingen-Mettingen|Esslingen(Neckar)|Oberesslingen|Esslingen-Zell|Altbach|Plochingen|Wernau(Neckar)|Wendlingen(Neckar)|Kirchheim(Teck)-Ötlingen,8003280,Kirchheim (Teck),Baden-Württemberg,Kirchheim unter Teck,73230,9.443872422,48.64415981,4,2508110109,,,,,,,,,,,,,0.0,0.0
-3366414490112859120-2508110055-12,7180,2508110136,2508110137,1,,S,1,Stuttgart Hbf|Stuttgart-Bad Cannstatt|Stuttgart-Untertürkheim|Esslingen-Mettingen|Esslingen(Neckar)|Oberesslingen|Esslingen-Zell|Altbach|Plochingen|Wernau(Neckar)|Wendlingen(Neckar),8003282,Kirchheim (Teck)-Ötlingen,Baden-Württemberg,Kirchheim unter Teck,73230,9.416261302,48.65782388,5,2508110138,,2508110138,,,,,,,,,,,2.0,1.0
2298525024658281877-2508110025-12,7178,2508110106,2508110107,1,,S,1,Stuttgart Hbf|Stuttgart-Bad Cannstatt|Stuttgart-Untertürkheim|Esslingen-Mettingen|Esslingen(Neckar)|Oberesslingen|Esslingen-Zell|Altbach|Plochingen|Wernau(Neckar)|Wendlingen(Neckar),8003282,Kirchheim (Teck)-Ötlingen,Baden-Württemberg,Kirchheim unter Teck,73230,9.416261302,48.65782388,5,2508110107,,2508110107,,,,,,,,,,,1.0,0.0
7310467920449271-2508110047-6,7678,2508110101,2508110101,1,,S,6,Stuttgart Hbf|Stuttgart Nord|Stuttgart-Feuerbach|Stuttgart-Zuffenhausen|Neuwirtshaus(Porscheplatz),8003409,Korntal,Baden-Württemberg,Korntal,70825,9.121099128,48.82640246,4,2508110105,,2508110105,,,,,,,,,,,4.0,4.0
-4825921784207905950-2508110057-5,7580,2508110110,2508110110,4,,S,5,Stuttgart Hbf|Stuttgart Nord|Stuttgart-Feuerbach|Stuttgart-Zuffenhausen,8003411,Kornwestheim Pbf,Baden-Württemberg,Kornwestheim,70806,9.179967278,48.86215948,3,2508110114,,2508110115,,,,,,,,,,,4.0,5.0
7525780460691541142-2508110107-5,7478,2508110120,2508110120,4,,S,4,Stuttgart Hbf|Stuttgart Nord|Stuttgart-Feuerbach|Stuttgart-Zuffenhausen,8003411,Kornwestheim Pbf,Baden-Württemberg,Kornwestheim,70806,9.179967278,48.86215948,3,2508110120,,2508110120,,,,,,,,,,,0.0,0.0
-446483415299011653-2508110105-4,7981,2508110116,2508110117,1,,S,2,Stuttgart-Vaihingen|Stuttgart-Rohr|Oberaichen,8003622,Leinfelden,Baden-Württemberg,Leinfelden-Echterdingen,70771,9.142859698,48.6964193,4,2508110116,,2508110117,,,,,,,,,,,0.0,0.0
7310467920449271-2508110047-10,7678,2508110113,2508110113,2,,S,6,Stuttgart Hbf|Stuttgart Nord|Stuttgart-Feuerbach|Stuttgart-Zuffenhausen|Neuwirtshaus(Porscheplatz)|Korntal|Weilimdorf|Ditzingen|Höfingen,8003652,Leonberg,Baden-Württemberg,Leonberg,71229,9.004025993,48.79970547,3,2508110116,,2508110116,,,,,,,,,,,3.0,3.0
-4825921784207905950-2508110057-6,7580,2508110113,2508110114,2,,S,5,Stuttgart Hbf|Stuttgart Nord|Stuttgart-Feuerbach|Stuttgart-Zuffenhausen|Kornwestheim Pbf,8000235,Ludwigsburg,Baden-Württemberg,Ludwigsburg,71638,9.185229823,48.89208622,3,2508110118,,2508110118,,,,,,,,,,,5.0,4.0
7525780460691541142-2508110107-6,7478,2508110123,,3,,S,,Stuttgart Hbf|Stuttgart Nord|Stuttgart-Feuerbach|Stuttgart-Zuffenhausen|Kornwestheim Pbf,8000235,Ludwigsburg,Baden-Württemberg,Ludwigsburg,71638,9.185229823,48.89208622,3,2508110124,2,,,,,,,,,,,,1.0,0.0
7310467920449271-2508110047-13,7678,2508110124,2508110124,1,,S,6,Stuttgart Hbf|Stuttgart Nord|Stuttgart-Feuerbach|Stuttgart-Zuffenhausen|Neuwirtshaus(Porscheplatz)|Korntal|Weilimdorf|Ditzingen|Höfingen|Leonberg|Rutesheim|Renningen,8003831,Malmsheim,Baden-Württemberg,Renningen,71272,8.905105557,48.77183564,5,2508110124,,2508110124,,,,,,,,,,,0.0,0.0
7376303308582692744-2508110057-7,7378,2508110116,2508110116,2,,S,3,Fellbach|Waiblingen|Neustadt-Hohenacker|Schwaikheim|Winnenden|Nellmersbach,8003913,Maubach,Baden-Württemberg,Backnang,71522,9.419487062,48.92623463,4,2508110116,,2508110116,,,,,,,,,,,0.0,0.0
-2066719181509379684-2508110127-7,7380,2508110146,2508110146,2,,S,3,Fellbach|Waiblingen|Neustadt-Hohenacker|Schwaikheim|Winnenden|Nellmersbach,8003913,Maubach,Baden-Württemberg,Backnang,71522,9.419487062,48.92623463,4,2508110145,,2508110145,,,,,,,,,,,-1.0,-1.0
7376303308582692744-2508110057-6,7378,2508110113,2508110113,2,,S,3,Fellbach|Waiblingen|Neustadt-Hohenacker|Schwaikheim|Winnenden,8004233,Nellmersbach,Baden-Württemberg,Leutenbach,71397,9.415421538,48.90336425,5,2508110113,,2508110113,,,,,,,,,,,0.0,0.0
-2066719181509379684-2508110127-6,7380,2508110143,2508110143,2,,S,3,Fellbach|Waiblingen|Neustadt-Hohenacker|Schwaikheim|Winnenden,8004233,Nellmersbach,Baden-Württemberg,Leutenbach,71397,9.415421538,48.90336425,5,2508110142,,2508110142,,,,,,,,,,,-1.0,-1.0
7376303308582692744-2508110057-3,7378,2508110104,2508110105,1,,S,3,Fellbach|Waiblingen,8004333,Neustadt-Hohenacker,Baden-Württemberg,Waiblingen,71336,9.32455106,48.85921668,5,2508110104,,2508110105,,,,,,,,,,,0.0,0.0
-2066719181509379684-2508110127-3,7380,2508110134,2508110135,1,,S,3,Fellbach|Waiblingen,8004333,Neustadt-Hohenacker,Baden-Württemberg,Waiblingen,71336,9.32455106,48.85921668,5,2508110133,,2508110134,,,,,,,,,,,-1.0,-1.0
-3828888404650944113-2508110046-8,7779,2508110110,2508110111,1,,S,1,Stuttgart-Vaihingen|Stuttgart-Rohr|Goldberg(Württ)|Böblingen|Hulb|Ehningen(b Böblingen)|Gärtringen,8004490,Nufringen,Baden-Württemberg,Nufringen,71154,8.889817485,48.62010967,5,2508110112,,2508110112,,,,,,,,,,,2.0,1.0
-4784954416824888572-2508110116-8,7781,2508110140,2508110141,1,,S,1,Stuttgart-Vaihingen|Stuttgart-Rohr|Goldberg(Württ)|Böblingen|Hulb|Ehningen(b Böblingen)|Gärtringen,8004490,Nufringen,Baden-Württemberg,Nufringen,71154,8.889817485,48.62010967,5,2508110141,,2508110142,,,,,,,,,,,1.0,1.0
-446483415299011653-2508110105-3,7981,2508110114,2508110114,1,,S,2,Stuttgart-Vaihingen|Stuttgart-Rohr,8004496,Oberaichen,Baden-Württemberg,Leinfelden-Echterdingen,70771,9.12743664,48.70512422,5,2508110114,,2508110114,,,,,,,,,,,0.0,0.0
-3366414490112859120-2508110055-6,7180,2508110114,2508110114,4,,S,1,Stuttgart Hbf|Stuttgart-Bad Cannstatt|Stuttgart-Untertürkheim|Esslingen-Mettingen|Esslingen(Neckar),8004528,Oberesslingen,Baden-Württemberg,Esslingen am Neckar,73730,9.327277435,48.72983585,3,2508110116,,2508110117,,,,,,,,,,,2.0,3.0
-3366414490112859120-2508110055-9,7180,2508110122,2508110125,10,,S,1,Stuttgart Hbf|Stuttgart-Bad Cannstatt|Stuttgart-Untertürkheim|Esslingen-Mettingen|Esslingen(Neckar)|Oberesslingen|Esslingen-Zell|Altbach,8000302,Plochingen,Baden-Württemberg,Plochingen,73207,9.411294578,48.71293906,2,2508110124,,2508110125,,,,,,,,,,,2.0,0.0
397053316391935562-2508110042-4,19189,2508110100,2508110100,4,,MEX,16,Stuttgart Hbf|Stuttgart-Bad Cannstatt|Esslingen(Neckar),8000302,Plochingen,Baden-Württemberg,Plochingen,73207,9.411294578,48.71293906,2,2508110101,,2508110101,,,,,,,,,,,1.0,1.0
4298409621250373506-2508110100-4,19343,2508110117,2508110118,7,,MEX,12,Stuttgart Hbf|Stuttgart-Bad Cannstatt|Esslingen(Neckar),8000302,Plochingen,Baden-Württemberg,Plochingen,73207,9.411294578,48.71293906,2,2508110122,,2508110122,,h,2,Störung,,,,,,,5.0,4.0
7310467920449271-2508110047-12,7678,2508110119,2508110122,3,,S,6,Stuttgart Hbf|Stuttgart Nord|Stuttgart-Feuerbach|Stuttgart-Zuffenhausen|Neuwirtshaus(Porscheplatz)|Korntal|Weilimdorf|Ditzingen|Höfingen|Leonberg|Rutesheim,8000313,Renningen,Baden-Württemberg,Renningen,71272,8.932650148,48.77515509,3,2508110122,,2508110122,,,,,,,,,,,3.0,0.0
-1441515051530061043-2508110120-5,7280,2508110137,2508110137,1,,S,2,Stuttgart Hbf|Stuttgart-Bad Cannstatt|Fellbach|Waiblingen,8005157,Rommelshausen,Baden-Württemberg,Kernen,71394,9.319175885,48.81552017,4,2508110137,,2508110138,,,,,,,,,,,0.0,1.0
7313231446534335906-2508110050-5,7278,2508110107,2508110107,1,,S,2,Stuttgart Hbf|Stuttgart-Bad Cannstatt|Fellbach|Waiblingen,8005157,Rommelshausen,Baden-Württemberg,Kernen,71394,9.319175885,48.81552017,4,2508110107,,2508110108,,,,,,,,,,,0.0,1.0
7310467920449271-2508110047-11,7678,2508110116,2508110116,2,,S,6,Stuttgart Hbf|Stuttgart Nord|Stuttgart-Feuerbach|Stuttgart-Zuffenhausen|Neuwirtshaus(Porscheplatz)|Korntal|Weilimdorf|Ditzingen|Höfingen|Leonberg,8005236,Rutesheim,Baden-Württemberg,Leonberg,71229,8.960325242,48.79031093,5,2508110119,,2508110119,,,,,,,,,,,3.0,3.0
-1441515051530061043-2508110120-13,7280,2508110155,,14,,S,,Stuttgart Hbf|Stuttgart-Bad Cannstatt|Fellbach|Waiblingen|Rommelshausen|Stetten-Beinstein|Endersbach|Beutelsbach|Grunbach|Geradstetten|Winterbach(b Schorndorf)|Weiler(Rems),8005424,Schorndorf,Baden-Württemberg,Schorndorf,73614,9.525686251,48.80693898,3,2508110159,1,,,,,,,,,,,,4.0,0.0
7313231446534335906-2508110050-13,7278,2508110125,,14,,S,,Stuttgart Hbf|Stuttgart-Bad Cannstatt|Fellbach|Waiblingen|Rommelshausen|Stetten-Beinstein|Endersbach|Beutelsbach|Grunbach|Geradstetten|Winterbach(b Schorndorf)|Weiler(Rems),8005424,Schorndorf,Baden-Württemberg,Schorndorf,73614,9.525686251,48.80693898,3,2508110126,1,,,,,,,,,,,,1.0,0.0
7376303308582692744-2508110057-4,7378,2508110107,2508110107,2,,S,3,Fellbach|Waiblingen|Neustadt-Hohenacker,8005454,Schwaikheim,Baden-Württemberg,Schwaikheim,71409,9.354747358,48.86832665,4,2508110107,,2508110108,,,,,,,,,,,0.0,1.0
-2066719181509379684-2508110127-4,7380,2508110137,2508110137,2,,S,3,Fellbach|Waiblingen|Neustadt-Hohenacker,8005454,Schwaikheim,Baden-Württemberg,Schwaikheim,71409,9.354747358,48.86832665,4,2508110136,,2508110137,,,,,,,,,,,-1.0,0.0
-1441515051530061043-2508110120-6,7280,2508110139,2508110139,1,,S,2,Stuttgart Hbf|Stuttgart-Bad Cannstatt|Fellbach|Waiblingen|Rommelshausen,8005726,Stetten-Beinstein,Baden-Württemberg,Weinstadt,71384,9.352769725,48.81199601,5,2508110140,,2508110141,,,,,,,,,,,1.0,2.0
7313231446534335906-2508110050-6,7278,2508110109,2508110109,1,,S,2,Stuttgart Hbf|Stuttgart-Bad Cannstatt|Fellbach|Waiblingen|Rommelshausen,8005726,Stetten-Beinstein,Baden-Württemberg,Weinstadt,71384,9.352769725,48.81199601,5,2508110110,,2508110110,,,,,,,,,,,1.0,1.0
-1441515051530061043-2508110120-1,7280,,2508110120,,,S,2,,8000096,Stuttgart Hbf,Baden-Württemberg,Stuttgart,70173,9.183172973,48.78473069,1,,,2508110121,,,,,,,,,,,0.0,1.0
-1262072456597967463-2508102238-20,88652,2508110105,,11,,RE,,Nürnberg Hbf|Roßtal|Heilsbronn|Wicklesgreuth|Ansbach|Leutershausen-Wiedersbach|Dombühl|Schnelldorf|Crailsheim|Eckartshausen-Ilshofen|Schwäbisch Hall-Hessental|Gaildorf West|Murrhardt|Sulzbach(Murr)|Oppenweiler(Württ)|Backnang|Winnenden|Waiblingen|Stuttgart-Bad Cannstatt,8000096,Stuttgart Hbf,Baden-Württemberg,Stuttgart,70173,9.183172973,48.78473069,1,2508110107,,,,,,,,,,,,,2.0,0.0
7525780460691541142-2508110107-1,7478,,2508110107,,,S,4,,8000096,Stuttgart Hbf,Baden-Württemberg,Stuttgart,70173,9.183172973,48.78473069,1,,,2508110108,5,,,,,,,,,,0.0,1.0
-4896468785972896802-2508102346-22,19188,2508110116,,12,,MEX,,Ulm Hbf|Beimerstetten|Westerstetten|Lonsee|Urspring|Amstetten(Württ)|Geislingen(Steige)|Geislingen(Steige)West|Kuchen|Gingen(Fils)|Süßen|Salach|Eislingen(Fils)|Göppingen|Faurndau|Uhingen|Ebersbach(Fils)|Reichenbach(Fils)|Plochingen|Esslingen(Neckar)|Stuttgart-Bad Cannstatt,8000096,Stuttgart Hbf,Baden-Württemberg,Stuttgart,70173,9.183172973,48.78473069,1,2508110123,,,,,,,,,,,,,7.0,0.0
-8097229136581884814-2508110033-13,7281,2508110110,,3,,S,,Schorndorf|Weiler(Rems)|Winterbach(b Schorndorf)|Geradstetten|Grunbach|Beutelsbach|Endersbach|Stetten-Beinstein|Rommelshausen|Waiblingen|Fellbach|Stuttgart-Bad Cannstatt,8000096,Stuttgart Hbf,Baden-Württemberg,Stuttgart,70173,9.183172973,48.78473069,1,2508110112,,,,,,,,,,,,,2.0,0.0
-8775031481172421761-2508110020-15,7181,2508110102,,4,,S,,Kirchheim(Teck)|Kirchheim(Teck)-Ötlingen|Wendlingen(Neckar)|Wernau(Neckar)|Plochingen|Altbach|Esslingen-Zell|Oberesslingen|Esslingen(Neckar)|Esslingen-Mettingen|Stuttgart-Obertürkheim|Stuttgart-Untertürkheim|Stuttgart Neckarpark|Stuttgart-Bad Cannstatt,8000096,Stuttgart Hbf,Baden-Württemberg,Stuttgart,70173,9.183172973,48.78473069,1,2508110103,,,,,,,,,,,,,1.0,0.0
-7696913984968518161-2508110022-12,19446,2508110126,,13,,MEX,,Aalen Hbf|Mögglingen(Gmünd)|Böbingen(Rems)|Schwäbisch Gmünd|Lorch(Württ)|Waldhausen(b Schorndorf)|Plüderhausen|Urbach(b Schorndorf)|Schorndorf|Waiblingen|Stuttgart-Bad Cannstatt,8000096,Stuttgart Hbf,Baden-Württemberg,Stuttgart,70173,9.183172973,48.78473069,1,2508110129,,,,,,,,,,,,,3.0,0.0
4298409621250373506-2508110100-1,19343,,2508110100,,,MEX,12,,8000096,Stuttgart Hbf,Baden-Württemberg,Stuttgart,70173,9.183172973,48.78473069,1,,,2508110102,,h,2,Störung,,,,,,,0.0,2.0
-4825921784207905950-2508110057-2,7580,2508110100,2508110102,3,,S,5,Stuttgart Hbf,8005767,Stuttgart Nord,Baden-Württemberg,Stuttgard-Nord,70174,9.188061449,48.80374161,5,2508110107,,2508110107,,,,,,,,,,,7.0,5.0
7525780460691541142-2508110107-2,7478,2508110110,2508110112,3,,S,4,Stuttgart Hbf,8005767,Stuttgart Nord,Baden-Württemberg,Stuttgard-Nord,70174,9.188061449,48.80374161,5,2508110112,,2508110112,,,,,,,,,,,2.0,0.0
-1441515051530061043-2508110120-2,7280,2508110124,2508110124,7,,S,2,Stuttgart Hbf,8005769,Stuttgart-Bad Cannstatt,Baden-Württemberg,Stuttgart,70372,9.217468636,48.80127978,3,2508110125,,2508110126,,,,,,,,,,,1.0,2.0
-1262072456597967463-2508102238-19,88652,2508110100,2508110101,6,,RE,90,Nürnberg Hbf|Roßtal|Heilsbronn|Wicklesgreuth|Ansbach|Leutershausen-Wiedersbach|Dombühl|Schnelldorf|Crailsheim|Eckartshausen-Ilshofen|Schwäbisch Hall-Hessental|Gaildorf West|Murrhardt|Sulzbach(Murr)|Oppenweiler(Württ)|Backnang|Winnenden|Waiblingen,8005769,Stuttgart-Bad Cannstatt,Baden-Württemberg,Stuttgart,70372,9.217468636,48.80127978,3,2508110102,,2508110103,,,,,,,,,,,2.0,2.0
-3366414490112859120-2508110055-2,7180,2508110059,2508110100,8,,S,1,Stuttgart Hbf,8005769,Stuttgart-Bad Cannstatt,Baden-Württemberg,Stuttgart,70372,9.217468636,48.80127978,3,2508110101,,2508110102,,,,,,,,,,,2.0,2.0
-4896468785972896802-2508102346-21,19188,2508110112,2508110112,5,,MEX,16,Ulm Hbf|Beimerstetten|Westerstetten|Lonsee|Urspring|Amstetten(Württ)|Geislingen(Steige)|Geislingen(Steige)West|Kuchen|Gingen(Fils)|Süßen|Salach|Eislingen(Fils)|Göppingen|Faurndau|Uhingen|Ebersbach(Fils)|Reichenbach(Fils)|Plochingen|Esslingen(Neckar),8005769,Stuttgart-Bad Cannstatt,Baden-Württemberg,Stuttgart,70372,9.217468636,48.80127978,3,2508110119,,2508110120,,,,,,,,,,,7.0,8.0
-8097229136581884814-2508110033-12,7281,2508110105,2508110106,6,,S,2,Schorndorf|Weiler(Rems)|Winterbach(b Schorndorf)|Geradstetten|Grunbach|Beutelsbach|Endersbach|Stetten-Beinstein|Rommelshausen|Waiblingen|Fellbach,8005769,Stuttgart-Bad Cannstatt,Baden-Württemberg,Stuttgart,70372,9.217468636,48.80127978,3,2508110106,,2508110108,,,,,,,,,,,1.0,2.0
-7696913984968518161-2508110022-11,19446,2508110120,2508110122,6,,MEX,13,Aalen Hbf|Mögglingen(Gmünd)|Böbingen(Rems)|Schwäbisch Gmünd|Lorch(Württ)|Waldhausen(b Schorndorf)|Plüderhausen|Urbach(b Schorndorf)|Schorndorf|Waiblingen,8005769,Stuttgart-Bad Cannstatt,Baden-Württemberg,Stuttgart,70372,9.217468636,48.80127978,3,2508110124,,2508110125,,,,,,,,,,,4.0,3.0
4298409621250373506-2508110100-2,19343,2508110103,2508110104,8,,MEX,12,Stuttgart Hbf,8005769,Stuttgart-Bad Cannstatt,Baden-Württemberg,Stuttgart,70372,9.217468636,48.80127978,3,2508110105,,2508110106,,h,2,Störung,,,,,,,2.0,2.0
-4825921784207905950-2508110057-3,7580,2508110104,2508110104,2,,S,5,Stuttgart Hbf|Stuttgart Nord,8005770,Stuttgart-Feuerbach,Baden-Württemberg,Feuerbach,70469,9.169186287,48.81363554,3,2508110109,,2508110109,,,,,,,,,,,5.0,5.0
7525780460691541142-2508110107-3,7478,2508110114,2508110114,2,,S,4,Stuttgart Hbf|Stuttgart Nord,8005770,Stuttgart-Feuerbach,Baden-Württemberg,Feuerbach,70469,9.169186287,48.81363554,3,2508110114,,2508110114,,,,,,,,,,,0.0,0.0
-446483415299011653-2508110105-2,7981,2508110106,2508110112,2,,S,2,Stuttgart-Vaihingen,8005773,Stuttgart-Rohr,Baden-Württemberg,Stuttgart,70565,9.108158025,48.71799427,4,2508110107,,2508110112,,,,,,,,,,,1.0,0.0
-4784954416824888572-2508110116-2,7781,2508110117,2508110123,2,,S,1,Stuttgart-Vaihingen,8005773,Stuttgart-Rohr,Baden-Württemberg,Stuttgart,70565,9.108158025,48.71799427,4,2508110118,,2508110123,,,,,,,,,,,1.0,0.0
-3366414490112859120-2508110055-3,7180,2508110102,2508110103,4,,S,1,Stuttgart Hbf|Stuttgart-Bad Cannstatt,8005775,Stuttgart-Untertürkheim Pbf,Baden-Württemberg,Stuttgart,70327,9.250467074,48.77984679,3,2508110105,,2508110106,,,,,,,,,,,3.0,3.0
-446483415299011653-2508110105-1,7981,,2508110105,,,S,2,,8005776,Stuttgart-Vaihingen,Baden-Württemberg,Stuttgart,70563,9.113913368,48.72698116,3,,,2508110105,,,,,,,,,,,0.0,0.0
-4784954416824888572-2508110116-1,7781,,2508110116,,,S,1,,8005776,Stuttgart-Vaihingen,Baden-Württemberg,Stuttgart,70563,9.113913368,48.72698116,3,,,2508110116,,,,,,,,,,,0.0,0.0
7310467920449271-2508110047-7,7678,2508110103,2508110103,1,,S,6,Stuttgart Hbf|Stuttgart Nord|Stuttgart-Feuerbach|Stuttgart-Zuffenhausen|Neuwirtshaus(Porscheplatz)|Korntal,8006268,Stuttgart-Weilimdorf,Baden-Württemberg,Stuttgart,70499,9.094370086,48.82208429,5,2508110107,,2508110107,,,,,,,,,,,4.0,4.0
-4825921784207905950-2508110057-4,7580,2508110106,2508110107,4,,S,5,Stuttgart Hbf|Stuttgart Nord|Stuttgart-Feuerbach,8005778,Stuttgart-Zuffenhausen,Baden-Württemberg,Stuttgart,70435,9.167156375,48.82960884,3,2508110111,,2508110112,,,,,,,,,,,5.0,5.0
7525780460691541142-2508110107-4,7478,2508110116,2508110117,4,,S,4,Stuttgart Hbf|Stuttgart Nord|Stuttgart-Feuerbach,8005778,Stuttgart-Zuffenhausen,Baden-Württemberg,Stuttgart,70435,9.167156375,48.82960884,3,2508110116,,2508110117,,,,,,,,,,,0.0,0.0
-4825921784207905950-2508110057-8,7580,2508110119,2508110120,3,,S,5,Stuttgart Hbf|Stuttgart Nord|Stuttgart-Feuerbach|Stuttgart-Zuffenhausen|Kornwestheim Pbf|Ludwigsburg|Asperg,8005820,Tamm (Württ),Baden-Württemberg,Tamm,71732,9.125288012,48.92187736,4,2508110123,,2508110123,,,,,,,,,,,4.0,3.0
-1441515051530061043-2508110120-4,7280,2508110134,2508110135,7,,S,2,Stuttgart Hbf|Stuttgart-Bad Cannstatt|Fellbach,8000180,Waiblingen,Baden-Württemberg,Waiblingen,71332,9.300476874,48.8262444,3,2508110135,,2508110136,,,,,,,,,,,1.0,1.0
7313231446534335906-2508110050-4,7278,2508110104,2508110105,7,,S,2,Stuttgart Hbf|Stuttgart-Bad Cannstatt|Fellbach,8000180,Waiblingen,Baden-Württemberg,Waiblingen,71332,9.300476874,48.8262444,3,2508110105,,2508110106,,,,,,,,,,,1.0,1.0
7376303308582692744-2508110057-2,7378,2508110059,2508110101,3,,S,3,Fellbach,8000180,Waiblingen,Baden-Württemberg,Waiblingen,71332,9.300476874,48.8262444,3,2508110100,,2508110100,,,,,,,,,,,1.0,-1.0
-7696913984968518161-2508110022-10,19446,2508110113,2508110113,6,,MEX,13,Aalen Hbf|Mögglingen(Gmünd)|Böbingen(Rems)|Schwäbisch Gmünd|Lorch(Württ)|Waldhausen(b Schorndorf)|Plüderhausen|Urbach(b Schorndorf)|Schorndorf,8000180,Waiblingen,Baden-Württemberg,Waiblingen,71332,9.300476874,48.8262444,3,2508110118,,2508110118,,,,,,,,,,,5.0,5.0
-2066719181509379684-2508110127-2,7380,2508110129,2508110131,3,,S,3,Fellbach,8000180,Waiblingen,Baden-Württemberg,Waiblingen,71332,9.300476874,48.8262444,3,2508110128,,2508110130,,,,,,,,,,,-1.0,-1.0
7310467920449271-2508110047-14,7678,2508110127,,1,,S,,Stuttgart Hbf|Stuttgart Nord|Stuttgart-Feuerbach|Stuttgart-Zuffenhausen|Neuwirtshaus(Porscheplatz)|Korntal|Weilimdorf|Ditzingen|Höfingen|Leonberg|Rutesheim|Renningen|Malmsheim,8006271,Weil der Stadt,Baden-Württemberg,Weil der Stadt,71263,8.873189074,48.7557357,4,2508110128,2,,,,,,,,,,,,1.0,0.0
-1441515051530061043-2508110120-12,7280,2508110152,2508110152,1,,S,2,Stuttgart Hbf|Stuttgart-Bad Cannstatt|Fellbach|Waiblingen|Rommelshausen|Stetten-Beinstein|Endersbach|Beutelsbach|Grunbach|Geradstetten|Winterbach(b Schorndorf),8006277,Weiler (Rems),Baden-Württemberg,Schorndorf,76314,9.501891172,48.80034585,5,2508110155,,2508110156,,,,,,,,,,,3.0,4.0
7313231446534335906-2508110050-12,7278,2508110122,2508110122,1,,S,2,Stuttgart Hbf|Stuttgart-Bad Cannstatt|Fellbach|Waiblingen|Rommelshausen|Stetten-Beinstein|Endersbach|Beutelsbach|Grunbach|Geradstetten|Winterbach(b Schorndorf),8006277,Weiler (Rems),Baden-Württemberg,Schorndorf,76314,9.501891172,48.80034585,5,2508110122,,2508110123,,,,,,,,,,,0.0,1.0
-3366414490112859120-2508110055-11,7180,2508110132,2508110133,11,,S,1,Stuttgart Hbf|Stuttgart-Bad Cannstatt|Stuttgart-Untertürkheim|Esslingen-Mettingen|Esslingen(Neckar)|Oberesslingen|Esslingen-Zell|Altbach|Plochingen|Wernau(Neckar),8006331,Wendlingen (Neckar),Baden-Württemberg,Wendlingen am Neckar,73240,9.373662098,48.67368917,3,2508110133,,2508110133,,,,,,,,,,,1.0,0.0
2298525024658281877-2508110025-11,7178,2508110102,2508110103,11,,S,1,Stuttgart Hbf|Stuttgart-Bad Cannstatt|Stuttgart-Untertürkheim|Esslingen-Mettingen|Esslingen(Neckar)|Oberesslingen|Esslingen-Zell|Altbach|Plochingen|Wernau(Neckar),8006331,Wendlingen (Neckar),Baden-Württemberg,Wendlingen am Neckar,73240,9.373662098,48.67368917,3,2508110102,,2508110103,,,,,,,,,,,0.0,0.0
4298409621250373506-2508110100-6,19343,2508110126,2508110126,2,,MEX,12,Stuttgart Hbf|Stuttgart-Bad Cannstatt|Esslingen(Neckar)|Plochingen|Wernau(Neckar),8006331,Wendlingen (Neckar),Baden-Württemberg,Wendlingen am Neckar,73240,9.373662098,48.67368917,3,2508110129,,2508110129,,h,2,Störung,,,,,,,3.0,3.0
-3366414490112859120-2508110055-10,7180,2508110128,2508110129,2,,S,1,Stuttgart Hbf|Stuttgart-Bad Cannstatt|Stuttgart-Untertürkheim|Esslingen-Mettingen|Esslingen(Neckar)|Oberesslingen|Esslingen-Zell|Altbach|Plochingen,8006346,Wernau (Neckar),Baden-Württemberg,Wernau (Neckar),73249,9.413654423,48.69417221,4,2508110129,,2508110129,,,,,,,,,,,1.0,0.0
4298409621250373506-2508110100-5,19343,2508110121,2508110122,2,,MEX,12,Stuttgart Hbf|Stuttgart-Bad Cannstatt|Esslingen(Neckar)|Plochingen,8006346,Wernau (Neckar),Baden-Württemberg,Wernau (Neckar),73249,9.413654423,48.69417221,4,2508110125,,2508110125,,h,2,Störung,,,,,,,4.0,3.0
7376303308582692744-2508110057-5,7378,2508110110,2508110110,2,,S,3,Fellbach|Waiblingen|Neustadt-Hohenacker|Schwaikheim,8006479,Winnenden,Baden-Württemberg,Winnenden,71364,9.392155928,48.8795625,3,2508110110,,2508110111,,,,,,,,,,,0.0,1.0
-2066719181509379684-2508110127-5,7380,2508110140,2508110140,2,,S,3,Fellbach|Waiblingen|Neustadt-Hohenacker|Schwaikheim,8006479,Winnenden,Baden-Württemberg,Winnenden,71364,9.392155928,48.8795625,3,2508110139,,2508110140,,,,,,,,,,,-1.0,0.0
-1441515051530061043-2508110120-11,7280,2508110150,2508110150,2,,S,2,Stuttgart Hbf|Stuttgart-Bad Cannstatt|Fellbach|Waiblingen|Rommelshausen|Stetten-Beinstein|Endersbach|Beutelsbach|Grunbach|Geradstetten,8006485,Winterbach (b Schorndorf),Baden-Württemberg,Winterbach,73650,9.481549751,48.79842743,4,2508110153,,2508110154,,,,,,,,,,,3.0,4.0
7313231446534335906-2508110050-11,7278,2508110120,2508110120,2,,S,2,Stuttgart Hbf|Stuttgart-Bad Cannstatt|Fellbach|Waiblingen|Rommelshausen|Stetten-Beinstein|Endersbach|Beutelsbach|Grunbach|Geradstetten,8006485,Winterbach (b Schorndorf),Baden-Württemberg,Winterbach,73650,9.481549751,48.79842743,4,2508110120,,2508110121,,,,,,,,,,,0.0,1.0
