ID,train_number,planned_arrival,planned_departure,planned_platform,planned_status,category_train,train,path,eva_nr,station_name,station_state,station_city,station_zipcode,station_long,station_lat,station_category,changed_arrival,changed_platform_arrival,changed_departure,changed_platform_departure,message_status,priority,info,arrival_hidden,departure_hidden,arrival_path,departure_path,arrival_status,departure_status,arrival_delay_m,departure_delay_m
1781534358873638088-2604080437-2,7101,2604080440,2604080440,3,,S,S1,Plochingen,8000508,Altbach,Baden-Württemberg,Altbach,73776,9.382434033,48.72031354,3,2604080440,,2604080440,,h,1,Bauarbeiten,,,,,,,0.0,0.0
-9020622847777394381-2604080437-3,7501,2604080442,2604080443,3,,S,S5,Bietigheim-Bissingen|Tamm(Württ),8000630,Asperg,Baden-Württemberg,Asperg,71679,9.147977466,48.90725609,4,2604080443,,2604080443,,h,1,Störung,,,,,,,1.0,0.0
8242933012542256606-2604080441-1,7301,,2604080441,,,S,S3,,8000016,Backnang,Baden-Württemberg,Backnang,71522,9.425986107,48.94264844,3,,,2604080443,,h,1,Bauarbeiten,,,,,,,0.0,2.0
9124798165350701033-2604080423-5,88631,2604080450,2604080451,4,,ARV,RE90,Stuttgart Hbf|Stuttgart-Bad Cannstatt|Waiblingen|Winnenden,8000016,Backnang,Baden-Württemberg,Backnang,71522,9.425986107,48.94264844,3,2604080450,,2604080451,,,,,,,,,,,0.0,0.0
4059477772738430465-2604080455-2,7401,2604080457,2604080457,2,,S,S4,Marbach(Neckar),8000873,Benningen (Neckar),Baden-Württemberg,Benningen am Neckar,71726,9.244299075,48.94379773,5,2604080457,,2604080457,,h,1,Störung,,,,,,,0.0,0.0
8312618108729256880-2604080348-6,28361,2604080400,2604080400,2,,S,S2,Schorndorf|Weiler(Rems)|Winterbach(b Schorndorf)|Geradstetten|Grunbach,8000934,Beutelsbach,Baden-Württemberg,Weinstadt,71384,9.38551589,48.81038925,5,2604080400,,2604080400,,h,1,Bauarbeiten,,,,,,,0.0,0.0
3282817060879740599-2604080429-7,19203,2604080455,2604080457,8,,RE,MEX18,Heilbronn Hbf|Nordheim(Württ)|Lauffen(Neckar)|Kirchheim(Neckar)|Walheim(Württ)|Besigheim,8000038,Bietigheim-Bissingen,Baden-Württemberg,Bietigheim-Bissingen,74321,9.137217396,48.94794988,2,2604080455,,2604080457,,,,,,,,,,,0.0,0.0
-1949358468766091644-2604080417-11,19541,2604080453,2604080505,3,,RE,MEX17,Pforzheim Hbf|Eutingen(Baden)|Niefern|Mühlacker|Mühlacker Rößlesweg|Illingen(Württ)|Vaihingen(Enz)|Sersheim|Sachsenheim|Ellental,8000038,Bietigheim-Bissingen,Baden-Württemberg,Bietigheim-Bissingen,74321,9.137217396,48.94794988,2,2604080454,,2604080505,,h,2,Information,,,,,,,1.0,0.0
-9020622847777394381-2604080437-1,7501,,2604080437,,,S,S5,,8000038,Bietigheim-Bissingen,Baden-Württemberg,Bietigheim-Bissingen,74321,9.137217396,48.94794988,2,,,2604080438,6,h,1,Störung,,,,,,,0.0,1.0
-5919247800237366863-2604080416-6,28360,2604080430,2604080430,3,,S,S1,Herrenberg|Nufringen|Gärtringen|Ehningen(b Böblingen)|Hulb,8001055,Böblingen,Baden-Württemberg,Böblingen,71034,9.004531864,48.68784871,3,2604080430,,2604080431,,h,1,Bauarbeiten,,,,,,,0.0,1.0
-7074048190611233336-2604080348-7,28369,2604080409,2604080409,3,,S,S6,Weil der Stadt|Malmsheim|Renningen|Rutesheim|Leonberg|Höfingen,8001476,Ditzingen,Baden-Württemberg,Ditzingen,71254,9.067095186,48.82358726,4,2604080409,,2604080409,,h,1,Störung,,,,,,,0.0,0.0
2884405162672083910-2604080441-5,7002,2604080451,2604080451,2,,S,S60,Stuttgart-Zuffenhausen|Neuwirtshaus(Porscheplatz)|Korntal|Weilimdorf,8001476,Ditzingen,Baden-Württemberg,Ditzingen,71254,9.067095186,48.82358726,4,2604080451,,2604080451,,,,,,,,,,,0.0,0.0
5411763714021984948-2604080433-7,7601,2604080454,2604080454,3,,S,S6,Weil der Stadt|Malmsheim|Renningen|Rutesheim|Leonberg|Höfingen,8001476,Ditzingen,Baden-Württemberg,Ditzingen,71254,9.067095186,48.82358726,4,2604080454,,2604080454,,h,1,Störung,,,,,,,0.0,0.0
-3405121308737868986-2604080356-22,28363,2604080454,2604080455,1,,S,S3,Backnang|Maubach|Nellmersbach|Winnenden|Schwaikheim|Neustadt-Hohenacker|Waiblingen|Fellbach|Stuttgart-Sommerrain|Stuttgart Nürnberger Str.|Stuttgart-Bad Cannstatt|Stuttgart Hbf (tief)|Stuttgart Stadtmitte|Stuttgart Feuersee|Stuttgart Schwabstr.|Stuttgart Universität|Stuttgart-Österfeld|Stuttgart-Vaihingen|Stuttgart-Rohr|Oberaichen|Leinfelden,8001650,Echterdingen,Baden-Württemberg,Echterdingen,70771,9.169307175,48.69214787,4,2604080504,,2604080504,,h,1,Bauarbeiten,,,,,,,10.0,9.0
7889952835218125235-2604080446-4,7102,2604080455,2604080455,1,,S,S1,Herrenberg|Nufringen|Gärtringen,8001689,Ehningen (b Böblingen),Baden-Württemberg,Ehningen,71139,8.944310368,48.66275549,4,2604080455,,2604080455,,h,1,Bauarbeiten,,,,,,,0.0,0.0
-5919247800237366863-2604080416-4,28360,2604080425,2604080425,1,,S,S1,Herrenberg|Nufringen|Gärtringen,8001689,Ehningen (b Böblingen),Baden-Württemberg,Ehningen,71139,8.944310368,48.66275549,4,2604080425,,2604080426,,h,1,Bauarbeiten,,,,,,,0.0,1.0
8312618108729256880-2604080348-7,28361,2604080402,2604080402,3,,S,S2,Schorndorf|Weiler(Rems)|Winterbach(b Schorndorf)|Geradstetten|Grunbach|Beutelsbach,8001785,Endersbach,Baden-Württemberg,Weinstadt,71384,9.370192421,48.81317323,4,2604080402,,2604080402,,h,1,Bauarbeiten,,,,,,,0.0,0.0
1781534358873638088-2604080437-5,7101,2604080447,2604080448,7,,S,S1,Plochingen|Altbach|Esslingen-Zell|Oberesslingen,8001920,Esslingen (Neckar),Baden-Württemberg,Esslingen am Neckar,73728,9.300578149,48.73854148,3,2604080447,,2604080448,,h,1,Bauarbeiten,,,,,,,0.0,0.0
-2605312677894761496-2604080442-3,19109,2604080453,2604080454,5,,ARV,MEX16,Stuttgart Hbf|Stuttgart-Bad Cannstatt,8001920,Esslingen (Neckar),Baden-Württemberg,Esslingen am Neckar,73728,9.300578149,48.73854148,3,2604080456,8,2604080457,8,,,,,,,,,,3.0,3.0
4693049160569863660-2604080353-5,28359,2604080402,2604080403,7,,S,S1,Plochingen|Altbach|Esslingen-Zell|Oberesslingen,8001920,Esslingen (Neckar),Baden-Württemberg,Esslingen am Neckar,73728,9.300578149,48.73854148,3,2604080402,,2604080403,,h,1,Bauarbeiten,,,,,,,0.0,0.0
1781534358873638088-2604080437-6,7101,2604080450,2604080450,3,,S,S1,Plochingen|Altbach|Esslingen-Zell|Oberesslingen|Esslingen(Neckar),8001921,Esslingen-Mettingen,Baden-Württemberg,Esslingen am Neckar,73733,9.275799007,48.74696655,3,2604080450,,2604080450,,h,1,Bauarbeiten,,,,,,,0.0,0.0
4693049160569863660-2604080353-6,28359,2604080405,2604080405,3,,S,S1,Plochingen|Altbach|Esslingen-Zell|Oberesslingen|Esslingen(Neckar),8001921,Esslingen-Mettingen,Baden-Württemberg,Esslingen am Neckar,73733,9.275799007,48.74696655,3,2604080406,,2604080407,,h,1,Bauarbeiten,,,,,,,1.0,2.0
1781534358873638088-2604080437-3,7101,2604080442,2604080442,3,,S,S1,Plochingen|Altbach,8006642,Esslingen-Zell,Baden-Württemberg,Esslingen am Neckar,73730,9.359739507,48.72436142,3,2604080442,,2604080442,,h,1,Bauarbeiten,,,,,,,0.0,0.0
-2528850404755729-2604080355-4,28365,2604080403,2604080403,2,,S,S4,Marbach(Neckar)|Benningen(Neckar)|Freiberg(Neckar),8001967,Favoritepark,Baden-Württemberg,Ludwigsburg,71634,9.180574277,48.90948451,5,2604080404,,2604080404,,h,1,Störung,,,,,,,1.0,1.0
-3405121308737868986-2604080356-8,28363,2604080417,2604080418,4,,S,S3,Backnang|Maubach|Nellmersbach|Winnenden|Schwaikheim|Neustadt-Hohenacker|Waiblingen,8001974,Fellbach,Baden-Württemberg,Fellbach,70736,9.270645988,48.8202936,3,2604080426,,2604080426,,h,1,Bauarbeiten,,,,,,,9.0,8.0
8312618108729256880-2604080348-11,28361,2604080412,2604080413,4,,S,S2,Schorndorf|Weiler(Rems)|Winterbach(b Schorndorf)|Geradstetten|Grunbach|Beutelsbach|Endersbach|Stetten-Beinstein|Rommelshausen|Waiblingen,8001974,Fellbach,Baden-Württemberg,Fellbach,70736,9.270645988,48.8202936,3,2604080412,,2604080413,,h,1,Bauarbeiten,,,,,,,0.0,0.0
-3405121308737868986-2604080356-23,28363,2604080457,,2,,S,,Backnang|Maubach|Nellmersbach|Winnenden|Schwaikheim|Neustadt-Hohenacker|Waiblingen|Fellbach|Stuttgart-Sommerrain|Stuttgart Nürnberger Str.|Stuttgart-Bad Cannstatt|Stuttgart Hbf (tief)|Stuttgart Stadtmitte|Stuttgart Feuersee|Stuttgart Schwabstr.|Stuttgart Universität|Stuttgart-Österfeld|Stuttgart-Vaihingen|Stuttgart-Rohr|Oberaichen|Leinfelden|Echterdingen,8005768,Stuttgart Flughafen/Messe,Baden-Württemberg,Leinfelden-Echterdingen,70629,9.193411574,48.69075193,4,2604080506,,,,h,1,Bauarbeiten,,,,,,,9.0,0.0
-2528850404755729-2604080355-3,28365,2604080400,2604080401,2,,S,S4,Marbach(Neckar)|Benningen(Neckar),8002065,Freiberg (Neckar),Baden-Württemberg,Freiberg am Neckar,71691,9.197530085,48.92994974,5,2604080401,,2604080401,,h,1,Störung,,,,,,,1.0,0.0
7889952835218125235-2604080446-3,7102,2604080452,2604080452,2,,S,S1,Herrenberg|Nufringen,8002165,Gärtringen,Baden-Württemberg,Gärtringen,71116,8.908864487,48.64080021,5,2604080452,,2604080452,,h,1,Bauarbeiten,,,,,,,0.0,0.0
-5919247800237366863-2604080416-3,28360,2604080422,2604080422,2,,S,S1,Herrenberg|Nufringen,8002165,Gärtringen,Baden-Württemberg,Gärtringen,71116,8.908864487,48.64080021,5,2604080422,,2604080423,,h,1,Bauarbeiten,,,,,,,0.0,1.0
7239447269276523252-2604080448-4,7203,2604080455,2604080456,1,,S,S2,Schorndorf|Weiler(Rems)|Winterbach(b Schorndorf),8002240,Geradstetten,Baden-Württemberg,Remshalden,73630,9.439522346,48.80527689,5,2604080459,,2604080459,,h,1,Bauarbeiten,,,,,,,4.0,3.0
-5919247800237366863-2604080416-7,28360,2604080432,2604080432,2,,S,S1,Herrenberg|Nufringen|Gärtringen|Ehningen(b Böblingen)|Hulb|Böblingen,8005201,Goldberg,Baden-Württemberg,Böblingen,71032,9.019733387,48.69651581,5,2604080433,,2604080433,,h,1,Bauarbeiten,,,,,,,1.0,1.0
7239447269276523252-2604080448-5,7203,2604080457,2604080458,2,,S,S2,Schorndorf|Weiler(Rems)|Winterbach(b Schorndorf)|Geradstetten,8002448,Grunbach,Baden-Württemberg,Remshalden,73630,9.419580601,48.810414,4,2604080500,,2604080501,,h,1,Bauarbeiten,,,,,,,3.0,3.0
7889952835218125235-2604080446-1,7102,,2604080446,,,S,S1,,8002785,Herrenberg,Baden-Württemberg,Herrenberg,71083,8.862625253,48.59395697,3,,,2604080446,3,h,1,Bauarbeiten,,,,,,,0.0,0.0
8035212096578354289-2604080459-1,22700,,2604080459,,,RB,RB63,,8002785,Herrenberg,Baden-Württemberg,Herrenberg,71083,8.862625253,48.59395697,3,,,2604080459,,,,,,,,,,,0.0,0.0
-5919247800237366863-2604080416-1,28360,,2604080416,,,S,S1,,8002785,Herrenberg,Baden-Württemberg,Herrenberg,71083,8.862625253,48.59395697,3,,,2604080416,,h,1,Bauarbeiten,,,,,,,0.0,0.0
-6088404248444350525-2604080427-10,22709,2604080453,,102,,RB,,Tübingen Hbf|Tübingen West|Unterjesingen Sandäcker|Unterjesingen Mitte|Pfäffingen|Entringen|Altingen(Württ)|Gültstein|Herrenberg Zwerchweg,8002785,Herrenberg,Baden-Württemberg,Herrenberg,71083,8.862625253,48.59395697,3,2604080453,,,,,,,,,,,,,0.0,0.0
-7074048190611233336-2604080348-6,28369,2604080405,2604080406,1,,S,S6,Weil der Stadt|Malmsheim|Renningen|Rutesheim|Leonberg,8002892,Höfingen,Baden-Württemberg,Leonberg,71229,9.026180834,48.81503436,5,2604080406,,2604080406,,h,1,Störung,,,,,,,1.0,0.0
2884405162672083910-2604080441-6,7002,2604080454,2604080454,2,,S,S60,Stuttgart-Zuffenhausen|Neuwirtshaus(Porscheplatz)|Korntal|Weilimdorf|Ditzingen,8002892,Höfingen,Baden-Württemberg,Leonberg,71229,9.026180834,48.81503436,5,2604080454,,2604080454,,,,,,,,,,,0.0,0.0
5411763714021984948-2604080433-6,7601,2604080450,2604080451,1,,S,S6,Weil der Stadt|Malmsheim|Renningen|Rutesheim|Leonberg,8002892,Höfingen,Baden-Württemberg,Leonberg,71229,9.026180834,48.81503436,5,2604080450,,2604080451,,h,1,Störung,,,,,,,0.0,0.0
7889952835218125235-2604080446-5,7102,2604080458,2604080458,2,,S,S1,Herrenberg|Nufringen|Gärtringen|Ehningen(b Böblingen),8003022,Hulb,Baden-Württemberg,Böblingen-Hulb,71032,8.982396429,48.67924173,5,2604080458,,2604080458,,h,1,Bauarbeiten,,,,,,,0.0,0.0
-5919247800237366863-2604080416-5,28360,2604080428,2604080428,2,,S,S1,Herrenberg|Nufringen|Gärtringen|Ehningen(b Böblingen),8003022,Hulb,Baden-Württemberg,Böblingen-Hulb,71032,8.982396429,48.67924173,5,2604080428,,2604080429,,h,1,Bauarbeiten,,,,,,,0.0,1.0
-4550115281200084116-2604080450-1,7103,,2604080450,,,S,S1,,8003280,Kirchheim (Teck),Baden-Württemberg,Kirchheim unter Teck,73230,9.443872422,48.64415981,4,,,2604080451,,h,1,Bauarbeiten,,,,,,,0.0,1.0
-4550115281200084116-2604080450-2,7103,2604080453,2604080453,1,,S,S1,Kirchheim(Teck),8003282,Kirchheim (Teck)-Ötlingen,Baden-Württemberg,Kirchheim unter Teck,73230,9.416261302,48.65782388,5,2604080453,,2604080454,,h,1,Bauarbeiten,,,,,,,0.0,1.0
-7074048190611233336-2604080348-9,28369,2604080413,2604080414,3,,S,S6,Weil der Stadt|Malmsheim|Renningen|Rutesheim|Leonberg|Höfingen|Ditzingen|Weilimdorf,8003409,Korntal,Baden-Württemberg,Korntal,70825,9.121099128,48.82640246,4,2604080415,,2604080416,,h,1,Störung,,,,,,,2.0,2.0
2884405162672083910-2604080441-3,7002,2604080446,2604080446,1,,S,S60,Stuttgart-Zuffenhausen|Neuwirtshaus(Porscheplatz),8003409,Korntal,Baden-Württemberg,Korntal,70825,9.121099128,48.82640246,4,2604080446,,2604080446,,,,,,,,,,,0.0,0.0
5411763714021984948-2604080433-9,7601,2604080458,2604080459,3,,S,S6,Weil der Stadt|Malmsheim|Renningen|Rutesheim|Leonberg|Höfingen|Ditzingen|Weilimdorf,8003409,Korntal,Baden-Württemberg,Korntal,70825,9.121099128,48.82640246,4,2604080458,,2604080459,,h,1,Störung,,,,,,,0.0,0.0
1348020220601344513-2604080352-5,28367,2604080404,2604080405,3,,S,S5,Bietigheim-Bissingen|Tamm(Württ)|Asperg|Ludwigsburg,8003411,Kornwestheim Pbf,Baden-Württemberg,Kornwestheim,70806,9.179967278,48.86215948,3,2604080405,3,2604080405,3,h,1,Störung,,,,,,,1.0,0.0
-9020622847777394381-2604080437-5,7501,2604080449,2604080450,3,,S,S5,Bietigheim-Bissingen|Tamm(Württ)|Asperg|Ludwigsburg,8003411,Kornwestheim Pbf,Baden-Württemberg,Kornwestheim,70806,9.179967278,48.86215948,3,2604080450,,2604080451,,h,1,Störung,,,,,,,1.0,1.0
-2528850404755729-2604080355-6,28365,2604080409,2604080410,3,,S,S4,Marbach(Neckar)|Benningen(Neckar)|Freiberg(Neckar)|Favoritepark|Ludwigsburg,8003411,Kornwestheim Pbf,Baden-Württemberg,Kornwestheim,70806,9.179967278,48.86215948,3,2604080409,3,2604080410,3,h,1,Störung,,,,,,,0.0,0.0
-3405121308737868986-2604080356-21,28363,2604080451,2604080452,1,,S,S3,Backnang|Maubach|Nellmersbach|Winnenden|Schwaikheim|Neustadt-Hohenacker|Waiblingen|Fellbach|Stuttgart-Sommerrain|Stuttgart Nürnberger Str.|Stuttgart-Bad Cannstatt|Stuttgart Hbf (tief)|Stuttgart Stadtmitte|Stuttgart Feuersee|Stuttgart Schwabstr.|Stuttgart Universität|Stuttgart-Österfeld|Stuttgart-Vaihingen|Stuttgart-Rohr|Oberaichen,8003622,Leinfelden,Baden-Württemberg,Leinfelden-Echterdingen,70771,9.142859698,48.6964193,4,2604080500,,2604080501,,h,1,Bauarbeiten,,,,,,,9.0,9.0
-7074048190611233336-2604080348-5,28369,2604080402,2604080402,1,,S,S6,Weil der Stadt|Malmsheim|Renningen|Rutesheim,8003652,Leonberg,Baden-Württemberg,Leonberg,71229,9.004025993,48.79970547,3,2604080403,,2604080403,,h,1,Störung,,,,,,,1.0,1.0
2884405162672083910-2604080441-7,7002,2604080458,2604080458,2,,S,S60,Stuttgart-Zuffenhausen|Neuwirtshaus(Porscheplatz)|Korntal|Weilimdorf|Ditzingen|Höfingen,8003652,Leonberg,Baden-Württemberg,Leonberg,71229,9.004025993,48.79970547,3,2604080458,3,2604080459,3,,,,,,,,,,0.0,1.0
5411763714021984948-2604080433-5,7601,2604080447,2604080447,1,,S,S6,Weil der Stadt|Malmsheim|Renningen|Rutesheim,8003652,Leonberg,Baden-Württemberg,Leonberg,71229,9.004025993,48.79970547,3,2604080447,,2604080447,,h,1,Störung,,,,,,,0.0,0.0
1348020220601344513-2604080352-4,28367,2604080401,2604080401,3,,S,S5,Bietigheim-Bissingen|Tamm(Württ)|Asperg,8000235,Ludwigsburg,Baden-Württemberg,Ludwigsburg,71638,9.185229823,48.89208622,3,2604080402,,2604080402,,h,1,Störung,,,,,,,1.0,1.0
-9020622847777394381-2604080437-4,7501,2604080446,2604080446,3,,S,S5,Bietigheim-Bissingen|Tamm(Württ)|Asperg,8000235,Ludwigsburg,Baden-Württemberg,Ludwigsburg,71638,9.185229823,48.89208622,3,2604080446,,2604080447,,h,1,Störung,,,,,,,0.0,1.0
6839500523111524784-2604080443-2,19210,2604080453,2604080453,1,,RE,MEX18,Stuttgart Hbf,8000235,Ludwigsburg,Baden-Württemberg,Ludwigsburg,71638,9.185229823,48.89208622,3,2604080453,,2604080454,,,,,,,,,,,0.0,1.0
-2528850404755729-2604080355-5,28365,2604080406,2604080406,3,,S,S4,Marbach(Neckar)|Benningen(Neckar)|Freiberg(Neckar)|Favoritepark,8000235,Ludwigsburg,Baden-Württemberg,Ludwigsburg,71638,9.185229823,48.89208622,3,2604080406,,2604080407,,h,1,Störung,,,,,,,0.0,1.0
5411763714021984948-2604080433-2,7601,2604080435,2604080435,2,,S,S6,Weil der Stadt,8003831,Malmsheim,Baden-Württemberg,Renningen,71272,8.905105557,48.77183564,5,2604080436,,2604080436,,h,1,Störung,,,,,,,1.0,1.0
4059477772738430465-2604080455-1,7401,,2604080455,,,S,S4,,8003853,Marbach (Neckar),Baden-Württemberg,Marbach am Neckar,71672,9.264611825,48.9437708,3,,,2604080455,,h,1,Störung,,,,,,,0.0,0.0
8242933012542256606-2604080441-2,7301,2604080443,2604080444,1,,S,S3,Backnang,8003913,Maubach,Baden-Württemberg,Backnang,71522,9.419487062,48.92623463,4,2604080448,,2604080448,,h,1,Bauarbeiten,,,,,,,5.0,4.0
-3405121308737868986-2604080356-3,28363,2604080401,2604080401,2,,S,S3,Backnang|Maubach,8004233,Nellmersbach,Baden-Württemberg,Leutenbach,71397,9.415421538,48.90336425,5,2604080406,,2604080404,,h,1,Bauarbeiten,,,,,,,5.0,3.0
8242933012542256606-2604080441-3,7301,2604080446,2604080446,1,,S,S3,Backnang|Maubach,8004233,Nellmersbach,Baden-Württemberg,Leutenbach,71397,9.415421538,48.90336425,5,2604080452,,2604080452,,h,1,Bauarbeiten,,,,,,,6.0,6.0
-3405121308737868986-2604080356-6,28363,2604080410,2604080410,2,,S,S3,Backnang|Maubach|Nellmersbach|Winnenden|Schwaikheim,8004333,Neustadt-Hohenacker,Baden-Württemberg,Waiblingen,71336,9.32455106,48.85921668,5,2604080419,,2604080419,,h,1,Bauarbeiten,,,,,,,9.0,9.0
8242933012542256606-2604080441-6,7301,2604080455,2604080455,2,,S,S3,Backnang|Maubach|Nellmersbach|Winnenden|Schwaikheim,8004333,Neustadt-Hohenacker,Baden-Württemberg,Waiblingen,71336,9.32455106,48.85921668,5,2604080501,,2604080501,,h,1,Bauarbeiten,,,,,,,6.0,6.0
-7074048190611233336-2604080348-10,28369,2604080416,2604080416,2,,S,S6,Weil der Stadt|Malmsheim|Renningen|Rutesheim|Leonberg|Höfingen|Ditzingen|Weilimdorf|Korntal,8004338,Neuwirtshaus (Porscheplatz),Baden-Württemberg,Stuttgart,70435,9.151955614,48.83384734,4,2604080418,,2604080419,,h,1,Störung,,,,,,,2.0,3.0
2884405162672083910-2604080441-2,7002,2604080443,2604080443,1,,S,S60,Stuttgart-Zuffenhausen,8004338,Neuwirtshaus (Porscheplatz),Baden-Württemberg,Stuttgart,70435,9.151955614,48.83384734,4,2604080443,,2604080444,,,,,,,,,,,0.0,1.0
7889952835218125235-2604080446-2,7102,2604080449,2604080449,2,,S,S1,Herrenberg,8004490,Nufringen,Baden-Württemberg,Nufringen,71154,8.889817485,48.62010967,5,2604080449,,2604080450,,h,1,Bauarbeiten,,,,,,,0.0,1.0
-5919247800237366863-2604080416-2,28360,2604080419,2604080419,2,,S,S1,Herrenberg,8004490,Nufringen,Baden-Württemberg,Nufringen,71154,8.889817485,48.62010967,5,2604080420,,2604080420,,h,1,Bauarbeiten,,,,,,,1.0,1.0
-3405121308737868986-2604080356-20,28363,2604080449,2604080449,1,,S,S3,Backnang|Maubach|Nellmersbach|Winnenden|Schwaikheim|Neustadt-Hohenacker|Waiblingen|Fellbach|Stuttgart-Sommerrain|Stuttgart Nürnberger Str.|Stuttgart-Bad Cannstatt|Stuttgart Hbf (tief)|Stuttgart Stadtmitte|Stuttgart Feuersee|Stuttgart Schwabstr.|Stuttgart Universität|Stuttgart-Österfeld|Stuttgart-Vaihingen|Stuttgart-Rohr,8004496,Oberaichen,Baden-Württemberg,Leinfelden-Echterdingen,70771,9.12743664,48.70512422,5,2604080458,,2604080459,,h,1,Bauarbeiten,,,,,,,9.0,10.0
1781534358873638088-2604080437-4,7101,2604080445,2604080445,3,,S,S1,Plochingen|Altbach|Esslingen-Zell,8004528,Oberesslingen,Baden-Württemberg,Esslingen am Neckar,73730,9.327277435,48.72983585,3,2604080445,,2604080445,,h,1,Bauarbeiten,,,,,,,0.0,0.0
4693049160569863660-2604080353-4,28359,2604080400,2604080400,3,,S,S1,Plochingen|Altbach|Esslingen-Zell,8004528,Oberesslingen,Baden-Württemberg,Esslingen am Neckar,73730,9.327277435,48.72983585,3,2604080400,,2604080400,,h,1,Bauarbeiten,,,,,,,0.0,0.0
1781534358873638088-2604080437-1,7101,,2604080437,,,S,S1,,8000302,Plochingen,Baden-Württemberg,Plochingen,73207,9.411294578,48.71293906,2,,,2604080437,,h,1,Bauarbeiten,,,,,,,0.0,0.0
-2447356391623694549-2604080414-13,19108,2604080456,2604080457,1,,ARV,MEX16,Geislingen(Steige)|Geislingen(Steige)West|Kuchen|Gingen(Fils)|Süßen|Salach|Eislingen(Fils)|Göppingen|Faurndau|Uhingen|Ebersbach(Fils)|Reichenbach(Fils),8000302,Plochingen,Baden-Württemberg,Plochingen,73207,9.411294578,48.71293906,2,2604080456,,2604080457,,,,,,,,,,,0.0,0.0
5411763714021984948-2604080433-3,7601,2604080437,2604080441,2,,S,S6,Weil der Stadt|Malmsheim,8000313,Renningen,Baden-Württemberg,Renningen,71272,8.932650148,48.77515509,3,2604080439,,2604080441,,h,1,Störung,,,,,,,2.0,0.0
8312618108729256880-2604080348-9,28361,2604080406,2604080407,2,,S,S2,Schorndorf|Weiler(Rems)|Winterbach(b Schorndorf)|Geradstetten|Grunbach|Beutelsbach|Endersbach|Stetten-Beinstein,8005157,Rommelshausen,Baden-Württemberg,Kernen,71394,9.319175885,48.81552017,4,2604080406,,2604080407,,h,1,Bauarbeiten,,,,,,,0.0,0.0
5411763714021984948-2604080433-4,7601,2604080443,2604080444,1,,S,S6,Weil der Stadt|Malmsheim|Renningen,8005236,Rutesheim,Baden-Württemberg,Leonberg,71229,8.960325242,48.79031093,5,2604080444,,2604080444,,h,1,Störung,,,,,,,1.0,0.0
7239447269276523252-2604080448-1,7203,,2604080448,,,S,S2,,8005424,Schorndorf,Baden-Württemberg,Schorndorf,73614,9.525686251,48.80693898,3,,,2604080451,,h,1,Bauarbeiten,,,,,,,0.0,3.0
-3405121308737868986-2604080356-5,28363,2604080407,2604080408,1,,S,S3,Backnang|Maubach|Nellmersbach|Winnenden,8005454,Schwaikheim,Baden-Württemberg,Schwaikheim,71409,9.354747358,48.86832665,4,2604080416,,2604080417,,h,1,Bauarbeiten,,,,,,,9.0,9.0
8242933012542256606-2604080441-5,7301,2604080452,2604080453,1,,S,S3,Backnang|Maubach|Nellmersbach|Winnenden,8005454,Schwaikheim,Baden-Württemberg,Schwaikheim,71409,9.354747358,48.86832665,4,2604080458,,2604080458,,h,1,Bauarbeiten,,,,,,,6.0,5.0
8312618108729256880-2604080348-8,28361,2604080404,2604080404,2,,S,S2,Schorndorf|Weiler(Rems)|Winterbach(b Schorndorf)|Geradstetten|Grunbach|Beutelsbach|Endersbach,8005726,Stetten-Beinstein,Baden-Württemberg,Weinstadt,71384,9.352769725,48.81199601,5,2604080404,,2604080404,,h,1,Bauarbeiten,,,,,,,0.0,0.0
9095100448455970117-2604080453-1,19052,,2604080453,,,ARV,RE8,,8000096,Stuttgart Hbf,Baden-Württemberg,Stuttgart,70173,9.183172973,48.78473069,1,,,2604080453,,,,,,,,,,,0.0,0.0
-7178872726415890131-2604080458-1,17611,,2604080458,,,RE,RE14a,,8000096,Stuttgart Hbf,Baden-Württemberg,Stuttgart,70173,9.183172973,48.78473069,1,,,2604080458,,,,,,,,,,,0.0,0.0
7314216531638087218-2604080458-1,7500,,2604080458,,,S,S5,,8000096,Stuttgart Hbf,Baden-Württemberg,Stuttgart,70173,9.183172973,48.78473069,1,,,2604080500,2,h,1,Störung,,,,,,,0.0,2.0
-2605312677894761496-2604080442-1,19109,,2604080442,,,ARV,MEX16,,8000096,Stuttgart Hbf,Baden-Württemberg,Stuttgart,70173,9.183172973,48.78473069,1,,,2604080442,,,,,,,,,,,0.0,0.0
6839500523111524784-2604080443-1,19210,,2604080443,,,RE,MEX18,,8000096,Stuttgart Hbf,Baden-Württemberg,Stuttgart,70173,9.183172973,48.78473069,1,,,2604080443,,,,,,,,,,,0.0,0.0
9124798165350701033-2604080423-1,88631,,2604080423,,,ARV,RE90,,8000096,Stuttgart Hbf,Baden-Württemberg,Stuttgart,70173,9.183172973,48.78473069,1,,,2604080423,,,,,,,,,,,0.0,0.0
6779514588305592946-2604080447-1,19451,,2604080447,,,ARV,MEX13,,8000096,Stuttgart Hbf,Baden-Württemberg,Stuttgart,70173,9.183172973,48.78473069,1,,,2604080447,,,,,,,,,,,0.0,0.0
1781534358873638088-2604080437-9,7101,2604080457,2604080457,1,,S,S1,Plochingen|Altbach|Esslingen-Zell|Oberesslingen|Esslingen(Neckar)|Esslingen-Mettingen|Stuttgart-Obertürkheim|Stuttgart-Untertürkheim,8006743,Stuttgart Neckarpark,Baden-Württemberg,Stuttgart,70372,9.24106855,48.79194362,4,2604080457,,2604080457,,h,1,Bauarbeiten,,,,,,,0.0,0.0
4693049160569863660-2604080353-9,28359,2604080412,2604080412,1,,S,S1,Plochingen|Altbach|Esslingen-Zell|Oberesslingen|Esslingen(Neckar)|Esslingen-Mettingen|Stuttgart-Obertürkheim|Stuttgart-Untertürkheim,8006743,Stuttgart Neckarpark,Baden-Württemberg,Stuttgart,70372,9.24106855,48.79194362,4,2604080413,,2604080413,,h,1,Bauarbeiten,,,,,,,1.0,1.0
-7074048190611233336-2604080348-13,28369,2604080423,2604080424,4,,S,S6,Weil der Stadt|Malmsheim|Renningen|Rutesheim|Leonberg|Höfingen|Ditzingen|Weilimdorf|Korntal|Neuwirtshaus(Porscheplatz)|Stuttgart-Zuffenhausen|Stuttgart-Feuerbach,8005767,Stuttgart Nord,Baden-Württemberg,Stuttgard-Nord,70174,9.188061449,48.80374161,5,2604080423,4,2604080424,4,h,1,Störung,,,,,c,c,0.0,0.0
1348020220601344513-2604080352-8,28367,2604080413,2604080414,4,,S,S5,Bietigheim-Bissingen|Tamm(Württ)|Asperg|Ludwigsburg|Kornwestheim Pbf|Stuttgart-Zuffenhausen|Stuttgart-Feuerbach,8005767,Stuttgart Nord,Baden-Württemberg,Stuttgard-Nord,70174,9.188061449,48.80374161,5,2604080415,3,2604080416,3,h,1,Störung,,,,,,,2.0,2.0
-9020622847777394381-2604080437-8,7501,2604080458,2604080459,4,,S,S5,Bietigheim-Bissingen|Tamm(Württ)|Asperg|Ludwigsburg|Kornwestheim Pbf|Stuttgart-Zuffenhausen|Stuttgart-Feuerbach,8005767,Stuttgart Nord,Baden-Württemberg,Stuttgard-Nord,70174,9.188061449,48.80374161,5,2604080501,3,2604080502,3,h,1,Störung,,,,,,,3.0,3.0
-2528850404755729-2604080355-9,28365,2604080418,2604080419,4,,S,S4,Marbach(Neckar)|Benningen(Neckar)|Freiberg(Neckar)|Favoritepark|Ludwigsburg|Kornwestheim Pbf|Stuttgart-Zuffenhausen|Stuttgart-Feuerbach,8005767,Stuttgart Nord,Baden-Württemberg,Stuttgard-Nord,70174,9.188061449,48.80374161,5,2604080429,3,2604080429,3,h,1,Störung,,,,,,,11.0,10.0
-3405121308737868986-2604080356-10,28363,2604080422,2604080423,1,,S,S3,Backnang|Maubach|Nellmersbach|Winnenden|Schwaikheim|Neustadt-Hohenacker|Waiblingen|Fellbach|Stuttgart-Sommerrain,8004357,Stuttgart Nürnberger Straße,Baden-Württemberg,Stuttgart,70374,9.234576905,48.80656062,5,2604080430,,2604080430,,h,1,Bauarbeiten,,,,,,,8.0,7.0
8312618108729256880-2604080348-13,28361,2604080417,2604080418,1,,S,S2,Schorndorf|Weiler(Rems)|Winterbach(b Schorndorf)|Geradstetten|Grunbach|Beutelsbach|Endersbach|Stetten-Beinstein|Rommelshausen|Waiblingen|Fellbach|Stuttgart-Sommerrain,8004357,Stuttgart Nürnberger Straße,Baden-Württemberg,Stuttgart,70374,9.234576905,48.80656062,5,2604080417,,2604080418,,h,1,Bauarbeiten,,,,,,,0.0,0.0
-3405121308737868986-2604080356-17,28363,2604080442,2604080442,1,,S,S3,Backnang|Maubach|Nellmersbach|Winnenden|Schwaikheim|Neustadt-Hohenacker|Waiblingen|Fellbach|Stuttgart-Sommerrain|Stuttgart Nürnberger Str.|Stuttgart-Bad Cannstatt|Stuttgart Hbf (tief)|Stuttgart Stadtmitte|Stuttgart Feuersee|Stuttgart Schwabstr.|Stuttgart Universität,8005779,Stuttgart Österfeld,Baden-Württemberg,Stuttgart,70563,9.116751457,48.73749946,4,2604080452,,2604080452,,h,1,Bauarbeiten,,,,,,,10.0,10.0
4693049160569863660-2604080353-16,28359,2604080432,2604080432,1,,S,S1,Plochingen|Altbach|Esslingen-Zell|Oberesslingen|Esslingen(Neckar)|Esslingen-Mettingen|Stuttgart-Obertürkheim|Stuttgart-Untertürkheim|Stuttgart Neckarpark|Stuttgart-Bad Cannstatt|Stuttgart Hbf (tief)|Stuttgart Stadtmitte|Stuttgart Feuersee|Stuttgart Schwabstr.|Stuttgart Universität,8005779,Stuttgart Österfeld,Baden-Württemberg,Stuttgart,70563,9.116751457,48.73749946,4,2604080435,,2604080436,,h,1,Bauarbeiten,,,,,,,3.0,4.0
-3405121308737868986-2604080356-16,28363,2604080440,2604080440,1,,S,S3,Backnang|Maubach|Nellmersbach|Winnenden|Schwaikheim|Neustadt-Hohenacker|Waiblingen|Fellbach|Stuttgart-Sommerrain|Stuttgart Nürnberger Str.|Stuttgart-Bad Cannstatt|Stuttgart Hbf (tief)|Stuttgart Stadtmitte|Stuttgart Feuersee|Stuttgart Schwabstr.,8006513,Stuttgart Universität,Baden-Württemberg,Stuttgart,70569,9.105864214,48.74511762,4,2604080450,,2604080450,,h,1,Bauarbeiten,,,,,,,10.0,10.0
4693049160569863660-2604080353-15,28359,2604080430,2604080430,1,,S,S1,Plochingen|Altbach|Esslingen-Zell|Oberesslingen|Esslingen(Neckar)|Esslingen-Mettingen|Stuttgart-Obertürkheim|Stuttgart-Untertürkheim|Stuttgart Neckarpark|Stuttgart-Bad Cannstatt|Stuttgart Hbf (tief)|Stuttgart Stadtmitte|Stuttgart Feuersee|Stuttgart Schwabstr.,8006513,Stuttgart Universität,Baden-Württemberg,Stuttgart,70569,9.105864214,48.74511762,4,2604080433,,2604080434,,h,1,Bauarbeiten,,,,,,,3.0,4.0
-3405121308737868986-2604080356-11,28363,2604080425,2604080426,2,,S,S3,Backnang|Maubach|Nellmersbach|Winnenden|Schwaikheim|Neustadt-Hohenacker|Waiblingen|Fellbach|Stuttgart-Sommerrain|Stuttgart Nürnberger Str.,8005769,Stuttgart-Bad Cannstatt,Baden-Württemberg,Stuttgart,70372,9.217468636,48.80127978,3,2604080433,,2604080437,,h,1,Bauarbeiten,,,,,,,8.0,11.0
-2605312677894761496-2604080442-2,19109,2604080445,2604080446,4,,ARV,MEX16,Stuttgart Hbf,8005769,Stuttgart-Bad Cannstatt,Baden-Württemberg,Stuttgart,70372,9.217468636,48.80127978,3,2604080446,,2604080447,,,,,,,,,,,1.0,1.0
8312618108729256880-2604080348-14,28361,2604080420,2604080421,2,,S,S2,Schorndorf|Weiler(Rems)|Winterbach(b Schorndorf)|Geradstetten|Grunbach|Beutelsbach|Endersbach|Stetten-Beinstein|Rommelshausen|Waiblingen|Fellbach|Stuttgart-Sommerrain|Stuttgart Nürnberger Str.,8005769,Stuttgart-Bad Cannstatt,Baden-Württemberg,Stuttgart,70372,9.217468636,48.80127978,3,2604080421,,2604080423,,h,1,Bauarbeiten,,,,,,,1.0,2.0
9124798165350701033-2604080423-2,88631,2604080426,2604080427,7,,ARV,RE90,Stuttgart Hbf,8005769,Stuttgart-Bad Cannstatt,Baden-Württemberg,Stuttgart,70372,9.217468636,48.80127978,3,2604080426,,2604080427,,,,,,,,,,,0.0,0.0
4693049160569863660-2604080353-10,28359,2604080415,2604080416,2,,S,S1,Plochingen|Altbach|Esslingen-Zell|Oberesslingen|Esslingen(Neckar)|Esslingen-Mettingen|Stuttgart-Obertürkheim|Stuttgart-Untertürkheim|Stuttgart Neckarpark,8005769,Stuttgart-Bad Cannstatt,Baden-Württemberg,Stuttgart,70372,9.217468636,48.80127978,3,2604080416,,2604080416,,h,1,Bauarbeiten,,,,,,,1.0,0.0
1728872097549432269-2604080451-1,7201,,2604080451,,,S,S2,,8005769,Stuttgart-Bad Cannstatt,Baden-Württemberg,Stuttgart,70372,9.217468636,48.80127978,3,,,2604080451,1,h,1,Bauarbeiten,,,,,,,0.0,0.0
6779514588305592946-2604080447-2,19451,2604080450,2604080452,7,,ARV,MEX13,Stuttgart Hbf,8005769,Stuttgart-Bad Cannstatt,Baden-Württemberg,Stuttgart,70372,9.217468636,48.80127978,3,2604080450,,2604080452,,,,,,,,,,,0.0,0.0
-7074048190611233336-2604080348-12,28369,2604080421,2604080421,1,,S,S6,Weil der Stadt|Malmsheim|Renningen|Rutesheim|Leonberg|Höfingen|Ditzingen|Weilimdorf|Korntal|Neuwirtshaus(Porscheplatz)|Stuttgart-Zuffenhausen,8005770,Stuttgart-Feuerbach,Baden-Württemberg,Feuerbach,70469,9.169186287,48.81363554,3,2604080421,1,2604080423,1,h,1,Störung,,,,,c,c,0.0,2.0
1348020220601344513-2604080352-7,28367,2604080411,2604080411,1,,S,S5,Bietigheim-Bissingen|Tamm(Württ)|Asperg|Ludwigsburg|Kornwestheim Pbf|Stuttgart-Zuffenhausen,8005770,Stuttgart-Feuerbach,Baden-Württemberg,Feuerbach,70469,9.169186287,48.81363554,3,2604080413,2,2604080414,2,h,1,Störung,,,,,,,2.0,3.0
-9020622847777394381-2604080437-7,7501,2604080456,2604080456,1,,S,S5,Bietigheim-Bissingen|Tamm(Württ)|Asperg|Ludwigsburg|Kornwestheim Pbf|Stuttgart-Zuffenhausen,8005770,Stuttgart-Feuerbach,Baden-Württemberg,Feuerbach,70469,9.169186287,48.81363554,3,2604080459,2,2604080459,2,h,1,Störung,,,,,,,3.0,3.0
-2528850404755729-2604080355-8,28365,2604080416,2604080416,1,,S,S4,Marbach(Neckar)|Benningen(Neckar)|Freiberg(Neckar)|Favoritepark|Ludwigsburg|Kornwestheim Pbf|Stuttgart-Zuffenhausen,8005770,Stuttgart-Feuerbach,Baden-Württemberg,Feuerbach,70469,9.169186287,48.81363554,3,2604080427,2,2604080426,2,h,1,Störung,,,,,,,11.0,10.0
-3405121308737868986-2604080356-14,28363,2604080433,2604080434,1,,S,S3,Backnang|Maubach|Nellmersbach|Winnenden|Schwaikheim|Neustadt-Hohenacker|Waiblingen|Fellbach|Stuttgart-Sommerrain|Stuttgart Nürnberger Str.|Stuttgart-Bad Cannstatt|Stuttgart Hbf (tief)|Stuttgart Stadtmitte,8006699,Stuttgart Feuersee,Baden-Württemberg,Stuttgart,70176,9.165850846,48.7726173,3,2604080444,,2604080444,,h,1,Bauarbeiten,,,,,,,11.0,10.0
-7074048190611233336-2604080348-16,28369,2604080431,2604080431,1,,S,S6,Weil der Stadt|Malmsheim|Renningen|Rutesheim|Leonberg|Höfingen|Ditzingen|Weilimdorf|Korntal|Neuwirtshaus(Porscheplatz)|Stuttgart-Zuffenhausen|Stuttgart-Feuerbach|Stuttgart Nordbahnhof|Stuttgart Hbf (tief)|Stuttgart Stadtmitte,8006699,Stuttgart Feuersee,Baden-Württemberg,Stuttgart,70176,9.165850846,48.7726173,3,2604080431,,2604080431,,h,1,Störung,,,,,c,c,0.0,0.0
1348020220601344513-2604080352-11,28367,2604080421,2604080421,1,,S,S5,Bietigheim-Bissingen|Tamm(Württ)|Asperg|Ludwigsburg|Kornwestheim Pbf|Stuttgart-Zuffenhausen|Stuttgart-Feuerbach|Stuttgart Nordbahnhof|Stuttgart Hbf (tief)|Stuttgart Stadtmitte,8006699,Stuttgart Feuersee,Baden-Württemberg,Stuttgart,70176,9.165850846,48.7726173,3,2604080424,,2604080425,,h,1,Störung,,,,,,,3.0,4.0
8312618108729256880-2604080348-17,28361,2604080428,2604080429,1,,S,S2,Schorndorf|Weiler(Rems)|Winterbach(b Schorndorf)|Geradstetten|Grunbach|Beutelsbach|Endersbach|Stetten-Beinstein|Rommelshausen|Waiblingen|Fellbach|Stuttgart-Sommerrain|Stuttgart Nürnberger Str.|Stuttgart-Bad Cannstatt|Stuttgart Hbf (tief)|Stuttgart Stadtmitte,8006699,Stuttgart Feuersee,Baden-Württemberg,Stuttgart,70176,9.165850846,48.7726173,3,2604080430,,2604080430,,h,1,Bauarbeiten,,,,,,,2.0,1.0
-2528850404755729-2604080355-12,28365,2604080426,2604080426,1,,S,S4,Marbach(Neckar)|Benningen(Neckar)|Freiberg(Neckar)|Favoritepark|Ludwigsburg|Kornwestheim Pbf|Stuttgart-Zuffenhausen|Stuttgart-Feuerbach|Stuttgart Nordbahnhof|Stuttgart Hbf (tief)|Stuttgart Stadtmitte,8006699,Stuttgart Feuersee,Baden-Württemberg,Stuttgart,70176,9.165850846,48.7726173,3,2604080437,,2604080438,,h,1,Störung,,,,,,,11.0,12.0
4693049160569863660-2604080353-13,28359,2604080423,2604080424,1,,S,S1,Plochingen|Altbach|Esslingen-Zell|Oberesslingen|Esslingen(Neckar)|Esslingen-Mettingen|Stuttgart-Obertürkheim|Stuttgart-Untertürkheim|Stuttgart Neckarpark|Stuttgart-Bad Cannstatt|Stuttgart Hbf (tief)|Stuttgart Stadtmitte,8006699,Stuttgart Feuersee,Baden-Württemberg,Stuttgart,70176,9.165850846,48.7726173,3,2604080426,,2604080426,,h,1,Bauarbeiten,,,,,,,3.0,2.0
1728872097549432269-2604080451-4,7201,2604080458,2604080459,1,,S,S2,Stuttgart-Bad Cannstatt|Stuttgart Hbf (tief)|Stuttgart Stadtmitte,8006699,Stuttgart Feuersee,Baden-Württemberg,Stuttgart,70176,9.165850846,48.7726173,3,2604080458,,2604080459,,h,1,Bauarbeiten,,,,,,,0.0,0.0
1781534358873638088-2604080437-7,7101,2604080452,2604080452,5,,S,S1,Plochingen|Altbach|Esslingen-Zell|Oberesslingen|Esslingen(Neckar)|Esslingen-Mettingen,8005772,Stuttgart-Obertürkheim,Baden-Württemberg,Stuttgart,70329,9.268167932,48.76175015,4,2604080452,,2604080452,,h,1,Bauarbeiten,,,,,,,0.0,0.0
4693049160569863660-2604080353-7,28359,2604080407,2604080407,5,,S,S1,Plochingen|Altbach|Esslingen-Zell|Oberesslingen|Esslingen(Neckar)|Esslingen-Mettingen,8005772,Stuttgart-Obertürkheim,Baden-Württemberg,Stuttgart,70329,9.268167932,48.76175015,4,2604080408,,2604080409,,h,1,Bauarbeiten,,,,,,,1.0,2.0
-3405121308737868986-2604080356-19,28363,2604080446,2604080447,2,,S,S3,Backnang|Maubach|Nellmersbach|Winnenden|Schwaikheim|Neustadt-Hohenacker|Waiblingen|Fellbach|Stuttgart-Sommerrain|Stuttgart Nürnberger Str.|Stuttgart-Bad Cannstatt|Stuttgart Hbf (tief)|Stuttgart Stadtmitte|Stuttgart Feuersee|Stuttgart Schwabstr.|Stuttgart Universität|Stuttgart-Österfeld|Stuttgart-Vaihingen,8005773,Stuttgart-Rohr,Baden-Württemberg,Stuttgart,70565,9.108158025,48.71799427,4,2604080456,,2604080456,,h,1,Bauarbeiten,,,,,,,10.0,9.0
-5919247800237366863-2604080416-8,28360,2604080438,2604080439,3,,S,S1,Herrenberg|Nufringen|Gärtringen|Ehningen(b Böblingen)|Hulb|Böblingen|Goldberg(Württ),8005773,Stuttgart-Rohr,Baden-Württemberg,Stuttgart,70565,9.108158025,48.71799427,4,2604080438,,2604080439,,h,1,Bauarbeiten,,,,,,,0.0,0.0
-3405121308737868986-2604080356-15,28363,2604080435,2604080435,1,,S,S3,Backnang|Maubach|Nellmersbach|Winnenden|Schwaikheim|Neustadt-Hohenacker|Waiblingen|Fellbach|Stuttgart-Sommerrain|Stuttgart Nürnberger Str.|Stuttgart-Bad Cannstatt|Stuttgart Hbf (tief)|Stuttgart Stadtmitte|Stuttgart Feuersee,8006698,Stuttgart Schwabstraße,Baden-Württemberg,Stuttgart,70197,9.156496717,48.77013954,3,2604080446,,2604080446,,h,1,Bauarbeiten,,,,,,,11.0,11.0
-7074048190611233336-2604080348-17,28369,2604080433,,1,,S,,Weil der Stadt|Malmsheim|Renningen|Rutesheim|Leonberg|Höfingen|Ditzingen|Weilimdorf|Korntal|Neuwirtshaus(Porscheplatz)|Stuttgart-Zuffenhausen|Stuttgart-Feuerbach|Stuttgart Nordbahnhof|Stuttgart Hbf (tief)|Stuttgart Stadtmitte|Stuttgart Feuersee,8006698,Stuttgart Schwabstraße,Baden-Württemberg,Stuttgart,70197,9.156496717,48.77013954,3,2604080433,,,,h,1,Störung,,,,,c,,0.0,0.0
1348020220601344513-2604080352-12,28367,2604080423,,1,,S,,Bietigheim-Bissingen|Tamm(Württ)|Asperg|Ludwigsburg|Kornwestheim Pbf|Stuttgart-Zuffenhausen|Stuttgart-Feuerbach|Stuttgart Nordbahnhof|Stuttgart Hbf (tief)|Stuttgart Stadtmitte|Stuttgart Feuersee,8006698,Stuttgart Schwabstraße,Baden-Württemberg,Stuttgart,70197,9.156496717,48.77013954,3,2604080426,,,,h,1,Störung,,,,,,,3.0,0.0
8312618108729256880-2604080348-18,28361,2604080430,,1,,S,,Schorndorf|Weiler(Rems)|Winterbach(b Schorndorf)|Geradstetten|Grunbach|Beutelsbach|Endersbach|Stetten-Beinstein|Rommelshausen|Waiblingen|Fellbach|Stuttgart-Sommerrain|Stuttgart Nürnberger Str.|Stuttgart-Bad Cannstatt|Stuttgart Hbf (tief)|Stuttgart Stadtmitte|Stuttgart Feuersee,8006698,Stuttgart Schwabstraße,Baden-Württemberg,Stuttgart,70197,9.156496717,48.77013954,3,2604080432,,,,h,1,Bauarbeiten,,,,,,,2.0,0.0
-2528850404755729-2604080355-13,28365,2604080428,,1,,S,,Marbach(Neckar)|Benningen(Neckar)|Freiberg(Neckar)|Favoritepark|Ludwigsburg|Kornwestheim Pbf|Stuttgart-Zuffenhausen|Stuttgart-Feuerbach|Stuttgart Nordbahnhof|Stuttgart Hbf (tief)|Stuttgart Stadtmitte|Stuttgart Feuersee,8006698,Stuttgart Schwabstraße,Baden-Württemberg,Stuttgart,70197,9.156496717,48.77013954,3,2604080439,,,,h,1,Störung,,,,,,,11.0,0.0
4693049160569863660-2604080353-14,28359,2604080425,2604080425,1,,S,S1,Plochingen|Altbach|Esslingen-Zell|Oberesslingen|Esslingen(Neckar)|Esslingen-Mettingen|Stuttgart-Obertürkheim|Stuttgart-Untertürkheim|Stuttgart Neckarpark|Stuttgart-Bad Cannstatt|Stuttgart Hbf (tief)|Stuttgart Stadtmitte|Stuttgart Feuersee,8006698,Stuttgart Schwabstraße,Baden-Württemberg,Stuttgart,70197,9.156496717,48.77013954,3,2604080428,,2604080429,,h,1,Bauarbeiten,,,,,,,3.0,4.0
-3405121308737868986-2604080356-9,28363,2604080420,2604080420,1,,S,S3,Backnang|Maubach|Nellmersbach|Winnenden|Schwaikheim|Neustadt-Hohenacker|Waiblingen|Fellbach,8005774,Stuttgart-Sommerrain,Baden-Württemberg,Stuttgart,70374,9.248369749,48.81521824,5,2604080428,,2604080428,,h,1,Bauarbeiten,,,,,,,8.0,8.0
8312618108729256880-2604080348-12,28361,2604080415,2604080415,1,,S,S2,Schorndorf|Weiler(Rems)|Winterbach(b Schorndorf)|Geradstetten|Grunbach|Beutelsbach|Endersbach|Stetten-Beinstein|Rommelshausen|Waiblingen|Fellbach,8005774,Stuttgart-Sommerrain,Baden-Württemberg,Stuttgart,70374,9.248369749,48.81521824,5,2604080415,,2604080415,,h,1,Bauarbeiten,,,,,,,0.0,0.0
-3405121308737868986-2604080356-13,28363,2604080432,2604080432,1,,S,S3,Backnang|Maubach|Nellmersbach|Winnenden|Schwaikheim|Neustadt-Hohenacker|Waiblingen|Fellbach|Stuttgart-Sommerrain|Stuttgart Nürnberger Str.|Stuttgart-Bad Cannstatt|Stuttgart Hbf (tief),8006700,Stuttgart Stadtmitte,Baden-Württemberg,Stuttgart,70173,9.173046906,48.77632953,3,2604080442,,2604080443,,h,1,Bauarbeiten,,,,,,,10.0,11.0
-7074048190611233336-2604080348-15,28369,2604080429,2604080430,1,,S,S6,Weil der Stadt|Malmsheim|Renningen|Rutesheim|Leonberg|Höfingen|Ditzingen|Weilimdorf|Korntal|Neuwirtshaus(Porscheplatz)|Stuttgart-Zuffenhausen|Stuttgart-Feuerbach|Stuttgart Nordbahnhof|Stuttgart Hbf (tief),8006700,Stuttgart Stadtmitte,Baden-Württemberg,Stuttgart,70173,9.173046906,48.77632953,3,2604080429,,2604080430,,h,1,Störung,,,,,c,c,0.0,0.0
1348020220601344513-2604080352-10,28367,2604080419,2604080420,1,,S,S5,Bietigheim-Bissingen|Tamm(Württ)|Asperg|Ludwigsburg|Kornwestheim Pbf|Stuttgart-Zuffenhausen|Stuttgart-Feuerbach|Stuttgart Nordbahnhof|Stuttgart Hbf (tief),8006700,Stuttgart Stadtmitte,Baden-Württemberg,Stuttgart,70173,9.173046906,48.77632953,3,2604080422,,2604080423,,h,1,Störung,,,,,,,3.0,3.0
8312618108729256880-2604080348-16,28361,2604080427,2604080427,1,,S,S2,Schorndorf|Weiler(Rems)|Winterbach(b Schorndorf)|Geradstetten|Grunbach|Beutelsbach|Endersbach|Stetten-Beinstein|Rommelshausen|Waiblingen|Fellbach|Stuttgart-Sommerrain|Stuttgart Nürnberger Str.|Stuttgart-Bad Cannstatt|Stuttgart Hbf (tief),8006700,Stuttgart Stadtmitte,Baden-Württemberg,Stuttgart,70173,9.173046906,48.77632953,3,2604080428,,2604080429,,h,1,Bauarbeiten,,,,,,,1.0,2.0
-2528850404755729-2604080355-11,28365,2604080424,2604080425,1,,S,S4,Marbach(Neckar)|Benningen(Neckar)|Freiberg(Neckar)|Favoritepark|Ludwigsburg|Kornwestheim Pbf|Stuttgart-Zuffenhausen|Stuttgart-Feuerbach|Stuttgart Nordbahnhof|Stuttgart Hbf (tief),8006700,Stuttgart Stadtmitte,Baden-Württemberg,Stuttgart,70173,9.173046906,48.77632953,3,2604080436,,2604080436,,h,1,Störung,,,,,,,12.0,11.0
4693049160569863660-2604080353-12,28359,2604080422,2604080422,1,,S,S1,Plochingen|Altbach|Esslingen-Zell|Oberesslingen|Esslingen(Neckar)|Esslingen-Mettingen|Stuttgart-Obertürkheim|Stuttgart-Untertürkheim|Stuttgart Neckarpark|Stuttgart-Bad Cannstatt|Stuttgart Hbf (tief),8006700,Stuttgart Stadtmitte,Baden-Württemberg,Stuttgart,70173,9.173046906,48.77632953,3,2604080424,,2604080425,,h,1,Bauarbeiten,,,,,,,2.0,3.0
1728872097549432269-2604080451-3,7201,2604080457,2604080457,1,,S,S2,Stuttgart-Bad Cannstatt|Stuttgart Hbf (tief),8006700,Stuttgart Stadtmitte,Baden-Württemberg,Stuttgart,70173,9.173046906,48.77632953,3,2604080457,,2604080457,,h,1,Bauarbeiten,,,,,,,0.0,0.0
1781534358873638088-2604080437-8,7101,2604080455,2604080455,5,,S,S1,Plochingen|Altbach|Esslingen-Zell|Oberesslingen|Esslingen(Neckar)|Esslingen-Mettingen|Stuttgart-Obertürkheim,8005775,Stuttgart-Untertürkheim Pbf,Baden-Württemberg,Stuttgart,70327,9.250467074,48.77984679,3,2604080455,,2604080455,,h,1,Bauarbeiten,,,,,,,0.0,0.0
4693049160569863660-2604080353-8,28359,2604080410,2604080410,5,,S,S1,Plochingen|Altbach|Esslingen-Zell|Oberesslingen|Esslingen(Neckar)|Esslingen-Mettingen|Stuttgart-Obertürkheim,8005775,Stuttgart-Untertürkheim Pbf,Baden-Württemberg,Stuttgart,70327,9.250467074,48.77984679,3,2604080411,,2604080411,,h,1,Bauarbeiten,,,,,,,1.0,1.0
-3405121308737868986-2604080356-18,28363,2604080444,2604080445,2,,S,S3,Backnang|Maubach|Nellmersbach|Winnenden|Schwaikheim|Neustadt-Hohenacker|Waiblingen|Fellbach|Stuttgart-Sommerrain|Stuttgart Nürnberger Str.|Stuttgart-Bad Cannstatt|Stuttgart Hbf (tief)|Stuttgart Stadtmitte|Stuttgart Feuersee|Stuttgart Schwabstr.|Stuttgart Universität|Stuttgart-Österfeld,8005776,Stuttgart-Vaihingen,Baden-Württemberg,Stuttgart,70563,9.113913368,48.72698116,3,2604080454,,2604080454,,h,1,Bauarbeiten,,,,,,,10.0,9.0
-5919247800237366863-2604080416-9,28360,2604080440,,3,,S,,Herrenberg|Nufringen|Gärtringen|Ehningen(b Böblingen)|Hulb|Böblingen|Goldberg(Württ)|Stuttgart-Rohr,8005776,Stuttgart-Vaihingen,Baden-Württemberg,Stuttgart,70563,9.113913368,48.72698116,3,2604080440,,,,h,1,Bauarbeiten,,,,,,,0.0,0.0
4693049160569863660-2604080353-17,28359,2604080434,,2,,S,,Plochingen|Altbach|Esslingen-Zell|Oberesslingen|Esslingen(Neckar)|Esslingen-Mettingen|Stuttgart-Obertürkheim|Stuttgart-Untertürkheim|Stuttgart Neckarpark|Stuttgart-Bad Cannstatt|Stuttgart Hbf (tief)|Stuttgart Stadtmitte|Stuttgart Feuersee|Stuttgart Schwabstr.|Stuttgart Universität|Stuttgart-Österfeld,8005776,Stuttgart-Vaihingen,Baden-Württemberg,Stuttgart,70563,9.113913368,48.72698116,3,2604080437,,,,h,1,Bauarbeiten,,,,,,,3.0,0.0
-7074048190611233336-2604080348-8,28369,2604080411,2604080411,2,,S,S6,Weil der Stadt|Malmsheim|Renningen|Rutesheim|Leonberg|Höfingen|Ditzingen,8006268,Stuttgart-Weilimdorf,Baden-Württemberg,Stuttgart,70499,9.094370086,48.82208429,5,2604080412,,2604080412,,h,1,Störung,,,,,,,1.0,1.0
2884405162672083910-2604080441-4,7002,2604080448,2604080448,1,,S,S60,Stuttgart-Zuffenhausen|Neuwirtshaus(Porscheplatz)|Korntal,8006268,Stuttgart-Weilimdorf,Baden-Württemberg,Stuttgart,70499,9.094370086,48.82208429,5,2604080448,,2604080448,,,,,,,,,,,0.0,0.0
5411763714021984948-2604080433-8,7601,2604080456,2604080456,2,,S,S6,Weil der Stadt|Malmsheim|Renningen|Rutesheim|Leonberg|Höfingen|Ditzingen,8006268,Stuttgart-Weilimdorf,Baden-Württemberg,Stuttgart,70499,9.094370086,48.82208429,5,2604080456,,2604080456,,h,1,Störung,,,,,,,0.0,0.0
-7074048190611233336-2604080348-11,28369,2604080418,2604080419,12,,S,S6,Weil der Stadt|Malmsheim|Renningen|Rutesheim|Leonberg|Höfingen|Ditzingen|Weilimdorf|Korntal|Neuwirtshaus(Porscheplatz),8005778,Stuttgart-Zuffenhausen,Baden-Württemberg,Stuttgart,70435,9.167156375,48.82960884,3,2604080421,12,2604080419,12,h,1,Störung,,,,,,c,3.0,0.0
2884405162672083910-2604080441-1,7002,,2604080441,,,S,S60,,8005778,Stuttgart-Zuffenhausen,Baden-Württemberg,Stuttgart,70435,9.167156375,48.82960884,3,,,2604080442,,,,,,,,,,,0.0,1.0
1348020220601344513-2604080352-6,28367,2604080408,2604080409,2,,S,S5,Bietigheim-Bissingen|Tamm(Württ)|Asperg|Ludwigsburg|Kornwestheim Pbf,8005778,Stuttgart-Zuffenhausen,Baden-Württemberg,Stuttgart,70435,9.167156375,48.82960884,3,2604080408,2,2604080409,2,h,1,Störung,,,,,,,0.0,0.0
-9020622847777394381-2604080437-6,7501,2604080453,2604080454,2,,S,S5,Bietigheim-Bissingen|Tamm(Württ)|Asperg|Ludwigsburg|Kornwestheim Pbf,8005778,Stuttgart-Zuffenhausen,Baden-Württemberg,Stuttgart,70435,9.167156375,48.82960884,3,2604080454,,2604080454,,h,1,Störung,,,,,,,1.0,0.0
-2528850404755729-2604080355-7,28365,2604080413,2604080414,2,,S,S4,Marbach(Neckar)|Benningen(Neckar)|Freiberg(Neckar)|Favoritepark|Ludwigsburg|Kornwestheim Pbf,8005778,Stuttgart-Zuffenhausen,Baden-Württemberg,Stuttgart,70435,9.167156375,48.82960884,3,2604080413,2,2604080423,2,h,1,Störung,,,,,,,0.0,9.0
-9020622847777394381-2604080437-2,7501,2604080440,2604080440,2,,S,S5,Bietigheim-Bissingen,8005820,Tamm (Württ),Baden-Württemberg,Tamm,71732,9.125288012,48.92187736,4,2604080441,,2604080441,,h,1,Störung,,,,,,,1.0,1.0
-3405121308737868986-2604080356-7,28363,2604080414,2604080415,1,,S,S3,Backnang|Maubach|Nellmersbach|Winnenden|Schwaikheim|Neustadt-Hohenacker,8000180,Waiblingen,Baden-Württemberg,Waiblingen,71332,9.300476874,48.8262444,3,2604080423,,2604080423,,h,1,Bauarbeiten,,,,,,,9.0,8.0
8242933012542256606-2604080441-7,7301,2604080459,2604080500,1,,S,S3,Backnang|Maubach|Nellmersbach|Winnenden|Schwaikheim|Neustadt-Hohenacker,8000180,Waiblingen,Baden-Württemberg,Waiblingen,71332,9.300476874,48.8262444,3,2604080505,,2604080505,,h,1,Bauarbeiten,,,,,,,6.0,5.0
8312618108729256880-2604080348-10,28361,2604080409,2604080410,5,,S,S2,Schorndorf|Weiler(Rems)|Winterbach(b Schorndorf)|Geradstetten|Grunbach|Beutelsbach|Endersbach|Stetten-Beinstein|Rommelshausen,8000180,Waiblingen,Baden-Württemberg,Waiblingen,71332,9.300476874,48.8262444,3,2604080409,,2604080410,,h,1,Bauarbeiten,,,,,,,0.0,0.0
9124798165350701033-2604080423-3,88631,2604080435,2604080435,3,,ARV,RE90,Stuttgart Hbf|Stuttgart-Bad Cannstatt,8000180,Waiblingen,Baden-Württemberg,Waiblingen,71332,9.300476874,48.8262444,3,2604080434,,2604080435,,,,,,,,,,,-1.0,0.0
5411763714021984948-2604080433-1,7601,,2604080433,,,S,S6,,8006271,Weil der Stadt,Baden-Württemberg,Weil der Stadt,71263,8.873189074,48.7557357,4,,,2604080433,2,h,1,Störung,,,,,,,0.0,0.0
7239447269276523252-2604080448-2,7203,2604080451,2604080451,2,,S,S2,Schorndorf,8006277,Weiler (Rems),Baden-Württemberg,Schorndorf,76314,9.501891172,48.80034585,5,2604080454,,2604080454,,h,1,Bauarbeiten,,,,,,,3.0,3.0
-4550115281200084116-2604080450-3,7103,2604080457,2604080458,12,,S,S1,Kirchheim(Teck)|Kirchheim(Teck)-Ötlingen,8006331,Wendlingen (Neckar),Baden-Württemberg,Wendlingen am Neckar,73240,9.373662098,48.67368917,3,2604080457,,2604080458,,h,1,Bauarbeiten,,,,,,,0.0,0.0
-3405121308737868986-2604080356-4,28363,2604080404,2604080405,1,,S,S3,Backnang|Maubach|Nellmersbach,8006479,Winnenden,Baden-Württemberg,Winnenden,71364,9.392155928,48.8795625,3,2604080414,,2604080413,,h,1,Bauarbeiten,,,,,,,10.0,8.0
8242933012542256606-2604080441-4,7301,2604080449,2604080450,3,,S,S3,Backnang|Maubach|Nellmersbach,8006479,Winnenden,Baden-Württemberg,Winnenden,71364,9.392155928,48.8795625,3,2604080455,,2604080455,,h,1,Bauarbeiten,,,,,,,6.0,5.0
9124798165350701033-2604080423-4,88631,2604080443,2604080444,2,,ARV,RE90,Stuttgart Hbf|Stuttgart-Bad Cannstatt|Waiblingen,8006479,Winnenden,Baden-Württemberg,Winnenden,71364,9.392155928,48.8795625,3,2604080442,,2604080444,,,,,,,,,,,-1.0,0.0
7239447269276523252-2604080448-3,7203,2604080453,2604080453,1,,S,S2,Schorndorf|Weiler(Rems),8006485,Winterbach (b Schorndorf),Baden-Württemberg,Winterbach,73650,9.481549751,48.79842743,4,2604080456,,2604080456,,h,1,Bauarbeiten,,,,,,,3.0,3.0
-3405121308737868986-2604080356-12,28363,2604080430,2604080430,101,,S,S3,Backnang|Maubach|Nellmersbach|Winnenden|Schwaikheim|Neustadt-Hohenacker|Waiblingen|Fellbach|Stuttgart-Sommerrain|Stuttgart Nürnberger Str.|Stuttgart-Bad Cannstatt,8098096,Stuttgart Hbf (tief),Baden-Württemberg,Stuttgart,70173,9.180228831,48.78338649,1,2604080440,,2604080441,,h,1,Bauarbeiten,,,,,,,10.0,11.0
-7074048190611233336-2604080348-14,28369,2604080427,2604080428,101,,S,S6,Weil der Stadt|Malmsheim|Renningen|Rutesheim|Leonberg|Höfingen|Ditzingen|Weilimdorf|Korntal|Neuwirtshaus(Porscheplatz)|Stuttgart-Zuffenhausen|Stuttgart-Feuerbach|Stuttgart Nordbahnhof,8098096,Stuttgart Hbf (tief),Baden-Württemberg,Stuttgart,70173,9.180228831,48.78338649,1,2604080427,,2604080428,,h,1,Störung,,,,,c,c,0.0,0.0
1348020220601344513-2604080352-9,28367,2604080417,2604080418,101,,S,S5,Bietigheim-Bissingen|Tamm(Württ)|Asperg|Ludwigsburg|Kornwestheim Pbf|Stuttgart-Zuffenhausen|Stuttgart-Feuerbach|Stuttgart Nordbahnhof,8098096,Stuttgart Hbf (tief),Baden-Württemberg,Stuttgart,70173,9.180228831,48.78338649,1,2604080420,,2604080421,,h,1,Störung,,,,,,,3.0,3.0
8312618108729256880-2604080348-15,28361,2604080425,2604080425,101,,S,S2,Schorndorf|Weiler(Rems)|Winterbach(b Schorndorf)|Geradstetten|Grunbach|Beutelsbach|Endersbach|Stetten-Beinstein|Rommelshausen|Waiblingen|Fellbach|Stuttgart-Sommerrain|Stuttgart Nürnberger Str.|Stuttgart-Bad Cannstatt,8098096,Stuttgart Hbf (tief),Baden-Württemberg,Stuttgart,70173,9.180228831,48.78338649,1,2604080426,,2604080427,,h,1,Bauarbeiten,,,,,,,1.0,2.0
-2528850404755729-2604080355-10,28365,2604080422,2604080423,101,,S,S4,Marbach(Neckar)|Benningen(Neckar)|Freiberg(Neckar)|Favoritepark|Ludwigsburg|Kornwestheim Pbf|Stuttgart-Zuffenhausen|Stuttgart-Feuerbach|Stuttgart Nordbahnhof,8098096,Stuttgart Hbf (tief),Baden-Württemberg,Stuttgart,70173,9.180228831,48.78338649,1,2604080434,,2604080435,,h,1,Störung,,,,,,,12.0,12.0
4693049160569863660-2604080353-11,28359,2604080420,2604080420,101,,S,S1,Plochingen|Altbach|Esslingen-Zell|Oberesslingen|Esslingen(Neckar)|Esslingen-Mettingen|Stuttgart-Obertürkheim|Stuttgart-Untertürkheim|Stuttgart Neckarpark|Stuttgart-Bad Cannstatt,8098096,Stuttgart Hbf (tief),Baden-Württemberg,Stuttgart,70173,9.180228831,48.78338649,1,2604080422,,2604080423,,h,1,Bauarbeiten,,,,,,,2.0,3.0
1728872097549432269-2604080451-2,7201,2604080455,2604080455,101,,S,S2,Stuttgart-Bad Cannstatt,8098096,Stuttgart Hbf (tief),Baden-Württemberg,Stuttgart,70173,9.180228831,48.78338649,1,2604080455,,2604080455,,h,1,Bauarbeiten,,,,,,,0.0,0.0
