ID,train_number,planned_arrival,planned_departure,planned_platform,planned_status,category_train,train,path,eva_nr,station_name,station_state,station_city,station_zipcode,station_long,station_lat,station_category,changed_arrival,changed_platform_arrival,changed_departure,changed_platform_departure,message_status,priority,info,arrival_hidden,departure_hidden,arrival_path,departure_path,arrival_status,departure_status,arrival_delay_m,departure_delay_m
2686007473625185344-2601222350-6,618,2601230216.0,2601230222.0,10,,ICE,,München Hbf|München-Pasing|Augsburg Hbf|Günzburg|Ulm Hbf,8000096,Stuttgart Hbf,Baden-Württemberg,Stuttgart,70173,9.183172973,48.78473069,1,2601230225.0,,2601230233.0,,h,2.0,Information,,,,,,,9.0,11.0
4693049160569863660-2601230353-2,28359,2601230355.0,2601230355.0,3.0,,S,S1,Plochingen,8000508,Altbach,Baden-Württemberg,Altbach,73776,9.382434033,48.72031354,3,2601230355.0,,2601230355.0,,,,,,,,,,,0.0,0.0
1348020220601344513-2601230352-3,28367,2601230357.0,2601230358.0,3.0,,S,S5,Bietigheim-Bissingen|Tamm(Württ),8000630,Asperg,Baden-Württemberg,Asperg,71679,9.147977466,48.90725609,4,2601230357.0,,2601230358.0,,h,2.0,Störung,,,,,,,0.0,0.0
-3405121308737868986-2601230356-1,28363,,2601230356.0,,,S,S3,,8000016,Backnang,Baden-Württemberg,Backnang,71522,9.425986107,48.94264844,3,,,2601230356.0,5.0,,,,,,,,,,0.0,0.0
-2528850404755729-2601230355-2,28365,2601230357.0,2601230357.0,2.0,,S,S4,Marbach(Neckar),8000873,Benningen (Neckar),Baden-Württemberg,Benningen am Neckar,71726,9.244299075,48.94379773,5,2601230357.0,,2601230357.0,,h,1.0,Bauarbeiten,,,,,,,0.0,0.0
1348020220601344513-2601230352-1,28367,,2601230352.0,,,S,S5,,8000038,Bietigheim-Bissingen,Baden-Württemberg,Bietigheim-Bissingen,74321,9.137217396,48.94794988,2,,,2601230352.0,,h,2.0,Störung,,,,,,,0.0,0.0
4693049160569863660-2601230353-3,28359,2601230357.0,2601230357.0,3.0,,S,S1,Plochingen|Altbach,8006642,Esslingen-Zell,Baden-Württemberg,Esslingen am Neckar,73730,9.359739507,48.72436142,3,2601230357.0,,2601230357.0,,,,,,,,,,,0.0,0.0
8312618108729256880-2601230348-4,28361,2601230355.0,2601230356.0,1.0,,S,S2,Schorndorf|Weiler(Rems)|Winterbach(b Schorndorf),8002240,Geradstetten,Baden-Württemberg,Remshalden,73630,9.439522346,48.80527689,5,2601230355.0,,2601230356.0,,,,,,,,,,,0.0,0.0
8312618108729256880-2601230348-5,28361,2601230357.0,2601230358.0,2.0,,S,S2,Schorndorf|Weiler(Rems)|Winterbach(b Schorndorf)|Geradstetten,8002448,Grunbach,Baden-Württemberg,Remshalden,73630,9.419580601,48.810414,4,2601230357.0,,2601230358.0,,,,,,,,,,,0.0,0.0
-7074048190611233336-2601230348-2,28369,2601230350.0,2601230350.0,2.0,,S,S6,Weil der Stadt,8003831,Malmsheim,Baden-Württemberg,Renningen,71272,8.905105557,48.77183564,5,2601230352.0,,2601230352.0,,h,1.0,Bauarbeiten,,,,,,,2.0,2.0
-2528850404755729-2601230355-1,28365,,2601230355.0,,,S,S4,,8003853,Marbach (Neckar),Baden-Württemberg,Marbach am Neckar,71672,9.264611825,48.9437708,3,,,2601230355.0,1.0,h,1.0,Bauarbeiten,,,,,,,0.0,0.0
-3405121308737868986-2601230356-2,28363,2601230358.0,2601230359.0,1.0,,S,S3,Backnang,8003913,Maubach,Baden-Württemberg,Backnang,71522,9.419487062,48.92623463,4,2601230358.0,,2601230359.0,,,,,,,,,,,0.0,0.0
4693049160569863660-2601230353-1,28359,,2601230353.0,,,S,S1,,8000302,Plochingen,Baden-Württemberg,Plochingen,73207,9.411294578,48.71293906,2,,,2601230353.0,,,,,,,,,,,0.0,0.0
-7074048190611233336-2601230348-3,28369,2601230352.0,2601230356.0,2.0,,S,S6,Weil der Stadt|Malmsheim,8000313,Renningen,Baden-Württemberg,Renningen,71272,8.932650148,48.77515509,3,2601230354.0,,2601230357.0,,h,1.0,Bauarbeiten,,,,,,,2.0,1.0
-7074048190611233336-2601230348-4,28369,2601230358.0,2601230359.0,1.0,,S,S6,Weil der Stadt|Malmsheim|Renningen,8005236,Rutesheim,Baden-Württemberg,Leonberg,71229,8.960325242,48.79031093,5,2601230359.0,,2601230359.0,,h,1.0,Bauarbeiten,,,,,,,1.0,0.0
8312618108729256880-2601230348-1,28361,,2601230348.0,,,S,S2,,8005424,Schorndorf,Baden-Württemberg,Schorndorf,73614,9.525686251,48.80693898,3,,,2601230348.0,,,,,,,,,,,0.0,0.0
1348020220601344513-2601230352-2,28367,2601230355.0,2601230355.0,2.0,,S,S5,Bietigheim-Bissingen,8005820,Tamm (Württ),Baden-Württemberg,Tamm,71732,9.125288012,48.92187736,4,2601230355.0,,2601230355.0,,h,2.0,Störung,,,,,,,0.0,0.0
-7074048190611233336-2601230348-1,28369,,2601230348.0,,,S,S6,,8006271,Weil der Stadt,Baden-Württemberg,Weil der Stadt,71263,8.873189074,48.7557357,4,,,2601230348.0,2.0,h,1.0,Bauarbeiten,,,,,,,0.0,0.0
8312618108729256880-2601230348-2,28361,2601230351.0,2601230351.0,2.0,,S,S2,Schorndorf,8006277,Weiler (Rems),Baden-Württemberg,Schorndorf,76314,9.501891172,48.80034585,5,2601230351.0,,2601230351.0,,,,,,,,,,,0.0,0.0
8312618108729256880-2601230348-3,28361,2601230353.0,2601230353.0,1.0,,S,S2,Schorndorf|Weiler(Rems),8006485,Winterbach (b Schorndorf),Baden-Württemberg,Winterbach,73650,9.481549751,48.79842743,4,2601230353.0,,2601230353.0,,,,,,,,,,,0.0,0.0
-8304442680762532771-2601230016-24,7180,2601230120.0,2601230120.0,3.0,,S,S1,Herrenberg|Nufringen|Gärtringen|Ehningen(b Böblingen)|Hulb|Böblingen|Goldberg(Württ)|Stuttgart-Rohr|Stuttgart-Vaihingen|Stuttgart-Österfeld|Stuttgart Universität|Stuttgart Schwabstr.|Stuttgart Feuersee|Stuttgart Stadtmitte|Stuttgart Hbf (tief)|Stuttgart-Bad Cannstatt|Stuttgart Neckarpark|Stuttgart-Untertürkheim|Stuttgart-Obertürkheim|Esslingen-Mettingen|Esslingen(Neckar)|Oberesslingen|Esslingen-Zell,8000508,Altbach,Baden-Württemberg,Altbach,73776,9.382434033,48.72031354,3,2601230122.0,4.0,2601230123.0,4.0,h,1.0,Bauarbeiten,,,,,,,2.0,3.0
-4825921784207905950-2601230058-7,7580,2601230117.0,2601230117.0,4.0,,S,S5,Stuttgart Hbf|Stuttgart Nordbahnhof|Stuttgart-Feuerbach|Stuttgart-Zuffenhausen|Kornwestheim Pbf|Ludwigsburg,8000630,Asperg,Baden-Württemberg,Asperg,71679,9.147977466,48.90725609,4,2601230124.0,,2601230125.0,,h,2.0,Störung,,,,,,,7.0,8.0
-1026300521424850676-2601230100-18,7380,2601230148.0,,4.0,,S,,Stuttgart-Vaihingen|Stuttgart-Österfeld|Stuttgart Universität|Stuttgart Schwabstr.|Stuttgart Feuersee|Stuttgart Stadtmitte|Stuttgart Hbf (tief)|Stuttgart-Bad Cannstatt|Stuttgart Nürnberger Str.|Stuttgart-Sommerrain|Fellbach|Waiblingen|Neustadt-Hohenacker|Schwaikheim|Winnenden|Nellmersbach|Maubach,8000016,Backnang,Baden-Württemberg,Backnang,71522,9.425986107,48.94264844,3,2601230149.0,5.0,,,,,,,,,,,,1.0,0.0
8783147669502223203-2601230030-18,7378,2601230118.0,,1.0,,S,,Stuttgart-Vaihingen|Stuttgart-Österfeld|Stuttgart Universität|Stuttgart Schwabstr.|Stuttgart Feuersee|Stuttgart Stadtmitte|Stuttgart Hbf (tief)|Stuttgart-Bad Cannstatt|Stuttgart Nürnberger Str.|Stuttgart-Sommerrain|Fellbach|Waiblingen|Neustadt-Hohenacker|Schwaikheim|Winnenden|Nellmersbach|Maubach,8000016,Backnang,Baden-Württemberg,Backnang,71522,9.425986107,48.94264844,3,2601230118.0,,,,,,,,,,,,,0.0,0.0
7233641886849346147-2601230054-4,7476,2601230102.0,2601230103.0,1.0,,S,S4,Ludwigsburg|Favoritepark|Freiberg(Neckar),8000873,Benningen (Neckar),Baden-Württemberg,Benningen am Neckar,71726,9.244299075,48.94379773,5,2601230103.0,,2601230104.0,,h,1.0,Bauarbeiten,,,,,,,1.0,1.0
5616658975002130036-2601230124-4,7478,2601230132.0,2601230133.0,1.0,,S,S4,Ludwigsburg|Favoritepark|Freiberg(Neckar),8000873,Benningen (Neckar),Baden-Württemberg,Benningen am Neckar,71726,9.244299075,48.94379773,5,2601230133.0,,2601230133.0,,h,1.0,Bauarbeiten,,,,,,,1.0,0.0
1541038896405338370-2601230033-22,7278,2601230128.0,2601230128.0,1.0,,S,S2,Filderstadt|Stuttgart Flughafen/Messe|Echterdingen|Leinfelden|Oberaichen|Stuttgart-Rohr|Stuttgart-Vaihingen|Stuttgart-Österfeld|Stuttgart Universität|Stuttgart Schwabstr.|Stuttgart Feuersee|Stuttgart Stadtmitte|Stuttgart Hbf (tief)|Stuttgart-Bad Cannstatt|Stuttgart Nürnberger Str.|Stuttgart-Sommerrain|Fellbach|Waiblingen|Rommelshausen|Stetten-Beinstein|Endersbach,8000934,Beutelsbach,Baden-Württemberg,Weinstadt,71384,9.38551589,48.81038925,5,2601230128.0,,2601230128.0,,,,,,,,,,,0.0,0.0
-4825921784207905950-2601230058-9,7580,2601230124.0,,5.0,,S,,Stuttgart Hbf|Stuttgart Nordbahnhof|Stuttgart-Feuerbach|Stuttgart-Zuffenhausen|Kornwestheim Pbf|Ludwigsburg|Asperg|Tamm(Württ),8000038,Bietigheim-Bissingen,Baden-Württemberg,Bietigheim-Bissingen,74321,9.137217396,48.94794988,2,2601230131.0,6.0,,,h,2.0,Störung,,,,,,,7.0,0.0
2856584661102317991-2601230037-20,7181,2601230129.0,2601230129.0,4.0,,S,S1,Plochingen|Altbach|Esslingen-Zell|Oberesslingen|Esslingen(Neckar)|Esslingen-Mettingen|Stuttgart-Obertürkheim|Stuttgart-Untertürkheim|Stuttgart Neckarpark|Stuttgart-Bad Cannstatt|Stuttgart Hbf (tief)|Stuttgart Stadtmitte|Stuttgart Feuersee|Stuttgart Schwabstr.|Stuttgart Universität|Stuttgart-Österfeld|Stuttgart-Vaihingen|Stuttgart-Rohr|Goldberg(Württ),8001055,Böblingen,Baden-Württemberg,Böblingen,71034,9.004531864,48.68784871,3,2601230133.0,,2601230134.0,,,,,,,,,,,4.0,5.0
-4290766941278586427-2601230054-6,7678,2601230106.0,2601230106.0,2.0,,S,S6,Stuttgart-Feuerbach|Stuttgart-Zuffenhausen|Neuwirtshaus(Porscheplatz)|Korntal|Weilimdorf,8001476,Ditzingen,Baden-Württemberg,Ditzingen,71254,9.067095186,48.82358726,4,2601230106.0,,2601230106.0,,h,1.0,Bauarbeiten,,,,,,,0.0,0.0
-8097229136581884814-2601230018-25,7281,2601230119.0,2601230120.0,1.0,,S,S2,Schorndorf|Weiler(Rems)|Winterbach(b Schorndorf)|Geradstetten|Grunbach|Beutelsbach|Endersbach|Stetten-Beinstein|Rommelshausen|Waiblingen|Fellbach|Stuttgart-Sommerrain|Stuttgart Nürnberger Str.|Stuttgart-Bad Cannstatt|Stuttgart Hbf (tief)|Stuttgart Stadtmitte|Stuttgart Feuersee|Stuttgart Schwabstr.|Stuttgart Universität|Stuttgart-Österfeld|Stuttgart-Vaihingen|Stuttgart-Rohr|Oberaichen|Leinfelden,8001650,Echterdingen,Baden-Württemberg,Echterdingen,70771,9.169307175,48.69214787,4,2601230119.0,,2601230120.0,,,,,,,,,,,0.0,0.0
-5993932775737470099-2601230007-22,7179,2601230104.0,2601230104.0,2.0,,S,S1,Plochingen|Altbach|Esslingen-Zell|Oberesslingen|Esslingen(Neckar)|Esslingen-Mettingen|Stuttgart-Obertürkheim|Stuttgart-Untertürkheim|Stuttgart Neckarpark|Stuttgart-Bad Cannstatt|Stuttgart Hbf (tief)|Stuttgart Stadtmitte|Stuttgart Feuersee|Stuttgart Schwabstr.|Stuttgart Universität|Stuttgart-Österfeld|Stuttgart-Vaihingen|Stuttgart-Rohr|Goldberg(Württ)|Böblingen|Hulb,8001689,Ehningen (b Böblingen),Baden-Württemberg,Ehningen,71139,8.944310368,48.66275549,4,2601230109.0,,2601230110.0,,,,,,,,,,,5.0,6.0
2856584661102317991-2601230037-22,7181,2601230134.0,2601230134.0,2.0,,S,S1,Plochingen|Altbach|Esslingen-Zell|Oberesslingen|Esslingen(Neckar)|Esslingen-Mettingen|Stuttgart-Obertürkheim|Stuttgart-Untertürkheim|Stuttgart Neckarpark|Stuttgart-Bad Cannstatt|Stuttgart Hbf (tief)|Stuttgart Stadtmitte|Stuttgart Feuersee|Stuttgart Schwabstr.|Stuttgart Universität|Stuttgart-Österfeld|Stuttgart-Vaihingen|Stuttgart-Rohr|Goldberg(Württ)|Böblingen|Hulb,8001689,Ehningen (b Böblingen),Baden-Württemberg,Ehningen,71139,8.944310368,48.66275549,4,2601230138.0,,2601230139.0,,,,,,,,,,,4.0,5.0
1541038896405338370-2601230033-21,7278,2601230126.0,2601230126.0,2.0,,S,S2,Filderstadt|Stuttgart Flughafen/Messe|Echterdingen|Leinfelden|Oberaichen|Stuttgart-Rohr|Stuttgart-Vaihingen|Stuttgart-Österfeld|Stuttgart Universität|Stuttgart Schwabstr.|Stuttgart Feuersee|Stuttgart Stadtmitte|Stuttgart Hbf (tief)|Stuttgart-Bad Cannstatt|Stuttgart Nürnberger Str.|Stuttgart-Sommerrain|Fellbach|Waiblingen|Rommelshausen|Stetten-Beinstein,8001785,Endersbach,Baden-Württemberg,Weinstadt,71384,9.370192421,48.81317323,4,2601230126.0,,2601230126.0,,,,,,,,,,,0.0,0.0
-8304442680762532771-2601230016-21,7180,2601230112.0,2601230113.0,8.0,,S,S1,Herrenberg|Nufringen|Gärtringen|Ehningen(b Böblingen)|Hulb|Böblingen|Goldberg(Württ)|Stuttgart-Rohr|Stuttgart-Vaihingen|Stuttgart-Österfeld|Stuttgart Universität|Stuttgart Schwabstr.|Stuttgart Feuersee|Stuttgart Stadtmitte|Stuttgart Hbf (tief)|Stuttgart-Bad Cannstatt|Stuttgart Neckarpark|Stuttgart-Untertürkheim|Stuttgart-Obertürkheim|Esslingen-Mettingen,8001920,Esslingen (Neckar),Baden-Württemberg,Esslingen am Neckar,73728,9.300578149,48.73854148,3,2601230116.0,,2601230116.0,,h,1.0,Bauarbeiten,,,,,,,4.0,3.0
6538495934741560204-2601222346-20,19188,2601230104.0,2601230105.0,3.0,,ARV,MEX16,Ulm Hbf|Beimerstetten|Westerstetten|Lonsee|Urspring|Amstetten(Württ)|Geislingen(Steige)|Geislingen(Steige)West|Kuchen|Gingen(Fils)|Süßen|Salach|Eislingen(Fils)|Göppingen|Faurndau|Uhingen|Ebersbach(Fils)|Reichenbach(Fils)|Plochingen,8001920,Esslingen (Neckar),Baden-Württemberg,Esslingen am Neckar,73728,9.300578149,48.73854148,3,2601230104.0,7.0,2601230105.0,7.0,,,,,,,,,,0.0,0.0
-6491793160727462036-2601230048-3,19343,2601230059.0,2601230100.0,5.0,,RE,MEX12,Stuttgart Hbf|Stuttgart-Bad Cannstatt,8001920,Esslingen (Neckar),Baden-Württemberg,Esslingen am Neckar,73728,9.300578149,48.73854148,3,2601230107.0,8.0,2601230107.0,8.0,,,,,,,,,,8.0,7.0
-8304442680762532771-2601230016-20,7180,2601230109.0,2601230109.0,3.0,,S,S1,Herrenberg|Nufringen|Gärtringen|Ehningen(b Böblingen)|Hulb|Böblingen|Goldberg(Württ)|Stuttgart-Rohr|Stuttgart-Vaihingen|Stuttgart-Österfeld|Stuttgart Universität|Stuttgart Schwabstr.|Stuttgart Feuersee|Stuttgart Stadtmitte|Stuttgart Hbf (tief)|Stuttgart-Bad Cannstatt|Stuttgart Neckarpark|Stuttgart-Untertürkheim|Stuttgart-Obertürkheim,8001921,Esslingen-Mettingen,Baden-Württemberg,Esslingen am Neckar,73733,9.275799007,48.74696655,3,2601230113.0,4.0,2601230114.0,4.0,h,1.0,Bauarbeiten,,,,,,,4.0,5.0
-8304442680762532771-2601230016-23,7180,2601230117.0,2601230118.0,3.0,,S,S1,Herrenberg|Nufringen|Gärtringen|Ehningen(b Böblingen)|Hulb|Böblingen|Goldberg(Württ)|Stuttgart-Rohr|Stuttgart-Vaihingen|Stuttgart-Österfeld|Stuttgart Universität|Stuttgart Schwabstr.|Stuttgart Feuersee|Stuttgart Stadtmitte|Stuttgart Hbf (tief)|Stuttgart-Bad Cannstatt|Stuttgart Neckarpark|Stuttgart-Untertürkheim|Stuttgart-Obertürkheim|Esslingen-Mettingen|Esslingen(Neckar)|Oberesslingen,8006642,Esslingen-Zell,Baden-Württemberg,Esslingen am Neckar,73730,9.359739507,48.72436142,3,2601230120.0,4.0,2601230121.0,4.0,h,1.0,Bauarbeiten,,,,,,,3.0,3.0
5616658975002130036-2601230124-2,7478,2601230126.0,2601230126.0,1.0,,S,S4,Ludwigsburg,8001967,Favoritepark,Baden-Württemberg,Ludwigsburg,71634,9.180574277,48.90948451,5,2601230126.0,,2601230127.0,,h,1.0,Bauarbeiten,,,,,,,0.0,1.0
-1026300521424850676-2601230100-11,7380,2601230126.0,2601230127.0,1.0,,S,S3,Stuttgart-Vaihingen|Stuttgart-Österfeld|Stuttgart Universität|Stuttgart Schwabstr.|Stuttgart Feuersee|Stuttgart Stadtmitte|Stuttgart Hbf (tief)|Stuttgart-Bad Cannstatt|Stuttgart Nürnberger Str.|Stuttgart-Sommerrain,8001974,Fellbach,Baden-Württemberg,Fellbach,70736,9.270645988,48.8202936,3,2601230127.0,,2601230127.0,,,,,,,,,,,1.0,0.0
1541038896405338370-2601230033-17,7278,2601230116.0,2601230117.0,1.0,,S,S2,Filderstadt|Stuttgart Flughafen/Messe|Echterdingen|Leinfelden|Oberaichen|Stuttgart-Rohr|Stuttgart-Vaihingen|Stuttgart-Österfeld|Stuttgart Universität|Stuttgart Schwabstr.|Stuttgart Feuersee|Stuttgart Stadtmitte|Stuttgart Hbf (tief)|Stuttgart-Bad Cannstatt|Stuttgart Nürnberger Str.|Stuttgart-Sommerrain,8001974,Fellbach,Baden-Württemberg,Fellbach,70736,9.270645988,48.8202936,3,2601230116.0,,2601230117.0,,,,,,,,,,,0.0,0.0
-8097229136581884814-2601230018-26,7281,2601230122.0,2601230123.0,1.0,,S,S2,Schorndorf|Weiler(Rems)|Winterbach(b Schorndorf)|Geradstetten|Grunbach|Beutelsbach|Endersbach|Stetten-Beinstein|Rommelshausen|Waiblingen|Fellbach|Stuttgart-Sommerrain|Stuttgart Nürnberger Str.|Stuttgart-Bad Cannstatt|Stuttgart Hbf (tief)|Stuttgart Stadtmitte|Stuttgart Feuersee|Stuttgart Schwabstr.|Stuttgart Universität|Stuttgart-Österfeld|Stuttgart-Vaihingen|Stuttgart-Rohr|Oberaichen|Leinfelden|Echterdingen,8005768,Stuttgart Flughafen/Messe,Baden-Württemberg,Leinfelden-Echterdingen,70629,9.193411574,48.69075193,4,2601230122.0,,2601230123.0,,,,,,,,,,,0.0,0.0
5616658975002130036-2601230124-3,7478,2601230129.0,2601230129.0,3.0,,S,S4,Ludwigsburg|Favoritepark,8002065,Freiberg (Neckar),Baden-Württemberg,Freiberg am Neckar,71691,9.197530085,48.92994974,5,2601230129.0,,2601230130.0,,h,1.0,Bauarbeiten,,,,,,,0.0,1.0
-5993932775737470099-2601230007-23,7179,2601230107.0,2601230107.0,1.0,,S,S1,Plochingen|Altbach|Esslingen-Zell|Oberesslingen|Esslingen(Neckar)|Esslingen-Mettingen|Stuttgart-Obertürkheim|Stuttgart-Untertürkheim|Stuttgart Neckarpark|Stuttgart-Bad Cannstatt|Stuttgart Hbf (tief)|Stuttgart Stadtmitte|Stuttgart Feuersee|Stuttgart Schwabstr.|Stuttgart Universität|Stuttgart-Österfeld|Stuttgart-Vaihingen|Stuttgart-Rohr|Goldberg(Württ)|Böblingen|Hulb|Ehningen(b Böblingen),8002165,Gärtringen,Baden-Württemberg,Gärtringen,71116,8.908864487,48.64080021,5,2601230112.0,,2601230113.0,,,,,,,,,,,5.0,6.0
2856584661102317991-2601230037-23,7181,2601230137.0,2601230137.0,1.0,,S,S1,Plochingen|Altbach|Esslingen-Zell|Oberesslingen|Esslingen(Neckar)|Esslingen-Mettingen|Stuttgart-Obertürkheim|Stuttgart-Untertürkheim|Stuttgart Neckarpark|Stuttgart-Bad Cannstatt|Stuttgart Hbf (tief)|Stuttgart Stadtmitte|Stuttgart Feuersee|Stuttgart Schwabstr.|Stuttgart Universität|Stuttgart-Österfeld|Stuttgart-Vaihingen|Stuttgart-Rohr|Goldberg(Württ)|Böblingen|Hulb|Ehningen(b Böblingen),8002165,Gärtringen,Baden-Württemberg,Gärtringen,71116,8.908864487,48.64080021,5,2601230141.0,,2601230142.0,,,,,,,,,,,4.0,5.0
1541038896405338370-2601230033-24,7278,2601230132.0,2601230132.0,2.0,,S,S2,Filderstadt|Stuttgart Flughafen/Messe|Echterdingen|Leinfelden|Oberaichen|Stuttgart-Rohr|Stuttgart-Vaihingen|Stuttgart-Österfeld|Stuttgart Universität|Stuttgart Schwabstr.|Stuttgart Feuersee|Stuttgart Stadtmitte|Stuttgart Hbf (tief)|Stuttgart-Bad Cannstatt|Stuttgart Nürnberger Str.|Stuttgart-Sommerrain|Fellbach|Waiblingen|Rommelshausen|Stetten-Beinstein|Endersbach|Beutelsbach|Grunbach,8002240,Geradstetten,Baden-Württemberg,Remshalden,73630,9.439522346,48.80527689,5,2601230132.0,,2601230132.0,,,,,,,,,,,0.0,0.0
224206650494097505-2601230003-24,7276,2601230102.0,2601230102.0,2.0,,S,S2,Filderstadt|Stuttgart Flughafen/Messe|Echterdingen|Leinfelden|Oberaichen|Stuttgart-Rohr|Stuttgart-Vaihingen|Stuttgart-Österfeld|Stuttgart Universität|Stuttgart Schwabstr.|Stuttgart Feuersee|Stuttgart Stadtmitte|Stuttgart Hbf (tief)|Stuttgart-Bad Cannstatt|Stuttgart Nürnberger Str.|Stuttgart-Sommerrain|Fellbach|Waiblingen|Rommelshausen|Stetten-Beinstein|Endersbach|Beutelsbach|Grunbach,8002240,Geradstetten,Baden-Württemberg,Remshalden,73630,9.439522346,48.80527689,5,2601230102.0,,2601230102.0,,,,,,,,,,,0.0,0.0
2856584661102317991-2601230037-19,7181,2601230127.0,2601230127.0,1.0,,S,S1,Plochingen|Altbach|Esslingen-Zell|Oberesslingen|Esslingen(Neckar)|Esslingen-Mettingen|Stuttgart-Obertürkheim|Stuttgart-Untertürkheim|Stuttgart Neckarpark|Stuttgart-Bad Cannstatt|Stuttgart Hbf (tief)|Stuttgart Stadtmitte|Stuttgart Feuersee|Stuttgart Schwabstr.|Stuttgart Universität|Stuttgart-Österfeld|Stuttgart-Vaihingen|Stuttgart-Rohr,8005201,Goldberg,Baden-Württemberg,Böblingen,71032,9.019733387,48.69651581,5,2601230131.0,,2601230132.0,,,,,,,,,,,4.0,5.0
1541038896405338370-2601230033-23,7278,2601230130.0,2601230130.0,3.0,,S,S2,Filderstadt|Stuttgart Flughafen/Messe|Echterdingen|Leinfelden|Oberaichen|Stuttgart-Rohr|Stuttgart-Vaihingen|Stuttgart-Österfeld|Stuttgart Universität|Stuttgart Schwabstr.|Stuttgart Feuersee|Stuttgart Stadtmitte|Stuttgart Hbf (tief)|Stuttgart-Bad Cannstatt|Stuttgart Nürnberger Str.|Stuttgart-Sommerrain|Fellbach|Waiblingen|Rommelshausen|Stetten-Beinstein|Endersbach|Beutelsbach,8002448,Grunbach,Baden-Württemberg,Remshalden,73630,9.419580601,48.810414,4,2601230130.0,,2601230130.0,,,,,,,,,,,0.0,0.0
224206650494097505-2601230003-23,7276,2601230100.0,2601230100.0,3.0,,S,S2,Filderstadt|Stuttgart Flughafen/Messe|Echterdingen|Leinfelden|Oberaichen|Stuttgart-Rohr|Stuttgart-Vaihingen|Stuttgart-Österfeld|Stuttgart Universität|Stuttgart Schwabstr.|Stuttgart Feuersee|Stuttgart Stadtmitte|Stuttgart Hbf (tief)|Stuttgart-Bad Cannstatt|Stuttgart Nürnberger Str.|Stuttgart-Sommerrain|Fellbach|Waiblingen|Rommelshausen|Stetten-Beinstein|Endersbach|Beutelsbach,8002448,Grunbach,Baden-Württemberg,Remshalden,73630,9.419580601,48.810414,4,2601230100.0,,2601230101.0,,,,,,,,,,,0.0,1.0
-5993932775737470099-2601230007-25,7179,2601230114.0,,3.0,,S,,Plochingen|Altbach|Esslingen-Zell|Oberesslingen|Esslingen(Neckar)|Esslingen-Mettingen|Stuttgart-Obertürkheim|Stuttgart-Untertürkheim|Stuttgart Neckarpark|Stuttgart-Bad Cannstatt|Stuttgart Hbf (tief)|Stuttgart Stadtmitte|Stuttgart Feuersee|Stuttgart Schwabstr.|Stuttgart Universität|Stuttgart-Österfeld|Stuttgart-Vaihingen|Stuttgart-Rohr|Goldberg(Württ)|Böblingen|Hulb|Ehningen(b Böblingen)|Gärtringen|Nufringen,8002785,Herrenberg,Baden-Württemberg,Herrenberg,71083,8.862625253,48.59395697,3,2601230119.0,,,,,,,,,,,,,5.0,0.0
2856584661102317991-2601230037-25,7181,2601230144.0,,3.0,,S,,Plochingen|Altbach|Esslingen-Zell|Oberesslingen|Esslingen(Neckar)|Esslingen-Mettingen|Stuttgart-Obertürkheim|Stuttgart-Untertürkheim|Stuttgart Neckarpark|Stuttgart-Bad Cannstatt|Stuttgart Hbf (tief)|Stuttgart Stadtmitte|Stuttgart Feuersee|Stuttgart Schwabstr.|Stuttgart Universität|Stuttgart-Österfeld|Stuttgart-Vaihingen|Stuttgart-Rohr|Goldberg(Württ)|Böblingen|Hulb|Ehningen(b Böblingen)|Gärtringen|Nufringen,8002785,Herrenberg,Baden-Württemberg,Herrenberg,71083,8.862625253,48.59395697,3,2601230148.0,2.0,,,,,,,,,,,,4.0,0.0
-4290766941278586427-2601230054-7,7678,2601230109.0,2601230109.0,2.0,,S,S6,Stuttgart-Feuerbach|Stuttgart-Zuffenhausen|Neuwirtshaus(Porscheplatz)|Korntal|Weilimdorf|Ditzingen,8002892,Höfingen,Baden-Württemberg,Leonberg,71229,9.026180834,48.81503436,5,2601230109.0,,2601230109.0,,h,1.0,Bauarbeiten,,,,,,,0.0,0.0
-5993932775737470099-2601230007-21,7179,2601230101.0,2601230101.0,1.0,,S,S1,Plochingen|Altbach|Esslingen-Zell|Oberesslingen|Esslingen(Neckar)|Esslingen-Mettingen|Stuttgart-Obertürkheim|Stuttgart-Untertürkheim|Stuttgart Neckarpark|Stuttgart-Bad Cannstatt|Stuttgart Hbf (tief)|Stuttgart Stadtmitte|Stuttgart Feuersee|Stuttgart Schwabstr.|Stuttgart Universität|Stuttgart-Österfeld|Stuttgart-Vaihingen|Stuttgart-Rohr|Goldberg(Württ)|Böblingen,8003022,Hulb,Baden-Württemberg,Böblingen-Hulb,71032,8.982396429,48.67924173,5,2601230107.0,,2601230107.0,,,,,,,,,,,6.0,6.0
2856584661102317991-2601230037-21,7181,2601230131.0,2601230131.0,1.0,,S,S1,Plochingen|Altbach|Esslingen-Zell|Oberesslingen|Esslingen(Neckar)|Esslingen-Mettingen|Stuttgart-Obertürkheim|Stuttgart-Untertürkheim|Stuttgart Neckarpark|Stuttgart-Bad Cannstatt|Stuttgart Hbf (tief)|Stuttgart Stadtmitte|Stuttgart Feuersee|Stuttgart Schwabstr.|Stuttgart Universität|Stuttgart-Österfeld|Stuttgart-Vaihingen|Stuttgart-Rohr|Goldberg(Württ)|Böblingen,8003022,Hulb,Baden-Württemberg,Böblingen-Hulb,71032,8.982396429,48.67924173,5,2601230135.0,,2601230136.0,,,,,,,,,,,4.0,5.0
-8097229136581884814-2601230018-27,7281,2601230127.0,,2.0,,S,,Schorndorf|Weiler(Rems)|Winterbach(b Schorndorf)|Geradstetten|Grunbach|Beutelsbach|Endersbach|Stetten-Beinstein|Rommelshausen|Waiblingen|Fellbach|Stuttgart-Sommerrain|Stuttgart Nürnberger Str.|Stuttgart-Bad Cannstatt|Stuttgart Hbf (tief)|Stuttgart Stadtmitte|Stuttgart Feuersee|Stuttgart Schwabstr.|Stuttgart Universität|Stuttgart-Österfeld|Stuttgart-Vaihingen|Stuttgart-Rohr|Oberaichen|Leinfelden|Echterdingen|Stuttgart Flughafen/Messe,8001984,Filderstadt,Baden-Württemberg,Filderstadt,70794,9.217581315,48.67649151,5,2601230127.0,,,,,,,,,,,,,0.0,0.0
-4290766941278586427-2601230054-4,7678,2601230101.0,2601230101.0,1.0,,S,S6,Stuttgart-Feuerbach|Stuttgart-Zuffenhausen|Neuwirtshaus(Porscheplatz),8003409,Korntal,Baden-Württemberg,Korntal,70825,9.121099128,48.82640246,4,2601230101.0,,2601230102.0,,h,1.0,Bauarbeiten,,,,,,,0.0,1.0
-4825921784207905950-2601230058-5,7580,2601230110.0,2601230110.0,4.0,,S,S5,Stuttgart Hbf|Stuttgart Nordbahnhof|Stuttgart-Feuerbach|Stuttgart-Zuffenhausen,8003411,Kornwestheim Pbf,Baden-Württemberg,Kornwestheim,70806,9.179967278,48.86215948,3,2601230110.0,,2601230111.0,,h,2.0,Störung,,,,,,,0.0,1.0
-8097229136581884814-2601230018-24,7281,2601230116.0,2601230117.0,1.0,,S,S2,Schorndorf|Weiler(Rems)|Winterbach(b Schorndorf)|Geradstetten|Grunbach|Beutelsbach|Endersbach|Stetten-Beinstein|Rommelshausen|Waiblingen|Fellbach|Stuttgart-Sommerrain|Stuttgart Nürnberger Str.|Stuttgart-Bad Cannstatt|Stuttgart Hbf (tief)|Stuttgart Stadtmitte|Stuttgart Feuersee|Stuttgart Schwabstr.|Stuttgart Universität|Stuttgart-Österfeld|Stuttgart-Vaihingen|Stuttgart-Rohr|Oberaichen,8003622,Leinfelden,Baden-Württemberg,Leinfelden-Echterdingen,70771,9.142859698,48.6964193,4,2601230116.0,,2601230117.0,,,,,,,,,,,0.0,0.0
-4290766941278586427-2601230054-8,7678,2601230113.0,2601230113.0,2.0,,S,S6,Stuttgart-Feuerbach|Stuttgart-Zuffenhausen|Neuwirtshaus(Porscheplatz)|Korntal|Weilimdorf|Ditzingen|Höfingen,8003652,Leonberg,Baden-Württemberg,Leonberg,71229,9.004025993,48.79970547,3,2601230113.0,,2601230113.0,,h,1.0,Bauarbeiten,,,,,,,0.0,0.0
-4825921784207905950-2601230058-6,7580,2601230113.0,2601230114.0,2.0,,S,S5,Stuttgart Hbf|Stuttgart Nordbahnhof|Stuttgart-Feuerbach|Stuttgart-Zuffenhausen|Kornwestheim Pbf,8000235,Ludwigsburg,Baden-Württemberg,Ludwigsburg,71638,9.185229823,48.89208622,3,2601230114.0,3.0,2601230114.0,3.0,h,2.0,Störung,,,,,,,1.0,0.0
5616658975002130036-2601230124-1,7478,,2601230124.0,,,S,S4,,8000235,Ludwigsburg,Baden-Württemberg,Ludwigsburg,71638,9.185229823,48.89208622,3,,,2601230124.0,,h,1.0,Bauarbeiten,,,,,,,0.0,0.0
-4290766941278586427-2601230054-11,7678,2601230124.0,2601230124.0,1.0,,S,S6,Stuttgart-Feuerbach|Stuttgart-Zuffenhausen|Neuwirtshaus(Porscheplatz)|Korntal|Weilimdorf|Ditzingen|Höfingen|Leonberg|Rutesheim|Renningen,8003831,Malmsheim,Baden-Württemberg,Renningen,71272,8.905105557,48.77183564,5,2601230124.0,,2601230127.0,,h,1.0,Bauarbeiten,,,,,,,0.0,3.0
7233641886849346147-2601230054-5,7476,2601230105.0,,1.0,,S,,Ludwigsburg|Favoritepark|Freiberg(Neckar)|Benningen(Neckar),8003853,Marbach (Neckar),Baden-Württemberg,Marbach am Neckar,71672,9.264611825,48.9437708,3,2601230106.0,,,,h,1.0,Bauarbeiten,,,,,,,1.0,0.0
5616658975002130036-2601230124-5,7478,2601230135.0,,1.0,,S,,Ludwigsburg|Favoritepark|Freiberg(Neckar)|Benningen(Neckar),8003853,Marbach (Neckar),Baden-Württemberg,Marbach am Neckar,71672,9.264611825,48.9437708,3,2601230135.0,2.0,,,h,1.0,Bauarbeiten,,,,,,,0.0,0.0
-1026300521424850676-2601230100-17,7380,2601230144.0,2601230145.0,2.0,,S,S3,Stuttgart-Vaihingen|Stuttgart-Österfeld|Stuttgart Universität|Stuttgart Schwabstr.|Stuttgart Feuersee|Stuttgart Stadtmitte|Stuttgart Hbf (tief)|Stuttgart-Bad Cannstatt|Stuttgart Nürnberger Str.|Stuttgart-Sommerrain|Fellbach|Waiblingen|Neustadt-Hohenacker|Schwaikheim|Winnenden|Nellmersbach,8003913,Maubach,Baden-Württemberg,Backnang,71522,9.419487062,48.92623463,4,2601230145.0,,2601230146.0,,,,,,,,,,,1.0,1.0
8783147669502223203-2601230030-17,7378,2601230114.0,2601230115.0,2.0,,S,S3,Stuttgart-Vaihingen|Stuttgart-Österfeld|Stuttgart Universität|Stuttgart Schwabstr.|Stuttgart Feuersee|Stuttgart Stadtmitte|Stuttgart Hbf (tief)|Stuttgart-Bad Cannstatt|Stuttgart Nürnberger Str.|Stuttgart-Sommerrain|Fellbach|Waiblingen|Neustadt-Hohenacker|Schwaikheim|Winnenden|Nellmersbach,8003913,Maubach,Baden-Württemberg,Backnang,71522,9.419487062,48.92623463,4,2601230115.0,,2601230115.0,,,,,,,,,,,1.0,0.0
-1026300521424850676-2601230100-16,7380,2601230141.0,2601230142.0,2.0,,S,S3,Stuttgart-Vaihingen|Stuttgart-Österfeld|Stuttgart Universität|Stuttgart Schwabstr.|Stuttgart Feuersee|Stuttgart Stadtmitte|Stuttgart Hbf (tief)|Stuttgart-Bad Cannstatt|Stuttgart Nürnberger Str.|Stuttgart-Sommerrain|Fellbach|Waiblingen|Neustadt-Hohenacker|Schwaikheim|Winnenden,8004233,Nellmersbach,Baden-Württemberg,Leutenbach,71397,9.415421538,48.90336425,5,2601230143.0,,2601230143.0,,,,,,,,,,,2.0,1.0
8783147669502223203-2601230030-16,7378,2601230111.0,2601230112.0,2.0,,S,S3,Stuttgart-Vaihingen|Stuttgart-Österfeld|Stuttgart Universität|Stuttgart Schwabstr.|Stuttgart Feuersee|Stuttgart Stadtmitte|Stuttgart Hbf (tief)|Stuttgart-Bad Cannstatt|Stuttgart Nürnberger Str.|Stuttgart-Sommerrain|Fellbach|Waiblingen|Neustadt-Hohenacker|Schwaikheim|Winnenden,8004233,Nellmersbach,Baden-Württemberg,Leutenbach,71397,9.415421538,48.90336425,5,2601230111.0,,2601230112.0,,,,,,,,,,,0.0,0.0
-1026300521424850676-2601230100-13,7380,2601230133.0,2601230133.0,1.0,,S,S3,Stuttgart-Vaihingen|Stuttgart-Österfeld|Stuttgart Universität|Stuttgart Schwabstr.|Stuttgart Feuersee|Stuttgart Stadtmitte|Stuttgart Hbf (tief)|Stuttgart-Bad Cannstatt|Stuttgart Nürnberger Str.|Stuttgart-Sommerrain|Fellbach|Waiblingen,8004333,Neustadt-Hohenacker,Baden-Württemberg,Waiblingen,71336,9.32455106,48.85921668,5,2601230134.0,,2601230134.0,,,,,,,,,,,1.0,1.0
8783147669502223203-2601230030-13,7378,2601230103.0,2601230103.0,1.0,,S,S3,Stuttgart-Vaihingen|Stuttgart-Österfeld|Stuttgart Universität|Stuttgart Schwabstr.|Stuttgart Feuersee|Stuttgart Stadtmitte|Stuttgart Hbf (tief)|Stuttgart-Bad Cannstatt|Stuttgart Nürnberger Str.|Stuttgart-Sommerrain|Fellbach|Waiblingen,8004333,Neustadt-Hohenacker,Baden-Württemberg,Waiblingen,71336,9.32455106,48.85921668,5,2601230103.0,,2601230103.0,,,,,,,,,,,0.0,0.0
-5993932775737470099-2601230007-24,7179,2601230110.0,2601230110.0,1.0,,S,S1,Plochingen|Altbach|Esslingen-Zell|Oberesslingen|Esslingen(Neckar)|Esslingen-Mettingen|Stuttgart-Obertürkheim|Stuttgart-Untertürkheim|Stuttgart Neckarpark|Stuttgart-Bad Cannstatt|Stuttgart Hbf (tief)|Stuttgart Stadtmitte|Stuttgart Feuersee|Stuttgart Schwabstr.|Stuttgart Universität|Stuttgart-Österfeld|Stuttgart-Vaihingen|Stuttgart-Rohr|Goldberg(Württ)|Böblingen|Hulb|Ehningen(b Böblingen)|Gärtringen,8004490,Nufringen,Baden-Württemberg,Nufringen,71154,8.889817485,48.62010967,5,2601230115.0,,2601230115.0,,,,,,,,,,,5.0,5.0
2856584661102317991-2601230037-24,7181,2601230140.0,2601230140.0,1.0,,S,S1,Plochingen|Altbach|Esslingen-Zell|Oberesslingen|Esslingen(Neckar)|Esslingen-Mettingen|Stuttgart-Obertürkheim|Stuttgart-Untertürkheim|Stuttgart Neckarpark|Stuttgart-Bad Cannstatt|Stuttgart Hbf (tief)|Stuttgart Stadtmitte|Stuttgart Feuersee|Stuttgart Schwabstr.|Stuttgart Universität|Stuttgart-Österfeld|Stuttgart-Vaihingen|Stuttgart-Rohr|Goldberg(Württ)|Böblingen|Hulb|Ehningen(b Böblingen)|Gärtringen,8004490,Nufringen,Baden-Württemberg,Nufringen,71154,8.889817485,48.62010967,5,2601230144.0,,2601230144.0,,,,,,,,,,,4.0,4.0
-8097229136581884814-2601230018-23,7281,2601230114.0,2601230114.0,1.0,,S,S2,Schorndorf|Weiler(Rems)|Winterbach(b Schorndorf)|Geradstetten|Grunbach|Beutelsbach|Endersbach|Stetten-Beinstein|Rommelshausen|Waiblingen|Fellbach|Stuttgart-Sommerrain|Stuttgart Nürnberger Str.|Stuttgart-Bad Cannstatt|Stuttgart Hbf (tief)|Stuttgart Stadtmitte|Stuttgart Feuersee|Stuttgart Schwabstr.|Stuttgart Universität|Stuttgart-Österfeld|Stuttgart-Vaihingen|Stuttgart-Rohr,8004496,Oberaichen,Baden-Württemberg,Leinfelden-Echterdingen,70771,9.12743664,48.70512422,5,2601230114.0,,2601230114.0,,,,,,,,,,,0.0,0.0
-8304442680762532771-2601230016-22,7180,2601230115.0,2601230115.0,3.0,,S,S1,Herrenberg|Nufringen|Gärtringen|Ehningen(b Böblingen)|Hulb|Böblingen|Goldberg(Württ)|Stuttgart-Rohr|Stuttgart-Vaihingen|Stuttgart-Österfeld|Stuttgart Universität|Stuttgart Schwabstr.|Stuttgart Feuersee|Stuttgart Stadtmitte|Stuttgart Hbf (tief)|Stuttgart-Bad Cannstatt|Stuttgart Neckarpark|Stuttgart-Untertürkheim|Stuttgart-Obertürkheim|Esslingen-Mettingen|Esslingen(Neckar),8004528,Oberesslingen,Baden-Württemberg,Esslingen am Neckar,73730,9.327277435,48.72983585,3,2601230118.0,4.0,2601230118.0,4.0,h,1.0,Bauarbeiten,,,,,,,3.0,3.0
-7037256455781419756-2601230042-4,19189,2601230100.0,2601230100.0,4.0,,ARV,MEX16,Stuttgart Hbf|Stuttgart-Bad Cannstatt|Esslingen(Neckar),8000302,Plochingen,Baden-Württemberg,Plochingen,73207,9.411294578,48.71293906,2,2601230107.0,,2601230108.0,,,,,,,,,,,7.0,8.0
-8304442680762532771-2601230016-25,7180,2601230123.0,,10.0,,S,,Herrenberg|Nufringen|Gärtringen|Ehningen(b Böblingen)|Hulb|Böblingen|Goldberg(Württ)|Stuttgart-Rohr|Stuttgart-Vaihingen|Stuttgart-Österfeld|Stuttgart Universität|Stuttgart Schwabstr.|Stuttgart Feuersee|Stuttgart Stadtmitte|Stuttgart Hbf (tief)|Stuttgart-Bad Cannstatt|Stuttgart Neckarpark|Stuttgart-Untertürkheim|Stuttgart-Obertürkheim|Esslingen-Mettingen|Esslingen(Neckar)|Oberesslingen|Esslingen-Zell|Altbach,8000302,Plochingen,Baden-Württemberg,Plochingen,73207,9.411294578,48.71293906,2,2601230125.0,,,,h,1.0,Bauarbeiten,,,,,,,2.0,0.0
-6491793160727462036-2601230048-4,19343,2601230106.0,2601230107.0,9.0,,RE,MEX12,Stuttgart Hbf|Stuttgart-Bad Cannstatt|Esslingen(Neckar),8000302,Plochingen,Baden-Württemberg,Plochingen,73207,9.411294578,48.71293906,2,2601230113.0,10.0,2601230113.0,10.0,,,,,,,,,,7.0,6.0
-4290766941278586427-2601230054-10,7678,2601230119.0,2601230122.0,3.0,,S,S6,Stuttgart-Feuerbach|Stuttgart-Zuffenhausen|Neuwirtshaus(Porscheplatz)|Korntal|Weilimdorf|Ditzingen|Höfingen|Leonberg|Rutesheim,8000313,Renningen,Baden-Württemberg,Renningen,71272,8.932650148,48.77515509,3,2601230119.0,,2601230122.0,,h,1.0,Bauarbeiten,,,,,,,0.0,0.0
1541038896405338370-2601230033-19,7278,2601230122.0,2601230122.0,1.0,,S,S2,Filderstadt|Stuttgart Flughafen/Messe|Echterdingen|Leinfelden|Oberaichen|Stuttgart-Rohr|Stuttgart-Vaihingen|Stuttgart-Österfeld|Stuttgart Universität|Stuttgart Schwabstr.|Stuttgart Feuersee|Stuttgart Stadtmitte|Stuttgart Hbf (tief)|Stuttgart-Bad Cannstatt|Stuttgart Nürnberger Str.|Stuttgart-Sommerrain|Fellbach|Waiblingen,8005157,Rommelshausen,Baden-Württemberg,Kernen,71394,9.319175885,48.81552017,4,2601230122.0,,2601230122.0,,,,,,,,,,,0.0,0.0
-4290766941278586427-2601230054-9,7678,2601230116.0,2601230116.0,2.0,,S,S6,Stuttgart-Feuerbach|Stuttgart-Zuffenhausen|Neuwirtshaus(Porscheplatz)|Korntal|Weilimdorf|Ditzingen|Höfingen|Leonberg,8005236,Rutesheim,Baden-Württemberg,Leonberg,71229,8.960325242,48.79031093,5,2601230116.0,,2601230116.0,,h,1.0,Bauarbeiten,,,,,,,0.0,0.0
1541038896405338370-2601230033-27,7278,2601230140.0,,1.0,,S,,Filderstadt|Stuttgart Flughafen/Messe|Echterdingen|Leinfelden|Oberaichen|Stuttgart-Rohr|Stuttgart-Vaihingen|Stuttgart-Österfeld|Stuttgart Universität|Stuttgart Schwabstr.|Stuttgart Feuersee|Stuttgart Stadtmitte|Stuttgart Hbf (tief)|Stuttgart-Bad Cannstatt|Stuttgart Nürnberger Str.|Stuttgart-Sommerrain|Fellbach|Waiblingen|Rommelshausen|Stetten-Beinstein|Endersbach|Beutelsbach|Grunbach|Geradstetten|Winterbach(b Schorndorf)|Weiler(Rems),8005424,Schorndorf,Baden-Württemberg,Schorndorf,73614,9.525686251,48.80693898,3,2601230140.0,,,,,,,,,,,,,0.0,0.0
-5038180826055651422-2601230037-9,19446,2601230113.0,2601230114.0,3.0,,ARV,MEX13,Aalen Hbf|Mögglingen(Gmünd)|Böbingen(Rems)|Schwäbisch Gmünd|Lorch(Württ)|Waldhausen(b Schorndorf)|Plüderhausen|Urbach(b Schorndorf),8005424,Schorndorf,Baden-Württemberg,Schorndorf,73614,9.525686251,48.80693898,3,2601230115.0,,2601230115.0,,,,,,,,,,,2.0,1.0
224206650494097505-2601230003-27,7276,2601230110.0,,1.0,,S,,Filderstadt|Stuttgart Flughafen/Messe|Echterdingen|Leinfelden|Oberaichen|Stuttgart-Rohr|Stuttgart-Vaihingen|Stuttgart-Österfeld|Stuttgart Universität|Stuttgart Schwabstr.|Stuttgart Feuersee|Stuttgart Stadtmitte|Stuttgart Hbf (tief)|Stuttgart-Bad Cannstatt|Stuttgart Nürnberger Str.|Stuttgart-Sommerrain|Fellbach|Waiblingen|Rommelshausen|Stetten-Beinstein|Endersbach|Beutelsbach|Grunbach|Geradstetten|Winterbach(b Schorndorf)|Weiler(Rems),8005424,Schorndorf,Baden-Württemberg,Schorndorf,73614,9.525686251,48.80693898,3,2601230110.0,,,,,,,,,,,,,0.0,0.0
-1026300521424850676-2601230100-14,7380,2601230136.0,2601230136.0,2.0,,S,S3,Stuttgart-Vaihingen|Stuttgart-Österfeld|Stuttgart Universität|Stuttgart Schwabstr.|Stuttgart Feuersee|Stuttgart Stadtmitte|Stuttgart Hbf (tief)|Stuttgart-Bad Cannstatt|Stuttgart Nürnberger Str.|Stuttgart-Sommerrain|Fellbach|Waiblingen|Neustadt-Hohenacker,8005454,Schwaikheim,Baden-Württemberg,Schwaikheim,71409,9.354747358,48.86832665,4,2601230136.0,,2601230137.0,,,,,,,,,,,0.0,1.0
8783147669502223203-2601230030-14,7378,2601230106.0,2601230106.0,2.0,,S,S3,Stuttgart-Vaihingen|Stuttgart-Österfeld|Stuttgart Universität|Stuttgart Schwabstr.|Stuttgart Feuersee|Stuttgart Stadtmitte|Stuttgart Hbf (tief)|Stuttgart-Bad Cannstatt|Stuttgart Nürnberger Str.|Stuttgart-Sommerrain|Fellbach|Waiblingen|Neustadt-Hohenacker,8005454,Schwaikheim,Baden-Württemberg,Schwaikheim,71409,9.354747358,48.86832665,4,2601230106.0,,2601230106.0,,,,,,,,,,,0.0,0.0
1541038896405338370-2601230033-20,7278,2601230124.0,2601230124.0,1.0,,S,S2,Filderstadt|Stuttgart Flughafen/Messe|Echterdingen|Leinfelden|Oberaichen|Stuttgart-Rohr|Stuttgart-Vaihingen|Stuttgart-Österfeld|Stuttgart Universität|Stuttgart Schwabstr.|Stuttgart Feuersee|Stuttgart Stadtmitte|Stuttgart Hbf (tief)|Stuttgart-Bad Cannstatt|Stuttgart Nürnberger Str.|Stuttgart-Sommerrain|Fellbach|Waiblingen|Rommelshausen,8005726,Stetten-Beinstein,Baden-Württemberg,Weinstadt,71384,9.352769725,48.81199601,5,2601230124.0,,2601230124.0,,,,,,,,,,,0.0,0.0
1549583197322147811-2601222238-20,88652,2601230109.0,,11.0,,ARV,,Nürnberg Hbf|Roßtal|Heilsbronn|Wicklesgreuth|Ansbach|Leutershausen-Wiedersbach|Dombühl|Schnelldorf|Crailsheim|Eckartshausen-Ilshofen|Schwäbisch Hall-Hessental|Gaildorf West|Murrhardt|Sulzbach(Murr)|Oppenweiler(Württ)|Backnang|Winnenden|Waiblingen|Stuttgart-Bad Cannstatt,8000096,Stuttgart Hbf,Baden-Württemberg,Stuttgart,70173,9.183172973,48.78473069,1,2601230107.0,,,,,,,,,,,,,-2.0,0.0
-5038180826055651422-2601230037-12,19446,2601230139.0,,13.0,,ARV,,Aalen Hbf|Mögglingen(Gmünd)|Böbingen(Rems)|Schwäbisch Gmünd|Lorch(Württ)|Waldhausen(b Schorndorf)|Plüderhausen|Urbach(b Schorndorf)|Schorndorf|Waiblingen|Stuttgart-Bad Cannstatt,8000096,Stuttgart Hbf,Baden-Württemberg,Stuttgart,70173,9.183172973,48.78473069,1,2601230139.0,,,,,,,,,,,,,0.0,0.0
6538495934741560204-2601222346-22,19188,2601230116.0,,12.0,,ARV,,Ulm Hbf|Beimerstetten|Westerstetten|Lonsee|Urspring|Amstetten(Württ)|Geislingen(Steige)|Geislingen(Steige)West|Kuchen|Gingen(Fils)|Süßen|Salach|Eislingen(Fils)|Göppingen|Faurndau|Uhingen|Ebersbach(Fils)|Reichenbach(Fils)|Plochingen|Esslingen(Neckar)|Stuttgart-Bad Cannstatt,8000096,Stuttgart Hbf,Baden-Württemberg,Stuttgart,70173,9.183172973,48.78473069,1,2601230126.0,,,,,,,,,,,,,10.0,0.0
-8304442680762532771-2601230016-17,7180,2601230102.0,2601230102.0,2.0,,S,S1,Herrenberg|Nufringen|Gärtringen|Ehningen(b Böblingen)|Hulb|Böblingen|Goldberg(Württ)|Stuttgart-Rohr|Stuttgart-Vaihingen|Stuttgart-Österfeld|Stuttgart Universität|Stuttgart Schwabstr.|Stuttgart Feuersee|Stuttgart Stadtmitte|Stuttgart Hbf (tief)|Stuttgart-Bad Cannstatt,8006743,Stuttgart Neckarpark,Baden-Württemberg,Stuttgart,70372,9.24106855,48.79194362,4,2601230103.0,,2601230104.0,,h,1.0,Bauarbeiten,,,,,,,1.0,2.0
-4825921784207905950-2601230058-2,7580,2601230101.0,2601230101.0,3.0,,S,S5,Stuttgart Hbf,8005767,Stuttgart Nord,Baden-Württemberg,Stuttgard-Nord,70174,9.188061449,48.80374161,5,2601230103.0,,2601230103.0,,h,2.0,Störung,,,,,,,2.0,2.0
-1026300521424850676-2601230100-9,7380,2601230122.0,2601230122.0,4.0,,S,S3,Stuttgart-Vaihingen|Stuttgart-Österfeld|Stuttgart Universität|Stuttgart Schwabstr.|Stuttgart Feuersee|Stuttgart Stadtmitte|Stuttgart Hbf (tief)|Stuttgart-Bad Cannstatt,8004357,Stuttgart Nürnberger Straße,Baden-Württemberg,Stuttgart,70374,9.234576905,48.80656062,5,2601230122.0,,2601230122.0,,,,,,,,,,,0.0,0.0
1541038896405338370-2601230033-15,7278,2601230112.0,2601230112.0,4.0,,S,S2,Filderstadt|Stuttgart Flughafen/Messe|Echterdingen|Leinfelden|Oberaichen|Stuttgart-Rohr|Stuttgart-Vaihingen|Stuttgart-Österfeld|Stuttgart Universität|Stuttgart Schwabstr.|Stuttgart Feuersee|Stuttgart Stadtmitte|Stuttgart Hbf (tief)|Stuttgart-Bad Cannstatt,8004357,Stuttgart Nürnberger Straße,Baden-Württemberg,Stuttgart,70374,9.234576905,48.80656062,5,2601230112.0,,2601230112.0,,,,,,,,,,,0.0,0.0
-8097229136581884814-2601230018-20,7281,2601230107.0,2601230107.0,1.0,,S,S2,Schorndorf|Weiler(Rems)|Winterbach(b Schorndorf)|Geradstetten|Grunbach|Beutelsbach|Endersbach|Stetten-Beinstein|Rommelshausen|Waiblingen|Fellbach|Stuttgart-Sommerrain|Stuttgart Nürnberger Str.|Stuttgart-Bad Cannstatt|Stuttgart Hbf (tief)|Stuttgart Stadtmitte|Stuttgart Feuersee|Stuttgart Schwabstr.|Stuttgart Universität,8005779,Stuttgart Österfeld,Baden-Württemberg,Stuttgart,70563,9.116751457,48.73749946,4,2601230107.0,,2601230107.0,,,,,,,,,,,0.0,0.0
-1026300521424850676-2601230100-2,7380,2601230102.0,2601230102.0,2.0,,S,S3,Stuttgart-Vaihingen,8005779,Stuttgart Österfeld,Baden-Württemberg,Stuttgart,70563,9.116751457,48.73749946,4,2601230102.0,,2601230102.0,,,,,,,,,,,0.0,0.0
2856584661102317991-2601230037-16,7181,2601230117.0,2601230117.0,1.0,,S,S1,Plochingen|Altbach|Esslingen-Zell|Oberesslingen|Esslingen(Neckar)|Esslingen-Mettingen|Stuttgart-Obertürkheim|Stuttgart-Untertürkheim|Stuttgart Neckarpark|Stuttgart-Bad Cannstatt|Stuttgart Hbf (tief)|Stuttgart Stadtmitte|Stuttgart Feuersee|Stuttgart Schwabstr.|Stuttgart Universität,8005779,Stuttgart Österfeld,Baden-Württemberg,Stuttgart,70563,9.116751457,48.73749946,4,2601230122.0,,2601230122.0,,,,,,,,,,,5.0,5.0
-8097229136581884814-2601230018-19,7281,2601230105.0,2601230105.0,1.0,,S,S2,Schorndorf|Weiler(Rems)|Winterbach(b Schorndorf)|Geradstetten|Grunbach|Beutelsbach|Endersbach|Stetten-Beinstein|Rommelshausen|Waiblingen|Fellbach|Stuttgart-Sommerrain|Stuttgart Nürnberger Str.|Stuttgart-Bad Cannstatt|Stuttgart Hbf (tief)|Stuttgart Stadtmitte|Stuttgart Feuersee|Stuttgart Schwabstr.,8006513,Stuttgart Universität,Baden-Württemberg,Stuttgart,70569,9.105864214,48.74511762,4,2601230105.0,,2601230105.0,,,,,,,,,,,0.0,0.0
-1026300521424850676-2601230100-3,7380,2601230104.0,2601230104.0,2.0,,S,S3,Stuttgart-Vaihingen|Stuttgart-Österfeld,8006513,Stuttgart Universität,Baden-Württemberg,Stuttgart,70569,9.105864214,48.74511762,4,2601230104.0,,2601230105.0,,,,,,,,,,,0.0,1.0
2856584661102317991-2601230037-15,7181,2601230115.0,2601230115.0,1.0,,S,S1,Plochingen|Altbach|Esslingen-Zell|Oberesslingen|Esslingen(Neckar)|Esslingen-Mettingen|Stuttgart-Obertürkheim|Stuttgart-Untertürkheim|Stuttgart Neckarpark|Stuttgart-Bad Cannstatt|Stuttgart Hbf (tief)|Stuttgart Stadtmitte|Stuttgart Feuersee|Stuttgart Schwabstr.,8006513,Stuttgart Universität,Baden-Württemberg,Stuttgart,70569,9.105864214,48.74511762,4,2601230120.0,,2601230120.0,,,,,,,,,,,5.0,5.0
1549583197322147811-2601222238-19,88652,2601230102.0,2601230106.0,6.0,,ARV,RE90,Nürnberg Hbf|Roßtal|Heilsbronn|Wicklesgreuth|Ansbach|Leutershausen-Wiedersbach|Dombühl|Schnelldorf|Crailsheim|Eckartshausen-Ilshofen|Schwäbisch Hall-Hessental|Gaildorf West|Murrhardt|Sulzbach(Murr)|Oppenweiler(Württ)|Backnang|Winnenden|Waiblingen,8005769,Stuttgart-Bad Cannstatt,Baden-Württemberg,Stuttgart,70372,9.217468636,48.80127978,3,2601230102.0,,2601230103.0,,,,,,,,,,,0.0,-3.0
-1026300521424850676-2601230100-8,7380,2601230119.0,2601230119.0,3.0,,S,S3,Stuttgart-Vaihingen|Stuttgart-Österfeld|Stuttgart Universität|Stuttgart Schwabstr.|Stuttgart Feuersee|Stuttgart Stadtmitte|Stuttgart Hbf (tief),8005769,Stuttgart-Bad Cannstatt,Baden-Württemberg,Stuttgart,70372,9.217468636,48.80127978,3,2601230119.0,,2601230120.0,,,,,,,,,,,0.0,1.0
1541038896405338370-2601230033-14,7278,2601230109.0,2601230109.0,3.0,,S,S2,Filderstadt|Stuttgart Flughafen/Messe|Echterdingen|Leinfelden|Oberaichen|Stuttgart-Rohr|Stuttgart-Vaihingen|Stuttgart-Österfeld|Stuttgart Universität|Stuttgart Schwabstr.|Stuttgart Feuersee|Stuttgart Stadtmitte|Stuttgart Hbf (tief),8005769,Stuttgart-Bad Cannstatt,Baden-Württemberg,Stuttgart,70372,9.217468636,48.80127978,3,2601230109.0,,2601230109.0,,,,,,,,,,,0.0,0.0
-5038180826055651422-2601230037-11,19446,2601230135.0,2601230135.0,6.0,,ARV,MEX13,Aalen Hbf|Mögglingen(Gmünd)|Böbingen(Rems)|Schwäbisch Gmünd|Lorch(Württ)|Waldhausen(b Schorndorf)|Plüderhausen|Urbach(b Schorndorf)|Schorndorf|Waiblingen,8005769,Stuttgart-Bad Cannstatt,Baden-Württemberg,Stuttgart,70372,9.217468636,48.80127978,3,2601230135.0,,2601230135.0,,,,,,,,,,,0.0,0.0
6538495934741560204-2601222346-21,19188,2601230112.0,2601230112.0,5.0,,ARV,MEX16,Ulm Hbf|Beimerstetten|Westerstetten|Lonsee|Urspring|Amstetten(Württ)|Geislingen(Steige)|Geislingen(Steige)West|Kuchen|Gingen(Fils)|Süßen|Salach|Eislingen(Fils)|Göppingen|Faurndau|Uhingen|Ebersbach(Fils)|Reichenbach(Fils)|Plochingen|Esslingen(Neckar),8005769,Stuttgart-Bad Cannstatt,Baden-Württemberg,Stuttgart,70372,9.217468636,48.80127978,3,2601230122.0,,2601230122.0,,,,,,,,,,,10.0,10.0
2856584661102317991-2601230037-10,7181,2601230100.0,2601230101.0,2.0,,S,S1,Plochingen|Altbach|Esslingen-Zell|Oberesslingen|Esslingen(Neckar)|Esslingen-Mettingen|Stuttgart-Obertürkheim|Stuttgart-Untertürkheim|Stuttgart Neckarpark,8005769,Stuttgart-Bad Cannstatt,Baden-Württemberg,Stuttgart,70372,9.217468636,48.80127978,3,2601230106.0,,2601230106.0,,,,,,,,,,,6.0,5.0
-4825921784207905950-2601230058-3,7580,2601230103.0,2601230104.0,2.0,,S,S5,Stuttgart Hbf|Stuttgart Nordbahnhof,8005770,Stuttgart-Feuerbach,Baden-Württemberg,Feuerbach,70469,9.169186287,48.81363554,3,2601230105.0,,2601230105.0,,h,2.0,Störung,,,,,,,2.0,1.0
-1026300521424850676-2601230100-5,7380,2601230111.0,2601230112.0,2.0,,S,S3,Stuttgart-Vaihingen|Stuttgart-Österfeld|Stuttgart Universität|Stuttgart Schwabstr.,8006699,Stuttgart Feuersee,Baden-Württemberg,Stuttgart,70176,9.165850846,48.7726173,3,2601230111.0,,2601230112.0,,,,,,,,,,,0.0,0.0
1541038896405338370-2601230033-11,7278,2601230101.0,2601230102.0,2.0,,S,S2,Filderstadt|Stuttgart Flughafen/Messe|Echterdingen|Leinfelden|Oberaichen|Stuttgart-Rohr|Stuttgart-Vaihingen|Stuttgart-Österfeld|Stuttgart Universität|Stuttgart Schwabstr.,8006699,Stuttgart Feuersee,Baden-Württemberg,Stuttgart,70176,9.165850846,48.7726173,3,2601230101.0,,2601230102.0,,,,,,,,,,,0.0,0.0
2856584661102317991-2601230037-13,7181,2601230108.0,2601230109.0,1.0,,S,S1,Plochingen|Altbach|Esslingen-Zell|Oberesslingen|Esslingen(Neckar)|Esslingen-Mettingen|Stuttgart-Obertürkheim|Stuttgart-Untertürkheim|Stuttgart Neckarpark|Stuttgart-Bad Cannstatt|Stuttgart Hbf (tief)|Stuttgart Stadtmitte,8006699,Stuttgart Feuersee,Baden-Württemberg,Stuttgart,70176,9.165850846,48.7726173,3,2601230113.0,,2601230114.0,,,,,,,,,,,5.0,5.0
-8304442680762532771-2601230016-19,7180,2601230107.0,2601230107.0,6.0,,S,S1,Herrenberg|Nufringen|Gärtringen|Ehningen(b Böblingen)|Hulb|Böblingen|Goldberg(Württ)|Stuttgart-Rohr|Stuttgart-Vaihingen|Stuttgart-Österfeld|Stuttgart Universität|Stuttgart Schwabstr.|Stuttgart Feuersee|Stuttgart Stadtmitte|Stuttgart Hbf (tief)|Stuttgart-Bad Cannstatt|Stuttgart Neckarpark|Stuttgart-Untertürkheim,8005772,Stuttgart-Obertürkheim,Baden-Württemberg,Stuttgart,70329,9.268167932,48.76175015,4,2601230108.0,,2601230111.0,,h,1.0,Bauarbeiten,,,,,,,1.0,4.0
-8097229136581884814-2601230018-22,7281,2601230111.0,2601230112.0,2.0,,S,S2,Schorndorf|Weiler(Rems)|Winterbach(b Schorndorf)|Geradstetten|Grunbach|Beutelsbach|Endersbach|Stetten-Beinstein|Rommelshausen|Waiblingen|Fellbach|Stuttgart-Sommerrain|Stuttgart Nürnberger Str.|Stuttgart-Bad Cannstatt|Stuttgart Hbf (tief)|Stuttgart Stadtmitte|Stuttgart Feuersee|Stuttgart Schwabstr.|Stuttgart Universität|Stuttgart-Österfeld|Stuttgart-Vaihingen,8005773,Stuttgart-Rohr,Baden-Württemberg,Stuttgart,70565,9.108158025,48.71799427,4,2601230111.0,,2601230112.0,,,,,,,,,,,0.0,0.0
2856584661102317991-2601230037-18,7181,2601230121.0,2601230122.0,2.0,,S,S1,Plochingen|Altbach|Esslingen-Zell|Oberesslingen|Esslingen(Neckar)|Esslingen-Mettingen|Stuttgart-Obertürkheim|Stuttgart-Untertürkheim|Stuttgart Neckarpark|Stuttgart-Bad Cannstatt|Stuttgart Hbf (tief)|Stuttgart Stadtmitte|Stuttgart Feuersee|Stuttgart Schwabstr.|Stuttgart Universität|Stuttgart-Österfeld|Stuttgart-Vaihingen,8005773,Stuttgart-Rohr,Baden-Württemberg,Stuttgart,70565,9.108158025,48.71799427,4,2601230126.0,,2601230126.0,,,,,,,,,,,5.0,4.0
-8097229136581884814-2601230018-18,7281,2601230100.0,2601230100.0,1.0,,S,S2,Schorndorf|Weiler(Rems)|Winterbach(b Schorndorf)|Geradstetten|Grunbach|Beutelsbach|Endersbach|Stetten-Beinstein|Rommelshausen|Waiblingen|Fellbach|Stuttgart-Sommerrain|Stuttgart Nürnberger Str.|Stuttgart-Bad Cannstatt|Stuttgart Hbf (tief)|Stuttgart Stadtmitte|Stuttgart Feuersee,8006698,Stuttgart Schwabstraße,Baden-Württemberg,Stuttgart,70197,9.156496717,48.77013954,3,2601230100.0,,2601230100.0,,,,,,,,,,,0.0,0.0
-1026300521424850676-2601230100-4,7380,2601230110.0,2601230110.0,2.0,,S,S3,Stuttgart-Vaihingen|Stuttgart-Österfeld|Stuttgart Universität,8006698,Stuttgart Schwabstraße,Baden-Württemberg,Stuttgart,70197,9.156496717,48.77013954,3,2601230110.0,,2601230110.0,,,,,,,,,,,0.0,0.0
1541038896405338370-2601230033-10,7278,2601230100.0,2601230100.0,2.0,,S,S2,Filderstadt|Stuttgart Flughafen/Messe|Echterdingen|Leinfelden|Oberaichen|Stuttgart-Rohr|Stuttgart-Vaihingen|Stuttgart-Österfeld|Stuttgart Universität,8006698,Stuttgart Schwabstraße,Baden-Württemberg,Stuttgart,70197,9.156496717,48.77013954,3,2601230100.0,,2601230100.0,,,,,,,,,,,0.0,0.0
2856584661102317991-2601230037-14,7181,2601230110.0,2601230110.0,1.0,,S,S1,Plochingen|Altbach|Esslingen-Zell|Oberesslingen|Esslingen(Neckar)|Esslingen-Mettingen|Stuttgart-Obertürkheim|Stuttgart-Untertürkheim|Stuttgart Neckarpark|Stuttgart-Bad Cannstatt|Stuttgart Hbf (tief)|Stuttgart Stadtmitte|Stuttgart Feuersee,8006698,Stuttgart Schwabstraße,Baden-Württemberg,Stuttgart,70197,9.156496717,48.77013954,3,2601230115.0,,2601230116.0,,,,,,,,,,,5.0,6.0
-1026300521424850676-2601230100-10,7380,2601230124.0,2601230124.0,4.0,,S,S3,Stuttgart-Vaihingen|Stuttgart-Österfeld|Stuttgart Universität|Stuttgart Schwabstr.|Stuttgart Feuersee|Stuttgart Stadtmitte|Stuttgart Hbf (tief)|Stuttgart-Bad Cannstatt|Stuttgart Nürnberger Str.,8005774,Stuttgart-Sommerrain,Baden-Württemberg,Stuttgart,70374,9.248369749,48.81521824,5,2601230124.0,,2601230125.0,,,,,,,,,,,0.0,1.0
1541038896405338370-2601230033-16,7278,2601230114.0,2601230114.0,4.0,,S,S2,Filderstadt|Stuttgart Flughafen/Messe|Echterdingen|Leinfelden|Oberaichen|Stuttgart-Rohr|Stuttgart-Vaihingen|Stuttgart-Österfeld|Stuttgart Universität|Stuttgart Schwabstr.|Stuttgart Feuersee|Stuttgart Stadtmitte|Stuttgart Hbf (tief)|Stuttgart-Bad Cannstatt|Stuttgart Nürnberger Str.,8005774,Stuttgart-Sommerrain,Baden-Württemberg,Stuttgart,70374,9.248369749,48.81521824,5,2601230114.0,,2601230114.0,,,,,,,,,,,0.0,0.0
-1026300521424850676-2601230100-6,7380,2601230113.0,2601230113.0,2.0,,S,S3,Stuttgart-Vaihingen|Stuttgart-Österfeld|Stuttgart Universität|Stuttgart Schwabstr.|Stuttgart Feuersee,8006700,Stuttgart Stadtmitte,Baden-Württemberg,Stuttgart,70173,9.173046906,48.77632953,3,2601230113.0,,2601230114.0,,,,,,,,,,,0.0,1.0
1541038896405338370-2601230033-12,7278,2601230103.0,2601230103.0,2.0,,S,S2,Filderstadt|Stuttgart Flughafen/Messe|Echterdingen|Leinfelden|Oberaichen|Stuttgart-Rohr|Stuttgart-Vaihingen|Stuttgart-Österfeld|Stuttgart Universität|Stuttgart Schwabstr.|Stuttgart Feuersee,8006700,Stuttgart Stadtmitte,Baden-Württemberg,Stuttgart,70173,9.173046906,48.77632953,3,2601230103.0,,2601230103.0,,,,,,,,,,,0.0,0.0
2856584661102317991-2601230037-12,7181,2601230107.0,2601230107.0,1.0,,S,S1,Plochingen|Altbach|Esslingen-Zell|Oberesslingen|Esslingen(Neckar)|Esslingen-Mettingen|Stuttgart-Obertürkheim|Stuttgart-Untertürkheim|Stuttgart Neckarpark|Stuttgart-Bad Cannstatt|Stuttgart Hbf (tief),8006700,Stuttgart Stadtmitte,Baden-Württemberg,Stuttgart,70173,9.173046906,48.77632953,3,2601230111.0,,2601230112.0,,,,,,,,,,,4.0,5.0
-8304442680762532771-2601230016-18,7180,2601230104.0,2601230104.0,6.0,,S,S1,Herrenberg|Nufringen|Gärtringen|Ehningen(b Böblingen)|Hulb|Böblingen|Goldberg(Württ)|Stuttgart-Rohr|Stuttgart-Vaihingen|Stuttgart-Österfeld|Stuttgart Universität|Stuttgart Schwabstr.|Stuttgart Feuersee|Stuttgart Stadtmitte|Stuttgart Hbf (tief)|Stuttgart-Bad Cannstatt|Stuttgart Neckarpark,8005775,Stuttgart-Untertürkheim Pbf,Baden-Württemberg,Stuttgart,70327,9.250467074,48.77984679,3,2601230105.0,,2601230105.0,,h,1.0,Bauarbeiten,,,,,,,1.0,1.0
-8097229136581884814-2601230018-21,7281,2601230109.0,2601230110.0,2.0,,S,S2,Schorndorf|Weiler(Rems)|Winterbach(b Schorndorf)|Geradstetten|Grunbach|Beutelsbach|Endersbach|Stetten-Beinstein|Rommelshausen|Waiblingen|Fellbach|Stuttgart-Sommerrain|Stuttgart Nürnberger Str.|Stuttgart-Bad Cannstatt|Stuttgart Hbf (tief)|Stuttgart Stadtmitte|Stuttgart Feuersee|Stuttgart Schwabstr.|Stuttgart Universität|Stuttgart-Österfeld,8005776,Stuttgart-Vaihingen,Baden-Württemberg,Stuttgart,70563,9.113913368,48.72698116,3,2601230109.0,,2601230110.0,,,,,,,,,,,0.0,0.0
-1026300521424850676-2601230100-1,7380,,2601230100.0,,,S,S3,,8005776,Stuttgart-Vaihingen,Baden-Württemberg,Stuttgart,70563,9.113913368,48.72698116,3,,,2601230100.0,,,,,,,,,,,0.0,0.0
2856584661102317991-2601230037-17,7181,2601230119.0,2601230120.0,1.0,,S,S1,Plochingen|Altbach|Esslingen-Zell|Oberesslingen|Esslingen(Neckar)|Esslingen-Mettingen|Stuttgart-Obertürkheim|Stuttgart-Untertürkheim|Stuttgart Neckarpark|Stuttgart-Bad Cannstatt|Stuttgart Hbf (tief)|Stuttgart Stadtmitte|Stuttgart Feuersee|Stuttgart Schwabstr.|Stuttgart Universität|Stuttgart-Österfeld,8005776,Stuttgart-Vaihingen,Baden-Württemberg,Stuttgart,70563,9.113913368,48.72698116,3,2601230124.0,,2601230124.0,,,,,,,,,,,5.0,4.0
-4290766941278586427-2601230054-5,7678,2601230103.0,2601230103.0,1.0,,S,S6,Stuttgart-Feuerbach|Stuttgart-Zuffenhausen|Neuwirtshaus(Porscheplatz)|Korntal,8006268,Stuttgart-Weilimdorf,Baden-Württemberg,Stuttgart,70499,9.094370086,48.82208429,5,2601230103.0,,2601230104.0,,h,1.0,Bauarbeiten,,,,,,,0.0,1.0
-4825921784207905950-2601230058-4,7580,2601230106.0,2601230107.0,4.0,,S,S5,Stuttgart Hbf|Stuttgart Nordbahnhof|Stuttgart-Feuerbach,8005778,Stuttgart-Zuffenhausen,Baden-Württemberg,Stuttgart,70435,9.167156375,48.82960884,3,2601230107.0,,2601230108.0,,h,2.0,Störung,,,,,,,1.0,1.0
-4825921784207905950-2601230058-8,7580,2601230119.0,2601230120.0,3.0,,S,S5,Stuttgart Hbf|Stuttgart Nordbahnhof|Stuttgart-Feuerbach|Stuttgart-Zuffenhausen|Kornwestheim Pbf|Ludwigsburg|Asperg,8005820,Tamm (Württ),Baden-Württemberg,Tamm,71732,9.125288012,48.92187736,4,2601230127.0,,2601230127.0,,h,2.0,Störung,,,,,,,8.0,7.0
-1026300521424850676-2601230100-12,7380,2601230129.0,2601230130.0,3.0,,S,S3,Stuttgart-Vaihingen|Stuttgart-Österfeld|Stuttgart Universität|Stuttgart Schwabstr.|Stuttgart Feuersee|Stuttgart Stadtmitte|Stuttgart Hbf (tief)|Stuttgart-Bad Cannstatt|Stuttgart Nürnberger Str.|Stuttgart-Sommerrain|Fellbach,8000180,Waiblingen,Baden-Württemberg,Waiblingen,71332,9.300476874,48.8262444,3,2601230130.0,,2601230130.0,,,,,,,,,,,1.0,0.0
8783147669502223203-2601230030-12,7378,2601230059.0,2601230100.0,3.0,,S,S3,Stuttgart-Vaihingen|Stuttgart-Österfeld|Stuttgart Universität|Stuttgart Schwabstr.|Stuttgart Feuersee|Stuttgart Stadtmitte|Stuttgart Hbf (tief)|Stuttgart-Bad Cannstatt|Stuttgart Nürnberger Str.|Stuttgart-Sommerrain|Fellbach,8000180,Waiblingen,Baden-Württemberg,Waiblingen,71332,9.300476874,48.8262444,3,2601230059.0,,2601230100.0,,,,,,,,,,,0.0,0.0
1541038896405338370-2601230033-18,7278,2601230119.0,2601230120.0,7.0,,S,S2,Filderstadt|Stuttgart Flughafen/Messe|Echterdingen|Leinfelden|Oberaichen|Stuttgart-Rohr|Stuttgart-Vaihingen|Stuttgart-Österfeld|Stuttgart Universität|Stuttgart Schwabstr.|Stuttgart Feuersee|Stuttgart Stadtmitte|Stuttgart Hbf (tief)|Stuttgart-Bad Cannstatt|Stuttgart Nürnberger Str.|Stuttgart-Sommerrain|Fellbach,8000180,Waiblingen,Baden-Württemberg,Waiblingen,71332,9.300476874,48.8262444,3,2601230120.0,,2601230120.0,,,,,,,,,,,1.0,0.0
-5038180826055651422-2601230037-10,19446,2601230128.0,2601230128.0,6.0,,ARV,MEX13,Aalen Hbf|Mögglingen(Gmünd)|Böbingen(Rems)|Schwäbisch Gmünd|Lorch(Württ)|Waldhausen(b Schorndorf)|Plüderhausen|Urbach(b Schorndorf)|Schorndorf,8000180,Waiblingen,Baden-Württemberg,Waiblingen,71332,9.300476874,48.8262444,3,2601230128.0,,2601230128.0,,,,,,,,,,,0.0,0.0
-4290766941278586427-2601230054-12,7678,2601230127.0,,2.0,,S,,Stuttgart-Feuerbach|Stuttgart-Zuffenhausen|Neuwirtshaus(Porscheplatz)|Korntal|Weilimdorf|Ditzingen|Höfingen|Leonberg|Rutesheim|Renningen|Malmsheim,8006271,Weil der Stadt,Baden-Württemberg,Weil der Stadt,71263,8.873189074,48.7557357,4,2601230130.0,,,,h,1.0,Bauarbeiten,,,,,,,3.0,0.0
1541038896405338370-2601230033-26,7278,2601230137.0,2601230137.0,1.0,,S,S2,Filderstadt|Stuttgart Flughafen/Messe|Echterdingen|Leinfelden|Oberaichen|Stuttgart-Rohr|Stuttgart-Vaihingen|Stuttgart-Österfeld|Stuttgart Universität|Stuttgart Schwabstr.|Stuttgart Feuersee|Stuttgart Stadtmitte|Stuttgart Hbf (tief)|Stuttgart-Bad Cannstatt|Stuttgart Nürnberger Str.|Stuttgart-Sommerrain|Fellbach|Waiblingen|Rommelshausen|Stetten-Beinstein|Endersbach|Beutelsbach|Grunbach|Geradstetten|Winterbach(b Schorndorf),8006277,Weiler (Rems),Baden-Württemberg,Schorndorf,76314,9.501891172,48.80034585,5,2601230137.0,,2601230137.0,,,,,,,,,,,0.0,0.0
224206650494097505-2601230003-26,7276,2601230107.0,2601230107.0,1.0,,S,S2,Filderstadt|Stuttgart Flughafen/Messe|Echterdingen|Leinfelden|Oberaichen|Stuttgart-Rohr|Stuttgart-Vaihingen|Stuttgart-Österfeld|Stuttgart Universität|Stuttgart Schwabstr.|Stuttgart Feuersee|Stuttgart Stadtmitte|Stuttgart Hbf (tief)|Stuttgart-Bad Cannstatt|Stuttgart Nürnberger Str.|Stuttgart-Sommerrain|Fellbach|Waiblingen|Rommelshausen|Stetten-Beinstein|Endersbach|Beutelsbach|Grunbach|Geradstetten|Winterbach(b Schorndorf),8006277,Weiler (Rems),Baden-Württemberg,Schorndorf,76314,9.501891172,48.80034585,5,2601230107.0,,2601230108.0,,,,,,,,,,,0.0,1.0
-6491793160727462036-2601230048-6,19343,2601230114.0,2601230115.0,2.0,,RE,MEX12,Stuttgart Hbf|Stuttgart-Bad Cannstatt|Esslingen(Neckar)|Plochingen|Wernau(Neckar),8006331,Wendlingen (Neckar),Baden-Württemberg,Wendlingen am Neckar,73240,9.373662098,48.67368917,3,2601230120.0,,2601230120.0,,,,,,,,,,,6.0,5.0
-6491793160727462036-2601230048-5,19343,2601230110.0,2601230111.0,2.0,,RE,MEX12,Stuttgart Hbf|Stuttgart-Bad Cannstatt|Esslingen(Neckar)|Plochingen,8006346,Wernau (Neckar),Baden-Württemberg,Wernau (Neckar),73249,9.413654423,48.69417221,4,2601230116.0,,2601230117.0,,,,,,,,,,,6.0,6.0
-1026300521424850676-2601230100-15,7380,2601230139.0,2601230139.0,2.0,,S,S3,Stuttgart-Vaihingen|Stuttgart-Österfeld|Stuttgart Universität|Stuttgart Schwabstr.|Stuttgart Feuersee|Stuttgart Stadtmitte|Stuttgart Hbf (tief)|Stuttgart-Bad Cannstatt|Stuttgart Nürnberger Str.|Stuttgart-Sommerrain|Fellbach|Waiblingen|Neustadt-Hohenacker|Schwaikheim,8006479,Winnenden,Baden-Württemberg,Winnenden,71364,9.392155928,48.8795625,3,2601230140.0,,2601230140.0,,,,,,,,,,,1.0,1.0
8783147669502223203-2601230030-15,7378,2601230109.0,2601230109.0,2.0,,S,S3,Stuttgart-Vaihingen|Stuttgart-Österfeld|Stuttgart Universität|Stuttgart Schwabstr.|Stuttgart Feuersee|Stuttgart Stadtmitte|Stuttgart Hbf (tief)|Stuttgart-Bad Cannstatt|Stuttgart Nürnberger Str.|Stuttgart-Sommerrain|Fellbach|Waiblingen|Neustadt-Hohenacker|Schwaikheim,8006479,Winnenden,Baden-Württemberg,Winnenden,71364,9.392155928,48.8795625,3,2601230109.0,,2601230109.0,,,,,,,,,,,0.0,0.0
1541038896405338370-2601230033-25,7278,2601230135.0,2601230135.0,2.0,,S,S2,Filderstadt|Stuttgart Flughafen/Messe|Echterdingen|Leinfelden|Oberaichen|Stuttgart-Rohr|Stuttgart-Vaihingen|Stuttgart-Österfeld|Stuttgart Universität|Stuttgart Schwabstr.|Stuttgart Feuersee|Stuttgart Stadtmitte|Stuttgart Hbf (tief)|Stuttgart-Bad Cannstatt|Stuttgart Nürnberger Str.|Stuttgart-Sommerrain|Fellbach|Waiblingen|Rommelshausen|Stetten-Beinstein|Endersbach|Beutelsbach|Grunbach|Geradstetten,8006485,Winterbach (b Schorndorf),Baden-Württemberg,Winterbach,73650,9.481549751,48.79842743,4,2601230135.0,,2601230135.0,,,,,,,,,,,0.0,0.0
224206650494097505-2601230003-25,7276,2601230105.0,2601230105.0,2.0,,S,S2,Filderstadt|Stuttgart Flughafen/Messe|Echterdingen|Leinfelden|Oberaichen|Stuttgart-Rohr|Stuttgart-Vaihingen|Stuttgart-Österfeld|Stuttgart Universität|Stuttgart Schwabstr.|Stuttgart Feuersee|Stuttgart Stadtmitte|Stuttgart Hbf (tief)|Stuttgart-Bad Cannstatt|Stuttgart Nürnberger Str.|Stuttgart-Sommerrain|Fellbach|Waiblingen|Rommelshausen|Stetten-Beinstein|Endersbach|Beutelsbach|Grunbach|Geradstetten,8006485,Winterbach (b Schorndorf),Baden-Württemberg,Winterbach,73650,9.481549751,48.79842743,4,2601230105.0,,2601230105.0,,,,,,,,,,,0.0,0.0
-1026300521424850676-2601230100-7,7380,2601230115.0,2601230115.0,102.0,,S,S3,Stuttgart-Vaihingen|Stuttgart-Österfeld|Stuttgart Universität|Stuttgart Schwabstr.|Stuttgart Feuersee|Stuttgart Stadtmitte,8098096,Stuttgart Hbf (tief),Baden-Württemberg,Stuttgart,70173,9.180228831,48.78338649,1,2601230115.0,,2601230115.0,,,,,,,,,,,0.0,0.0
1541038896405338370-2601230033-13,7278,2601230105.0,2601230105.0,102.0,,S,S2,Filderstadt|Stuttgart Flughafen/Messe|Echterdingen|Leinfelden|Oberaichen|Stuttgart-Rohr|Stuttgart-Vaihingen|Stuttgart-Österfeld|Stuttgart Universität|Stuttgart Schwabstr.|Stuttgart Feuersee|Stuttgart Stadtmitte,8098096,Stuttgart Hbf (tief),Baden-Württemberg,Stuttgart,70173,9.180228831,48.78338649,1,2601230105.0,,2601230105.0,,,,,,,,,,,0.0,0.0
2856584661102317991-2601230037-11,7181,2601230105.0,2601230105.0,101.0,,S,S1,Plochingen|Altbach|Esslingen-Zell|Oberesslingen|Esslingen(Neckar)|Esslingen-Mettingen|Stuttgart-Obertürkheim|Stuttgart-Untertürkheim|Stuttgart Neckarpark|Stuttgart-Bad Cannstatt,8098096,Stuttgart Hbf (tief),Baden-Württemberg,Stuttgart,70173,9.180228831,48.78338649,1,2601230110.0,,2601230110.0,,,,,,,,,,,5.0,5.0
7484030838628378431-2601230452-2,7703,2601230455.0,2601230455.0,3,,S,S1,Plochingen,8000508,Altbach,Baden-Württemberg,Altbach,73776,9.382434033,48.72031354,3,2601230500.0,,2601230501.0,,,,,,,,,p,p,5.0,6.0
1781534358873638088-2601230437-2,7101,2601230440.0,2601230440.0,3,,S,S1,Plochingen,8000508,Altbach,Baden-Württemberg,Altbach,73776,9.382434033,48.72031354,3,2601230440.0,,2601230440.0,,,,,,,,,,,0.0,0.0
-2301911496079253632-2601230422-2,7701,2601230425.0,2601230425.0,3,,S,S1,Plochingen,8000508,Altbach,Baden-Württemberg,Altbach,73776,9.382434033,48.72031354,3,2601230425.0,,2601230425.0,,,,,,,,,,,0.0,0.0
-9020622847777394381-2601230437-3,7501,2601230442.0,2601230443.0,3,,S,S5,Bietigheim-Bissingen|Tamm(Württ),8000630,Asperg,Baden-Württemberg,Asperg,71679,9.147977466,48.90725609,4,2601230444.0,,2601230444.0,,h,2.0,Störung,,,,,,,2.0,1.0
9124798165350701033-2601230423-5,88631,2601230450.0,2601230451.0,4,,ARV,RE90,Stuttgart Hbf|Stuttgart-Bad Cannstatt|Waiblingen|Winnenden,8000016,Backnang,Baden-Württemberg,Backnang,71522,9.425986107,48.94264844,3,2601230450.0,,2601230451.0,,,,,,,,,,,0.0,0.0
8242933012542256606-2601230441-1,7301,,2601230441.0,,,S,S3,,8000016,Backnang,Baden-Württemberg,Backnang,71522,9.425986107,48.94264844,3,,,2601230441.0,,,,,,,,,,,0.0,0.0
4059477772738430465-2601230455-2,7401,2601230457.0,2601230457.0,2,,S,S4,Marbach(Neckar),8000873,Benningen (Neckar),Baden-Württemberg,Benningen am Neckar,71726,9.244299075,48.94379773,5,2601230457.0,,2601230458.0,,h,2.0,Störung,,,,,,,0.0,1.0
8312618108729256880-2601230348-6,28361,2601230400.0,2601230400.0,2,,S,S2,Schorndorf|Weiler(Rems)|Winterbach(b Schorndorf)|Geradstetten|Grunbach,8000934,Beutelsbach,Baden-Württemberg,Weinstadt,71384,9.38551589,48.81038925,5,2601230400.0,,2601230400.0,,,,,,,,,,,0.0,0.0
3282817060879740599-2601230429-7,19203,2601230455.0,2601230457.0,8,,RE,MEX18,Heilbronn Hbf|Nordheim(Württ)|Lauffen(Neckar)|Kirchheim(Neckar)|Walheim(Württ)|Besigheim,8000038,Bietigheim-Bissingen,Baden-Württemberg,Bietigheim-Bissingen,74321,9.137217396,48.94794988,2,2601230459.0,,2601230500.0,,,,,,,,,,,4.0,3.0
-9020622847777394381-2601230437-1,7501,,2601230437.0,,,S,S5,,8000038,Bietigheim-Bissingen,Baden-Württemberg,Bietigheim-Bissingen,74321,9.137217396,48.94794988,2,,,2601230438.0,6.0,h,2.0,Störung,,,,,,,0.0,1.0
-1949358468766091644-2601230417-12,19541,2601230453.0,2601230505.0,3,,RE,MEX17,Pforzheim Hbf|Eutingen(Baden)|Niefern|Enzberg|Mühlacker|Mühlacker Rößlesweg|Illingen(Württ)|Vaihingen(Enz)|Sersheim|Sachsenheim|Ellental,8000038,Bietigheim-Bissingen,Baden-Württemberg,Bietigheim-Bissingen,74321,9.137217396,48.94794988,2,2601230453.0,,2601230508.0,,,,,,,,,,,0.0,3.0
-5919247800237366863-2601230416-6,28360,2601230430.0,2601230430.0,3,,S,S1,Herrenberg|Nufringen|Gärtringen|Ehningen(b Böblingen)|Hulb,8001055,Böblingen,Baden-Württemberg,Böblingen,71034,9.004531864,48.68784871,3,2601230430.0,,2601230431.0,,,,,,,,,,,0.0,1.0
-7074048190611233336-2601230348-7,28369,2601230409.0,2601230409.0,3,,S,S6,Weil der Stadt|Malmsheim|Renningen|Rutesheim|Leonberg|Höfingen,8001476,Ditzingen,Baden-Württemberg,Ditzingen,71254,9.067095186,48.82358726,4,2601230409.0,,2601230409.0,,h,1.0,Bauarbeiten,,,,,,,0.0,0.0
2884405162672083910-2601230441-5,7002,2601230451.0,2601230451.0,2,,S,S60,Stuttgart-Zuffenhausen|Neuwirtshaus(Porscheplatz)|Korntal|Weilimdorf,8001476,Ditzingen,Baden-Württemberg,Ditzingen,71254,9.067095186,48.82358726,4,2601230451.0,,2601230451.0,,,,,,,,,,,0.0,0.0
5411763714021984948-2601230433-7,7601,2601230454.0,2601230454.0,3,,S,S6,Weil der Stadt|Malmsheim|Renningen|Rutesheim|Leonberg|Höfingen,8001476,Ditzingen,Baden-Württemberg,Ditzingen,71254,9.067095186,48.82358726,4,2601230454.0,,2601230454.0,,,,,,,,,,,0.0,0.0
-3405121308737868986-2601230356-22,28363,2601230454.0,2601230455.0,1,,S,S3,Backnang|Maubach|Nellmersbach|Winnenden|Schwaikheim|Neustadt-Hohenacker|Waiblingen|Fellbach|Stuttgart-Sommerrain|Stuttgart Nürnberger Str.|Stuttgart-Bad Cannstatt|Stuttgart Hbf (tief)|Stuttgart Stadtmitte|Stuttgart Feuersee|Stuttgart Schwabstr.|Stuttgart Universität|Stuttgart-Österfeld|Stuttgart-Vaihingen|Stuttgart-Rohr|Oberaichen|Leinfelden,8001650,Echterdingen,Baden-Württemberg,Echterdingen,70771,9.169307175,48.69214787,4,2601230454.0,,2601230455.0,,,,,,,,,,,0.0,0.0
-5919247800237366863-2601230416-4,28360,2601230425.0,2601230425.0,1,,S,S1,Herrenberg|Nufringen|Gärtringen,8001689,Ehningen (b Böblingen),Baden-Württemberg,Ehningen,71139,8.944310368,48.66275549,4,2601230425.0,,2601230425.0,,,,,,,,,,,0.0,0.0
7889952835218125235-2601230446-4,7102,2601230455.0,2601230455.0,1,,S,S1,Herrenberg|Nufringen|Gärtringen,8001689,Ehningen (b Böblingen),Baden-Württemberg,Ehningen,71139,8.944310368,48.66275549,4,2601230455.0,,2601230455.0,,,,,,,,,,,0.0,0.0
8312618108729256880-2601230348-7,28361,2601230402.0,2601230402.0,3,,S,S2,Schorndorf|Weiler(Rems)|Winterbach(b Schorndorf)|Geradstetten|Grunbach|Beutelsbach,8001785,Endersbach,Baden-Württemberg,Weinstadt,71384,9.370192421,48.81317323,4,2601230402.0,,2601230402.0,,,,,,,,,,,0.0,0.0
4693049160569863660-2601230353-5,28359,2601230402.0,2601230403.0,7,,S,S1,Plochingen|Altbach|Esslingen-Zell|Oberesslingen,8001920,Esslingen (Neckar),Baden-Württemberg,Esslingen am Neckar,73728,9.300578149,48.73854148,3,2601230402.0,,2601230403.0,,,,,,,,,,,0.0,0.0
1781534358873638088-2601230437-5,7101,2601230447.0,2601230448.0,7,,S,S1,Plochingen|Altbach|Esslingen-Zell|Oberesslingen,8001920,Esslingen (Neckar),Baden-Württemberg,Esslingen am Neckar,73728,9.300578149,48.73854148,3,2601230447.0,,2601230448.0,,,,,,,,,,,0.0,0.0
-2605312677894761496-2601230442-3,19109,2601230453.0,2601230454.0,5,,ARV,MEX16,Stuttgart Hbf|Stuttgart-Bad Cannstatt,8001920,Esslingen (Neckar),Baden-Württemberg,Esslingen am Neckar,73728,9.300578149,48.73854148,3,2601230453.0,,2601230454.0,,,,,,,,,,,0.0,0.0
-2301911496079253632-2601230422-5,7701,2601230432.0,2601230433.0,7,,S,S1,Plochingen|Altbach|Esslingen-Zell|Oberesslingen,8001920,Esslingen (Neckar),Baden-Württemberg,Esslingen am Neckar,73728,9.300578149,48.73854148,3,2601230432.0,,2601230433.0,,,,,,,,,,,0.0,0.0
4693049160569863660-2601230353-6,28359,2601230405.0,2601230405.0,3,,S,S1,Plochingen|Altbach|Esslingen-Zell|Oberesslingen|Esslingen(Neckar),8001921,Esslingen-Mettingen,Baden-Württemberg,Esslingen am Neckar,73733,9.275799007,48.74696655,3,2601230405.0,,2601230406.0,,,,,,,,,,,0.0,1.0
1781534358873638088-2601230437-6,7101,2601230450.0,2601230450.0,3,,S,S1,Plochingen|Altbach|Esslingen-Zell|Oberesslingen|Esslingen(Neckar),8001921,Esslingen-Mettingen,Baden-Württemberg,Esslingen am Neckar,73733,9.275799007,48.74696655,3,2601230450.0,,2601230450.0,,,,,,,,,,,0.0,0.0
-2301911496079253632-2601230422-6,7701,2601230435.0,2601230435.0,3,,S,S1,Plochingen|Altbach|Esslingen-Zell|Oberesslingen|Esslingen(Neckar),8001921,Esslingen-Mettingen,Baden-Württemberg,Esslingen am Neckar,73733,9.275799007,48.74696655,3,2601230435.0,,2601230435.0,,,,,,,,,,,0.0,0.0
7484030838628378431-2601230452-3,7703,2601230457.0,2601230457.0,3,,S,S1,Plochingen|Altbach,8006642,Esslingen-Zell,Baden-Württemberg,Esslingen am Neckar,73730,9.359739507,48.72436142,3,2601230502.0,,2601230503.0,,,,,,,,,p,p,5.0,6.0
1781534358873638088-2601230437-3,7101,2601230442.0,2601230442.0,3,,S,S1,Plochingen|Altbach,8006642,Esslingen-Zell,Baden-Württemberg,Esslingen am Neckar,73730,9.359739507,48.72436142,3,2601230442.0,,2601230442.0,,,,,,,,,,,0.0,0.0
-2301911496079253632-2601230422-3,7701,2601230427.0,2601230427.0,3,,S,S1,Plochingen|Altbach,8006642,Esslingen-Zell,Baden-Württemberg,Esslingen am Neckar,73730,9.359739507,48.72436142,3,2601230427.0,,2601230427.0,,,,,,,,,,,0.0,0.0
-2528850404755729-2601230355-4,28365,2601230403.0,2601230403.0,2,,S,S4,Marbach(Neckar)|Benningen(Neckar)|Freiberg(Neckar),8001967,Favoritepark,Baden-Württemberg,Ludwigsburg,71634,9.180574277,48.90948451,5,2601230403.0,,2601230404.0,,h,1.0,Bauarbeiten,,,,,,,0.0,1.0
8312618108729256880-2601230348-11,28361,2601230412.0,2601230413.0,4,,S,S2,Schorndorf|Weiler(Rems)|Winterbach(b Schorndorf)|Geradstetten|Grunbach|Beutelsbach|Endersbach|Stetten-Beinstein|Rommelshausen|Waiblingen,8001974,Fellbach,Baden-Württemberg,Fellbach,70736,9.270645988,48.8202936,3,2601230412.0,,2601230413.0,,,,,,,,,,,0.0,0.0
-3405121308737868986-2601230356-8,28363,2601230417.0,2601230418.0,4,,S,S3,Backnang|Maubach|Nellmersbach|Winnenden|Schwaikheim|Neustadt-Hohenacker|Waiblingen,8001974,Fellbach,Baden-Württemberg,Fellbach,70736,9.270645988,48.8202936,3,2601230417.0,,2601230418.0,,,,,,,,,,,0.0,0.0
-3405121308737868986-2601230356-23,28363,2601230457.0,,2,,S,,Backnang|Maubach|Nellmersbach|Winnenden|Schwaikheim|Neustadt-Hohenacker|Waiblingen|Fellbach|Stuttgart-Sommerrain|Stuttgart Nürnberger Str.|Stuttgart-Bad Cannstatt|Stuttgart Hbf (tief)|Stuttgart Stadtmitte|Stuttgart Feuersee|Stuttgart Schwabstr.|Stuttgart Universität|Stuttgart-Österfeld|Stuttgart-Vaihingen|Stuttgart-Rohr|Oberaichen|Leinfelden|Echterdingen,8005768,Stuttgart Flughafen/Messe,Baden-Württemberg,Leinfelden-Echterdingen,70629,9.193411574,48.69075193,4,2601230458.0,1.0,,,,,,,,,,,,1.0,0.0
-2528850404755729-2601230355-3,28365,2601230400.0,2601230401.0,2,,S,S4,Marbach(Neckar)|Benningen(Neckar),8002065,Freiberg (Neckar),Baden-Württemberg,Freiberg am Neckar,71691,9.197530085,48.92994974,5,2601230401.0,,2601230401.0,,h,1.0,Bauarbeiten,,,,,,,1.0,0.0
-5919247800237366863-2601230416-3,28360,2601230422.0,2601230422.0,2,,S,S1,Herrenberg|Nufringen,8002165,Gärtringen,Baden-Württemberg,Gärtringen,71116,8.908864487,48.64080021,5,2601230422.0,,2601230422.0,,,,,,,,,,,0.0,0.0
7889952835218125235-2601230446-3,7102,2601230452.0,2601230452.0,2,,S,S1,Herrenberg|Nufringen,8002165,Gärtringen,Baden-Württemberg,Gärtringen,71116,8.908864487,48.64080021,5,2601230452.0,,2601230452.0,,,,,,,,,,,0.0,0.0
7239447269276523252-2601230448-4,7203,2601230455.0,2601230456.0,1,,S,S2,Schorndorf|Weiler(Rems)|Winterbach(b Schorndorf),8002240,Geradstetten,Baden-Württemberg,Remshalden,73630,9.439522346,48.80527689,5,2601230455.0,,2601230456.0,,,,,,,,,,,0.0,0.0
-5919247800237366863-2601230416-7,28360,2601230432.0,2601230432.0,2,,S,S1,Herrenberg|Nufringen|Gärtringen|Ehningen(b Böblingen)|Hulb|Böblingen,8005201,Goldberg,Baden-Württemberg,Böblingen,71032,9.019733387,48.69651581,5,2601230432.0,,2601230433.0,,,,,,,,,,,0.0,1.0
7239447269276523252-2601230448-5,7203,2601230457.0,2601230458.0,2,,S,S2,Schorndorf|Weiler(Rems)|Winterbach(b Schorndorf)|Geradstetten,8002448,Grunbach,Baden-Württemberg,Remshalden,73630,9.419580601,48.810414,4,2601230457.0,,2601230458.0,,,,,,,,,,,0.0,0.0
-5919247800237366863-2601230416-1,28360,,2601230416.0,,,S,S1,,8002785,Herrenberg,Baden-Württemberg,Herrenberg,71083,8.862625253,48.59395697,3,,,2601230416.0,,,,,,,,,,,0.0,0.0
7889952835218125235-2601230446-1,7102,,2601230446.0,,,S,S1,,8002785,Herrenberg,Baden-Württemberg,Herrenberg,71083,8.862625253,48.59395697,3,,,2601230446.0,,,,,,,,,,,0.0,0.0
8035212096578354289-2601230459-1,22700,,2601230459.0,,,RB,RB63,,8002785,Herrenberg,Baden-Württemberg,Herrenberg,71083,8.862625253,48.59395697,3,,,2601230459.0,,,,,,,,,,,0.0,0.0
-6088404248444350525-2601230427-10,22709,2601230453.0,,102,,RB,,Tübingen Hbf|Tübingen West|Unterjesingen Sandäcker|Unterjesingen Mitte|Pfäffingen|Entringen|Altingen(Württ)|Gültstein|Herrenberg Zwerchweg,8002785,Herrenberg,Baden-Württemberg,Herrenberg,71083,8.862625253,48.59395697,3,2601230453.0,,,,,,,,,,,,,0.0,0.0
-7074048190611233336-2601230348-6,28369,2601230405.0,2601230406.0,1,,S,S6,Weil der Stadt|Malmsheim|Renningen|Rutesheim|Leonberg,8002892,Höfingen,Baden-Württemberg,Leonberg,71229,9.026180834,48.81503436,5,2601230406.0,,2601230406.0,,h,1.0,Bauarbeiten,,,,,,,1.0,0.0
2884405162672083910-2601230441-6,7002,2601230454.0,2601230454.0,2,,S,S60,Stuttgart-Zuffenhausen|Neuwirtshaus(Porscheplatz)|Korntal|Weilimdorf|Ditzingen,8002892,Höfingen,Baden-Württemberg,Leonberg,71229,9.026180834,48.81503436,5,2601230454.0,,2601230455.0,,,,,,,,,,,0.0,1.0
5411763714021984948-2601230433-6,7601,2601230450.0,2601230451.0,1,,S,S6,Weil der Stadt|Malmsheim|Renningen|Rutesheim|Leonberg,8002892,Höfingen,Baden-Württemberg,Leonberg,71229,9.026180834,48.81503436,5,2601230450.0,,2601230451.0,,,,,,,,,,,0.0,0.0
-5919247800237366863-2601230416-5,28360,2601230428.0,2601230428.0,2,,S,S1,Herrenberg|Nufringen|Gärtringen|Ehningen(b Böblingen),8003022,Hulb,Baden-Württemberg,Böblingen-Hulb,71032,8.982396429,48.67924173,5,2601230428.0,,2601230428.0,,,,,,,,,,,0.0,0.0
7889952835218125235-2601230446-5,7102,2601230458.0,2601230458.0,2,,S,S1,Herrenberg|Nufringen|Gärtringen|Ehningen(b Böblingen),8003022,Hulb,Baden-Württemberg,Böblingen-Hulb,71032,8.982396429,48.67924173,5,2601230458.0,,2601230459.0,,,,,,,,,,,0.0,1.0
-7074048190611233336-2601230348-9,28369,2601230413.0,2601230414.0,3,,S,S6,Weil der Stadt|Malmsheim|Renningen|Rutesheim|Leonberg|Höfingen|Ditzingen|Weilimdorf,8003409,Korntal,Baden-Württemberg,Korntal,70825,9.121099128,48.82640246,4,2601230413.0,,2601230414.0,,h,1.0,Bauarbeiten,,,,,,,0.0,0.0
2884405162672083910-2601230441-3,7002,2601230446.0,2601230446.0,1,,S,S60,Stuttgart-Zuffenhausen|Neuwirtshaus(Porscheplatz),8003409,Korntal,Baden-Württemberg,Korntal,70825,9.121099128,48.82640246,4,2601230446.0,,2601230446.0,,,,,,,,,,,0.0,0.0
5411763714021984948-2601230433-9,7601,2601230458.0,2601230459.0,3,,S,S6,Weil der Stadt|Malmsheim|Renningen|Rutesheim|Leonberg|Höfingen|Ditzingen|Weilimdorf,8003409,Korntal,Baden-Württemberg,Korntal,70825,9.121099128,48.82640246,4,2601230501.0,,2601230501.0,,,,,,,,,,,3.0,2.0
-9020622847777394381-2601230437-5,7501,2601230449.0,2601230450.0,3,,S,S5,Bietigheim-Bissingen|Tamm(Württ)|Asperg|Ludwigsburg,8003411,Kornwestheim Pbf,Baden-Württemberg,Kornwestheim,70806,9.179967278,48.86215948,3,2601230451.0,,2601230452.0,,h,2.0,Störung,,,,,,,2.0,2.0
1348020220601344513-2601230352-5,28367,2601230404.0,2601230405.0,3,,S,S5,Bietigheim-Bissingen|Tamm(Württ)|Asperg|Ludwigsburg,8003411,Kornwestheim Pbf,Baden-Württemberg,Kornwestheim,70806,9.179967278,48.86215948,3,2601230405.0,,2601230405.0,,h,2.0,Störung,,,,,,,1.0,0.0
-3405121308737868986-2601230356-21,28363,2601230451.0,2601230452.0,1,,S,S3,Backnang|Maubach|Nellmersbach|Winnenden|Schwaikheim|Neustadt-Hohenacker|Waiblingen|Fellbach|Stuttgart-Sommerrain|Stuttgart Nürnberger Str.|Stuttgart-Bad Cannstatt|Stuttgart Hbf (tief)|Stuttgart Stadtmitte|Stuttgart Feuersee|Stuttgart Schwabstr.|Stuttgart Universität|Stuttgart-Österfeld|Stuttgart-Vaihingen|Stuttgart-Rohr|Oberaichen,8003622,Leinfelden,Baden-Württemberg,Leinfelden-Echterdingen,70771,9.142859698,48.6964193,4,2601230451.0,,2601230452.0,,,,,,,,,,,0.0,0.0
-7074048190611233336-2601230348-5,28369,2601230402.0,2601230402.0,1,,S,S6,Weil der Stadt|Malmsheim|Renningen|Rutesheim,8003652,Leonberg,Baden-Württemberg,Leonberg,71229,9.004025993,48.79970547,3,2601230402.0,,2601230402.0,,h,1.0,Bauarbeiten,,,,,,,0.0,0.0
2884405162672083910-2601230441-7,7002,2601230458.0,2601230458.0,2,,S,S60,Stuttgart-Zuffenhausen|Neuwirtshaus(Porscheplatz)|Korntal|Weilimdorf|Ditzingen|Höfingen,8003652,Leonberg,Baden-Württemberg,Leonberg,71229,9.004025993,48.79970547,3,2601230458.0,,2601230459.0,,,,,,,,,,,0.0,1.0
5411763714021984948-2601230433-5,7601,2601230447.0,2601230447.0,1,,S,S6,Weil der Stadt|Malmsheim|Renningen|Rutesheim,8003652,Leonberg,Baden-Württemberg,Leonberg,71229,9.004025993,48.79970547,3,2601230447.0,,2601230447.0,,,,,,,,,,,0.0,0.0
-9020622847777394381-2601230437-4,7501,2601230446.0,2601230446.0,3,,S,S5,Bietigheim-Bissingen|Tamm(Württ)|Asperg,8000235,Ludwigsburg,Baden-Württemberg,Ludwigsburg,71638,9.185229823,48.89208622,3,2601230448.0,3.0,2601230448.0,3.0,h,2.0,Störung,,,,,,,2.0,2.0
-2528850404755729-2601230355-5,28365,2601230406.0,,3,,S,,Marbach(Neckar)|Benningen(Neckar)|Freiberg(Neckar)|Favoritepark,8000235,Ludwigsburg,Baden-Württemberg,Ludwigsburg,71638,9.185229823,48.89208622,3,2601230406.0,,,,h,1.0,Bauarbeiten,,,,,,,0.0,0.0
6839500523111524784-2601230443-2,19210,2601230453.0,2601230453.0,1,,RE,MEX18,Stuttgart Hbf,8000235,Ludwigsburg,Baden-Württemberg,Ludwigsburg,71638,9.185229823,48.89208622,3,2601230453.0,,2601230453.0,,,,,,,,,,,0.0,0.0
1348020220601344513-2601230352-4,28367,2601230401.0,2601230401.0,3,,S,S5,Bietigheim-Bissingen|Tamm(Württ)|Asperg,8000235,Ludwigsburg,Baden-Württemberg,Ludwigsburg,71638,9.185229823,48.89208622,3,2601230401.0,3.0,2601230401.0,3.0,h,2.0,Störung,,,,,,,0.0,0.0
5411763714021984948-2601230433-2,7601,2601230435.0,2601230435.0,2,,S,S6,Weil der Stadt,8003831,Malmsheim,Baden-Württemberg,Renningen,71272,8.905105557,48.77183564,5,2601230436.0,,2601230436.0,,,,,,,,,,,1.0,1.0
4059477772738430465-2601230455-1,7401,,2601230455.0,,,S,S4,,8003853,Marbach (Neckar),Baden-Württemberg,Marbach am Neckar,71672,9.264611825,48.9437708,3,,,2601230455.0,,h,2.0,Störung,,,,,,,0.0,0.0
8242933012542256606-2601230441-2,7301,2601230443.0,2601230444.0,1,,S,S3,Backnang,8003913,Maubach,Baden-Württemberg,Backnang,71522,9.419487062,48.92623463,4,2601230444.0,,2601230445.0,,,,,,,,,,,1.0,1.0
8242933012542256606-2601230441-3,7301,2601230446.0,2601230446.0,1,,S,S3,Backnang|Maubach,8004233,Nellmersbach,Baden-Württemberg,Leutenbach,71397,9.415421538,48.90336425,5,2601230447.0,,2601230448.0,,,,,,,,,,,1.0,2.0
-3405121308737868986-2601230356-3,28363,2601230401.0,2601230401.0,1,,S,S3,Backnang|Maubach,8004233,Nellmersbach,Baden-Württemberg,Leutenbach,71397,9.415421538,48.90336425,5,2601230401.0,,2601230401.0,,,,,,,,,,,0.0,0.0
8242933012542256606-2601230441-6,7301,2601230455.0,2601230455.0,2,,S,S3,Backnang|Maubach|Nellmersbach|Winnenden|Schwaikheim,8004333,Neustadt-Hohenacker,Baden-Württemberg,Waiblingen,71336,9.32455106,48.85921668,5,2601230456.0,,2601230456.0,,,,,,,,,,,1.0,1.0
-3405121308737868986-2601230356-6,28363,2601230410.0,2601230410.0,2,,S,S3,Backnang|Maubach|Nellmersbach|Winnenden|Schwaikheim,8004333,Neustadt-Hohenacker,Baden-Württemberg,Waiblingen,71336,9.32455106,48.85921668,5,2601230410.0,,2601230410.0,,,,,,,,,,,0.0,0.0
-7074048190611233336-2601230348-10,28369,2601230416.0,2601230416.0,2,,S,S6,Weil der Stadt|Malmsheim|Renningen|Rutesheim|Leonberg|Höfingen|Ditzingen|Weilimdorf|Korntal,8004338,Neuwirtshaus (Porscheplatz),Baden-Württemberg,Stuttgart,70435,9.151955614,48.83384734,4,2601230416.0,,2601230416.0,,h,1.0,Bauarbeiten,,,,,,,0.0,0.0
2884405162672083910-2601230441-2,7002,2601230443.0,2601230443.0,1,,S,S60,Stuttgart-Zuffenhausen,8004338,Neuwirtshaus (Porscheplatz),Baden-Württemberg,Stuttgart,70435,9.151955614,48.83384734,4,2601230443.0,,2601230443.0,,,,,,,,,,,0.0,0.0
-5919247800237366863-2601230416-2,28360,2601230419.0,2601230419.0,2,,S,S1,Herrenberg,8004490,Nufringen,Baden-Württemberg,Nufringen,71154,8.889817485,48.62010967,5,2601230419.0,,2601230420.0,,,,,,,,,,,0.0,1.0
7889952835218125235-2601230446-2,7102,2601230449.0,2601230449.0,2,,S,S1,Herrenberg,8004490,Nufringen,Baden-Württemberg,Nufringen,71154,8.889817485,48.62010967,5,2601230449.0,,2601230450.0,,,,,,,,,,,0.0,1.0
-3405121308737868986-2601230356-20,28363,2601230449.0,2601230449.0,1,,S,S3,Backnang|Maubach|Nellmersbach|Winnenden|Schwaikheim|Neustadt-Hohenacker|Waiblingen|Fellbach|Stuttgart-Sommerrain|Stuttgart Nürnberger Str.|Stuttgart-Bad Cannstatt|Stuttgart Hbf (tief)|Stuttgart Stadtmitte|Stuttgart Feuersee|Stuttgart Schwabstr.|Stuttgart Universität|Stuttgart-Österfeld|Stuttgart-Vaihingen|Stuttgart-Rohr,8004496,Oberaichen,Baden-Württemberg,Leinfelden-Echterdingen,70771,9.12743664,48.70512422,5,2601230449.0,,2601230450.0,,,,,,,,,,,0.0,1.0
4693049160569863660-2601230353-4,28359,2601230400.0,2601230400.0,3,,S,S1,Plochingen|Altbach|Esslingen-Zell,8004528,Oberesslingen,Baden-Württemberg,Esslingen am Neckar,73730,9.327277435,48.72983585,3,2601230400.0,,2601230400.0,,,,,,,,,,,0.0,0.0
1781534358873638088-2601230437-4,7101,2601230445.0,2601230445.0,3,,S,S1,Plochingen|Altbach|Esslingen-Zell,8004528,Oberesslingen,Baden-Württemberg,Esslingen am Neckar,73730,9.327277435,48.72983585,3,2601230445.0,,2601230445.0,,,,,,,,,,,0.0,0.0
-2301911496079253632-2601230422-4,7701,2601230430.0,2601230430.0,3,,S,S1,Plochingen|Altbach|Esslingen-Zell,8004528,Oberesslingen,Baden-Württemberg,Esslingen am Neckar,73730,9.327277435,48.72983585,3,2601230430.0,,2601230430.0,,,,,,,,,,,0.0,0.0
7484030838628378431-2601230452-1,7703,,2601230452.0,,,S,S1,,8000302,Plochingen,Baden-Württemberg,Plochingen,73207,9.411294578,48.71293906,2,,,2601230458.0,,,,,,,,,,p,0.0,6.0
-6574691864383154011-2601230414-8,19206,2601230459.0,2601230501.0,6,,RE,MEX12,Tübingen Hbf|Reutlingen Hbf|Metzingen(Württ)|Bempflingen|Nürtingen|Oberboihingen|Wendlingen(Neckar),8000302,Plochingen,Baden-Württemberg,Plochingen,73207,9.411294578,48.71293906,2,2601230459.0,,2601230502.0,,,,,,,,,,,0.0,1.0
1781534358873638088-2601230437-1,7101,,2601230437.0,,,S,S1,,8000302,Plochingen,Baden-Württemberg,Plochingen,73207,9.411294578,48.71293906,2,,,2601230437.0,,,,,,,,,,,0.0,0.0
-2605312677894761496-2601230442-4,19109,2601230459.0,2601230500.0,4,,ARV,MEX16,Stuttgart Hbf|Stuttgart-Bad Cannstatt|Esslingen(Neckar),8000302,Plochingen,Baden-Württemberg,Plochingen,73207,9.411294578,48.71293906,2,2601230500.0,,2601230500.0,,,,,,,,,,,1.0,0.0
-2447356391623694549-2601230414-13,19108,2601230457.0,2601230457.0,1,,ARV,MEX16,Geislingen(Steige)|Geislingen(Steige)West|Kuchen|Gingen(Fils)|Süßen|Salach|Eislingen(Fils)|Göppingen|Faurndau|Uhingen|Ebersbach(Fils)|Reichenbach(Fils),8000302,Plochingen,Baden-Württemberg,Plochingen,73207,9.411294578,48.71293906,2,2601230459.0,3.0,2601230458.0,3.0,,,,,,,,,,2.0,1.0
-2301911496079253632-2601230422-1,7701,,2601230422.0,,,S,S1,,8000302,Plochingen,Baden-Württemberg,Plochingen,73207,9.411294578,48.71293906,2,,,2601230422.0,9.0,,,,,,,,,,0.0,0.0
5411763714021984948-2601230433-3,7601,2601230437.0,2601230441.0,2,,S,S6,Weil der Stadt|Malmsheim,8000313,Renningen,Baden-Württemberg,Renningen,71272,8.932650148,48.77515509,3,2601230438.0,,2601230441.0,,,,,,,,,,,1.0,0.0
8312618108729256880-2601230348-9,28361,2601230406.0,2601230407.0,2,,S,S2,Schorndorf|Weiler(Rems)|Winterbach(b Schorndorf)|Geradstetten|Grunbach|Beutelsbach|Endersbach|Stetten-Beinstein,8005157,Rommelshausen,Baden-Württemberg,Kernen,71394,9.319175885,48.81552017,4,2601230406.0,,2601230407.0,,,,,,,,,,,0.0,0.0
5411763714021984948-2601230433-4,7601,2601230443.0,2601230444.0,1,,S,S6,Weil der Stadt|Malmsheim|Renningen,8005236,Rutesheim,Baden-Württemberg,Leonberg,71229,8.960325242,48.79031093,5,2601230443.0,,2601230444.0,,,,,,,,,,,0.0,0.0
7239447269276523252-2601230448-1,7203,,2601230448.0,,,S,S2,,8005424,Schorndorf,Baden-Württemberg,Schorndorf,73614,9.525686251,48.80693898,3,,,2601230448.0,,,,,,,,,,,0.0,0.0
8242933012542256606-2601230441-5,7301,2601230452.0,2601230453.0,1,,S,S3,Backnang|Maubach|Nellmersbach|Winnenden,8005454,Schwaikheim,Baden-Württemberg,Schwaikheim,71409,9.354747358,48.86832665,4,2601230453.0,,2601230453.0,,,,,,,,,,,1.0,0.0
-3405121308737868986-2601230356-5,28363,2601230407.0,2601230408.0,1,,S,S3,Backnang|Maubach|Nellmersbach|Winnenden,8005454,Schwaikheim,Baden-Württemberg,Schwaikheim,71409,9.354747358,48.86832665,4,2601230407.0,,2601230408.0,,,,,,,,,,,0.0,0.0
8312618108729256880-2601230348-8,28361,2601230404.0,2601230404.0,2,,S,S2,Schorndorf|Weiler(Rems)|Winterbach(b Schorndorf)|Geradstetten|Grunbach|Beutelsbach|Endersbach,8005726,Stetten-Beinstein,Baden-Württemberg,Weinstadt,71384,9.352769725,48.81199601,5,2601230404.0,,2601230404.0,,,,,,,,,,,0.0,0.0
9124798165350701033-2601230423-1,88631,,2601230423.0,,,ARV,RE90,,8000096,Stuttgart Hbf,Baden-Württemberg,Stuttgart,70173,9.183172973,48.78473069,1,,,2601230424.0,,,,,,,,,,,0.0,1.0
9095100448455970117-2601230453-1,19052,,2601230453.0,,,ARV,RE8,,8000096,Stuttgart Hbf,Baden-Württemberg,Stuttgart,70173,9.183172973,48.78473069,1,,,2601230453.0,,h,2.0,Information,,,,,,,0.0,0.0
-7178872726415890131-2601230458-1,17611,,2601230458.0,,,RE,RE14a,,8000096,Stuttgart Hbf,Baden-Württemberg,Stuttgart,70173,9.183172973,48.78473069,1,,,2601230458.0,,,,,,,,,,,0.0,0.0
5926473462606976417-2601221926-16,619,2601230403.0,2601230409.0,16,,ICE,,Hamburg-Altona|Hamburg Dammtor|Hamburg Hbf|Hamburg-Harburg|Bremen Hbf|Osnabrück Hbf|Dortmund Hbf|Wuppertal Hbf|Solingen Hbf|Köln Hbf|Siegburg/Bonn|Frankfurt(M) Flughafen Fernbf|Frankfurt(Main)Hbf|Mannheim Hbf|Heidelberg Hbf,8000096,Stuttgart Hbf,Baden-Württemberg,Stuttgart,70173,9.183172973,48.78473069,1,2601230430.0,15.0,2601230435.0,15.0,h,1.0,Störung,,,,,,,27.0,26.0
6779514588305592946-2601230447-1,19451,,2601230447.0,,,ARV,MEX13,,8000096,Stuttgart Hbf,Baden-Württemberg,Stuttgart,70173,9.183172973,48.78473069,1,,,2601230447.0,,,,,,,,,,,0.0,0.0
6839500523111524784-2601230443-1,19210,,2601230443.0,,,RE,MEX18,,8000096,Stuttgart Hbf,Baden-Württemberg,Stuttgart,70173,9.183172973,48.78473069,1,,,2601230443.0,,,,,,,,,,,0.0,0.0
-2605312677894761496-2601230442-1,19109,,2601230442.0,,,ARV,MEX16,,8000096,Stuttgart Hbf,Baden-Württemberg,Stuttgart,70173,9.183172973,48.78473069,1,,,2601230442.0,,,,,,,,,,,0.0,0.0
-2301911496079253632-2601230422-11,7701,2601230450.0,,4,,S,,Plochingen|Altbach|Esslingen-Zell|Oberesslingen|Esslingen(Neckar)|Esslingen-Mettingen|Stuttgart-Obertürkheim|Stuttgart-Untertürkheim|Stuttgart Neckarpark|Stuttgart-Bad Cannstatt,8000096,Stuttgart Hbf,Baden-Württemberg,Stuttgart,70173,9.183172973,48.78473069,1,2601230450.0,,,,,,,,,,,,,0.0,0.0
1348020220601344513-2601230352-7,28367,2601230418.0,,5,,S,,Bietigheim-Bissingen|Tamm(Württ)|Asperg|Ludwigsburg|Kornwestheim Pbf|Stuttgart-Zuffenhausen,8000096,Stuttgart Hbf,Baden-Württemberg,Stuttgart,70173,9.183172973,48.78473069,1,2601230418.0,,,,h,2.0,Störung,,,,,,,0.0,0.0
7314216531638087218-2601230458-1,7500,,2601230458.0,,,S,S5,,8000096,Stuttgart Hbf,Baden-Württemberg,Stuttgart,70173,9.183172973,48.78473069,1,,,2601230458.0,,h,1.0,Bauarbeiten,,,,,,,0.0,0.0
-7363861252398759561-2601222118-13,699,2601230453.0,2601230512.0,16,,ICE,,Berlin Gesundbrunnen|Berlin Hbf|Berlin Südkreuz|Lutherstadt Wittenberg Hbf|Bitterfeld|Halle(Saale)Hbf|Erfurt Hbf|Eisenach Hbf|Frankfurt(Main)Hbf|Frankfurt(M) Flughafen Fernbf|Mannheim Hbf|Heidelberg Hbf,8000096,Stuttgart Hbf,Baden-Württemberg,Stuttgart,70173,9.183172973,48.78473069,1,2601230450.0,,2601230512.0,,h,2.0,Information,,,,,,,-3.0,0.0
4693049160569863660-2601230353-9,28359,2601230412.0,2601230412.0,1,,S,S1,Plochingen|Altbach|Esslingen-Zell|Oberesslingen|Esslingen(Neckar)|Esslingen-Mettingen|Stuttgart-Obertürkheim|Stuttgart-Untertürkheim,8006743,Stuttgart Neckarpark,Baden-Württemberg,Stuttgart,70372,9.24106855,48.79194362,4,2601230412.0,,2601230412.0,,,,,,,,,,,0.0,0.0
1781534358873638088-2601230437-9,7101,2601230457.0,2601230457.0,1,,S,S1,Plochingen|Altbach|Esslingen-Zell|Oberesslingen|Esslingen(Neckar)|Esslingen-Mettingen|Stuttgart-Obertürkheim|Stuttgart-Untertürkheim,8006743,Stuttgart Neckarpark,Baden-Württemberg,Stuttgart,70372,9.24106855,48.79194362,4,2601230457.0,,2601230457.0,,,,,,,,,,,0.0,0.0
-2301911496079253632-2601230422-9,7701,2601230442.0,2601230442.0,1,,S,S1,Plochingen|Altbach|Esslingen-Zell|Oberesslingen|Esslingen(Neckar)|Esslingen-Mettingen|Stuttgart-Obertürkheim|Stuttgart-Untertürkheim,8006743,Stuttgart Neckarpark,Baden-Württemberg,Stuttgart,70372,9.24106855,48.79194362,4,2601230442.0,,2601230442.0,,,,,,,,,,,0.0,0.0
8312618108729256880-2601230348-13,28361,2601230417.0,2601230418.0,1,,S,S2,Schorndorf|Weiler(Rems)|Winterbach(b Schorndorf)|Geradstetten|Grunbach|Beutelsbach|Endersbach|Stetten-Beinstein|Rommelshausen|Waiblingen|Fellbach|Stuttgart-Sommerrain,8004357,Stuttgart Nürnberger Straße,Baden-Württemberg,Stuttgart,70374,9.234576905,48.80656062,5,2601230417.0,,2601230418.0,,,,,,,,,,,0.0,0.0
-3405121308737868986-2601230356-10,28363,2601230422.0,2601230423.0,1,,S,S3,Backnang|Maubach|Nellmersbach|Winnenden|Schwaikheim|Neustadt-Hohenacker|Waiblingen|Fellbach|Stuttgart-Sommerrain,8004357,Stuttgart Nürnberger Straße,Baden-Württemberg,Stuttgart,70374,9.234576905,48.80656062,5,2601230422.0,,2601230423.0,,,,,,,,,,,0.0,0.0
4693049160569863660-2601230353-16,28359,2601230432.0,2601230432.0,1,,S,S1,Plochingen|Altbach|Esslingen-Zell|Oberesslingen|Esslingen(Neckar)|Esslingen-Mettingen|Stuttgart-Obertürkheim|Stuttgart-Untertürkheim|Stuttgart Neckarpark|Stuttgart-Bad Cannstatt|Stuttgart Hbf (tief)|Stuttgart Stadtmitte|Stuttgart Feuersee|Stuttgart Schwabstr.|Stuttgart Universität,8005779,Stuttgart Österfeld,Baden-Württemberg,Stuttgart,70563,9.116751457,48.73749946,4,2601230432.0,,2601230432.0,,,,,,,,,,,0.0,0.0
-3405121308737868986-2601230356-17,28363,2601230442.0,2601230442.0,1,,S,S3,Backnang|Maubach|Nellmersbach|Winnenden|Schwaikheim|Neustadt-Hohenacker|Waiblingen|Fellbach|Stuttgart-Sommerrain|Stuttgart Nürnberger Str.|Stuttgart-Bad Cannstatt|Stuttgart Hbf (tief)|Stuttgart Stadtmitte|Stuttgart Feuersee|Stuttgart Schwabstr.|Stuttgart Universität,8005779,Stuttgart Österfeld,Baden-Württemberg,Stuttgart,70563,9.116751457,48.73749946,4,2601230443.0,,2601230443.0,,,,,,,,,,,1.0,1.0
4693049160569863660-2601230353-15,28359,2601230430.0,2601230430.0,1,,S,S1,Plochingen|Altbach|Esslingen-Zell|Oberesslingen|Esslingen(Neckar)|Esslingen-Mettingen|Stuttgart-Obertürkheim|Stuttgart-Untertürkheim|Stuttgart Neckarpark|Stuttgart-Bad Cannstatt|Stuttgart Hbf (tief)|Stuttgart Stadtmitte|Stuttgart Feuersee|Stuttgart Schwabstr.,8006513,Stuttgart Universität,Baden-Württemberg,Stuttgart,70569,9.105864214,48.74511762,4,2601230430.0,,2601230430.0,,,,,,,,,,,0.0,0.0
-3405121308737868986-2601230356-16,28363,2601230440.0,2601230440.0,1,,S,S3,Backnang|Maubach|Nellmersbach|Winnenden|Schwaikheim|Neustadt-Hohenacker|Waiblingen|Fellbach|Stuttgart-Sommerrain|Stuttgart Nürnberger Str.|Stuttgart-Bad Cannstatt|Stuttgart Hbf (tief)|Stuttgart Stadtmitte|Stuttgart Feuersee|Stuttgart Schwabstr.,8006513,Stuttgart Universität,Baden-Württemberg,Stuttgart,70569,9.105864214,48.74511762,4,2601230440.0,,2601230441.0,,,,,,,,,,,0.0,1.0
9124798165350701033-2601230423-2,88631,2601230426.0,2601230427.0,7,,ARV,RE90,Stuttgart Hbf,8005769,Stuttgart-Bad Cannstatt,Baden-Württemberg,Stuttgart,70372,9.217468636,48.80127978,3,2601230428.0,,2601230429.0,,,,,,,,,,,2.0,2.0
4693049160569863660-2601230353-10,28359,2601230415.0,2601230416.0,2,,S,S1,Plochingen|Altbach|Esslingen-Zell|Oberesslingen|Esslingen(Neckar)|Esslingen-Mettingen|Stuttgart-Obertürkheim|Stuttgart-Untertürkheim|Stuttgart Neckarpark,8005769,Stuttgart-Bad Cannstatt,Baden-Württemberg,Stuttgart,70372,9.217468636,48.80127978,3,2601230415.0,,2601230416.0,,,,,,,,,,,0.0,0.0
6779514588305592946-2601230447-2,19451,2601230450.0,2601230452.0,7,,ARV,MEX13,Stuttgart Hbf,8005769,Stuttgart-Bad Cannstatt,Baden-Württemberg,Stuttgart,70372,9.217468636,48.80127978,3,2601230451.0,,2601230452.0,,,,,,,,,,,1.0,0.0
1728872097549432269-2601230451-1,7201,,2601230451.0,,,S,S2,,8005769,Stuttgart-Bad Cannstatt,Baden-Württemberg,Stuttgart,70372,9.217468636,48.80127978,3,,,2601230451.0,,,,,,,,,,,0.0,0.0
8312618108729256880-2601230348-14,28361,2601230420.0,2601230421.0,2,,S,S2,Schorndorf|Weiler(Rems)|Winterbach(b Schorndorf)|Geradstetten|Grunbach|Beutelsbach|Endersbach|Stetten-Beinstein|Rommelshausen|Waiblingen|Fellbach|Stuttgart-Sommerrain|Stuttgart Nürnberger Str.,8005769,Stuttgart-Bad Cannstatt,Baden-Württemberg,Stuttgart,70372,9.217468636,48.80127978,3,2601230420.0,,2601230421.0,,,,,,,,,,,0.0,0.0
-2605312677894761496-2601230442-2,19109,2601230445.0,2601230446.0,8,,ARV,MEX16,Stuttgart Hbf,8005769,Stuttgart-Bad Cannstatt,Baden-Württemberg,Stuttgart,70372,9.217468636,48.80127978,3,2601230445.0,,2601230446.0,,,,,,,,,,,0.0,0.0
-2301911496079253632-2601230422-10,7701,2601230445.0,2601230446.0,2,,S,S1,Plochingen|Altbach|Esslingen-Zell|Oberesslingen|Esslingen(Neckar)|Esslingen-Mettingen|Stuttgart-Obertürkheim|Stuttgart-Untertürkheim|Stuttgart Neckarpark,8005769,Stuttgart-Bad Cannstatt,Baden-Württemberg,Stuttgart,70372,9.217468636,48.80127978,3,2601230444.0,1.0,2601230446.0,1.0,,,,,,,,,,-1.0,0.0
-3405121308737868986-2601230356-11,28363,2601230425.0,2601230426.0,2,,S,S3,Backnang|Maubach|Nellmersbach|Winnenden|Schwaikheim|Neustadt-Hohenacker|Waiblingen|Fellbach|Stuttgart-Sommerrain|Stuttgart Nürnberger Str.,8005769,Stuttgart-Bad Cannstatt,Baden-Württemberg,Stuttgart,70372,9.217468636,48.80127978,3,2601230425.0,,2601230426.0,,,,,,,,,,,0.0,0.0
-7074048190611233336-2601230348-12,28369,2601230421.0,,1a,,S,,Weil der Stadt|Malmsheim|Renningen|Rutesheim|Leonberg|Höfingen|Ditzingen|Weilimdorf|Korntal|Neuwirtshaus(Porscheplatz)|Stuttgart-Zuffenhausen,8005770,Stuttgart-Feuerbach,Baden-Württemberg,Feuerbach,70469,9.169186287,48.81363554,3,2601230421.0,,,,h,1.0,Bauarbeiten,,,,,,,0.0,0.0
4693049160569863660-2601230353-13,28359,2601230423.0,2601230424.0,1,,S,S1,Plochingen|Altbach|Esslingen-Zell|Oberesslingen|Esslingen(Neckar)|Esslingen-Mettingen|Stuttgart-Obertürkheim|Stuttgart-Untertürkheim|Stuttgart Neckarpark|Stuttgart-Bad Cannstatt|Stuttgart Hbf (tief)|Stuttgart Stadtmitte,8006699,Stuttgart Feuersee,Baden-Württemberg,Stuttgart,70176,9.165850846,48.7726173,3,2601230423.0,,2601230424.0,,,,,,,,,,,0.0,0.0
1728872097549432269-2601230451-4,7201,2601230458.0,2601230459.0,1,,S,S2,Stuttgart-Bad Cannstatt|Stuttgart Hbf (tief)|Stuttgart Stadtmitte,8006699,Stuttgart Feuersee,Baden-Württemberg,Stuttgart,70176,9.165850846,48.7726173,3,2601230458.0,,2601230459.0,,,,,,,,,,,0.0,0.0
8312618108729256880-2601230348-17,28361,2601230428.0,2601230429.0,1,,S,S2,Schorndorf|Weiler(Rems)|Winterbach(b Schorndorf)|Geradstetten|Grunbach|Beutelsbach|Endersbach|Stetten-Beinstein|Rommelshausen|Waiblingen|Fellbach|Stuttgart-Sommerrain|Stuttgart Nürnberger Str.|Stuttgart-Bad Cannstatt|Stuttgart Hbf (tief)|Stuttgart Stadtmitte,8006699,Stuttgart Feuersee,Baden-Württemberg,Stuttgart,70176,9.165850846,48.7726173,3,2601230428.0,,2601230429.0,,,,,,,,,,,0.0,0.0
-3405121308737868986-2601230356-14,28363,2601230433.0,2601230434.0,1,,S,S3,Backnang|Maubach|Nellmersbach|Winnenden|Schwaikheim|Neustadt-Hohenacker|Waiblingen|Fellbach|Stuttgart-Sommerrain|Stuttgart Nürnberger Str.|Stuttgart-Bad Cannstatt|Stuttgart Hbf (tief)|Stuttgart Stadtmitte,8006699,Stuttgart Feuersee,Baden-Württemberg,Stuttgart,70176,9.165850846,48.7726173,3,2601230433.0,,2601230434.0,,,,,,,,,,,0.0,0.0
4693049160569863660-2601230353-7,28359,2601230407.0,2601230407.0,5,,S,S1,Plochingen|Altbach|Esslingen-Zell|Oberesslingen|Esslingen(Neckar)|Esslingen-Mettingen,8005772,Stuttgart-Obertürkheim,Baden-Württemberg,Stuttgart,70329,9.268167932,48.76175015,4,2601230407.0,,2601230408.0,,,,,,,,,,,0.0,1.0
1781534358873638088-2601230437-7,7101,2601230452.0,2601230452.0,5,,S,S1,Plochingen|Altbach|Esslingen-Zell|Oberesslingen|Esslingen(Neckar)|Esslingen-Mettingen,8005772,Stuttgart-Obertürkheim,Baden-Württemberg,Stuttgart,70329,9.268167932,48.76175015,4,2601230452.0,,2601230452.0,,,,,,,,,,,0.0,0.0
-2301911496079253632-2601230422-7,7701,2601230437.0,2601230437.0,5,,S,S1,Plochingen|Altbach|Esslingen-Zell|Oberesslingen|Esslingen(Neckar)|Esslingen-Mettingen,8005772,Stuttgart-Obertürkheim,Baden-Württemberg,Stuttgart,70329,9.268167932,48.76175015,4,2601230437.0,,2601230437.0,,,,,,,,,,,0.0,0.0
-5919247800237366863-2601230416-8,28360,2601230438.0,2601230439.0,3,,S,S1,Herrenberg|Nufringen|Gärtringen|Ehningen(b Böblingen)|Hulb|Böblingen|Goldberg(Württ),8005773,Stuttgart-Rohr,Baden-Württemberg,Stuttgart,70565,9.108158025,48.71799427,4,2601230438.0,,2601230439.0,,,,,,,,,,,0.0,0.0
-3405121308737868986-2601230356-19,28363,2601230446.0,2601230447.0,2,,S,S3,Backnang|Maubach|Nellmersbach|Winnenden|Schwaikheim|Neustadt-Hohenacker|Waiblingen|Fellbach|Stuttgart-Sommerrain|Stuttgart Nürnberger Str.|Stuttgart-Bad Cannstatt|Stuttgart Hbf (tief)|Stuttgart Stadtmitte|Stuttgart Feuersee|Stuttgart Schwabstr.|Stuttgart Universität|Stuttgart-Österfeld|Stuttgart-Vaihingen,8005773,Stuttgart-Rohr,Baden-Württemberg,Stuttgart,70565,9.108158025,48.71799427,4,2601230446.0,,2601230447.0,,,,,,,,,,,0.0,0.0
4693049160569863660-2601230353-14,28359,2601230425.0,2601230425.0,1,,S,S1,Plochingen|Altbach|Esslingen-Zell|Oberesslingen|Esslingen(Neckar)|Esslingen-Mettingen|Stuttgart-Obertürkheim|Stuttgart-Untertürkheim|Stuttgart Neckarpark|Stuttgart-Bad Cannstatt|Stuttgart Hbf (tief)|Stuttgart Stadtmitte|Stuttgart Feuersee,8006698,Stuttgart Schwabstraße,Baden-Württemberg,Stuttgart,70197,9.156496717,48.77013954,3,2601230425.0,,2601230425.0,,,,,,,,,,,0.0,0.0
8312618108729256880-2601230348-18,28361,2601230430.0,,1,,S,,Schorndorf|Weiler(Rems)|Winterbach(b Schorndorf)|Geradstetten|Grunbach|Beutelsbach|Endersbach|Stetten-Beinstein|Rommelshausen|Waiblingen|Fellbach|Stuttgart-Sommerrain|Stuttgart Nürnberger Str.|Stuttgart-Bad Cannstatt|Stuttgart Hbf (tief)|Stuttgart Stadtmitte|Stuttgart Feuersee,8006698,Stuttgart Schwabstraße,Baden-Württemberg,Stuttgart,70197,9.156496717,48.77013954,3,2601230430.0,,,,,,,,,,,,,0.0,0.0
-3405121308737868986-2601230356-15,28363,2601230435.0,2601230435.0,1,,S,S3,Backnang|Maubach|Nellmersbach|Winnenden|Schwaikheim|Neustadt-Hohenacker|Waiblingen|Fellbach|Stuttgart-Sommerrain|Stuttgart Nürnberger Str.|Stuttgart-Bad Cannstatt|Stuttgart Hbf (tief)|Stuttgart Stadtmitte|Stuttgart Feuersee,8006698,Stuttgart Schwabstraße,Baden-Württemberg,Stuttgart,70197,9.156496717,48.77013954,3,2601230435.0,,2601230436.0,,,,,,,,,,,0.0,1.0
8312618108729256880-2601230348-12,28361,2601230415.0,2601230415.0,1,,S,S2,Schorndorf|Weiler(Rems)|Winterbach(b Schorndorf)|Geradstetten|Grunbach|Beutelsbach|Endersbach|Stetten-Beinstein|Rommelshausen|Waiblingen|Fellbach,8005774,Stuttgart-Sommerrain,Baden-Württemberg,Stuttgart,70374,9.248369749,48.81521824,5,2601230415.0,,2601230415.0,,,,,,,,,,,0.0,0.0
-3405121308737868986-2601230356-9,28363,2601230420.0,2601230420.0,1,,S,S3,Backnang|Maubach|Nellmersbach|Winnenden|Schwaikheim|Neustadt-Hohenacker|Waiblingen|Fellbach,8005774,Stuttgart-Sommerrain,Baden-Württemberg,Stuttgart,70374,9.248369749,48.81521824,5,2601230420.0,,2601230420.0,,,,,,,,,,,0.0,0.0
4693049160569863660-2601230353-12,28359,2601230422.0,2601230422.0,1,,S,S1,Plochingen|Altbach|Esslingen-Zell|Oberesslingen|Esslingen(Neckar)|Esslingen-Mettingen|Stuttgart-Obertürkheim|Stuttgart-Untertürkheim|Stuttgart Neckarpark|Stuttgart-Bad Cannstatt|Stuttgart Hbf (tief),8006700,Stuttgart Stadtmitte,Baden-Württemberg,Stuttgart,70173,9.173046906,48.77632953,3,2601230422.0,,2601230422.0,,,,,,,,,,,0.0,0.0
1728872097549432269-2601230451-3,7201,2601230457.0,2601230457.0,1,,S,S2,Stuttgart-Bad Cannstatt|Stuttgart Hbf (tief),8006700,Stuttgart Stadtmitte,Baden-Württemberg,Stuttgart,70173,9.173046906,48.77632953,3,2601230457.0,,2601230457.0,,,,,,,,,,,0.0,0.0
8312618108729256880-2601230348-16,28361,2601230427.0,2601230427.0,1,,S,S2,Schorndorf|Weiler(Rems)|Winterbach(b Schorndorf)|Geradstetten|Grunbach|Beutelsbach|Endersbach|Stetten-Beinstein|Rommelshausen|Waiblingen|Fellbach|Stuttgart-Sommerrain|Stuttgart Nürnberger Str.|Stuttgart-Bad Cannstatt|Stuttgart Hbf (tief),8006700,Stuttgart Stadtmitte,Baden-Württemberg,Stuttgart,70173,9.173046906,48.77632953,3,2601230427.0,,2601230427.0,,,,,,,,,,,0.0,0.0
-3405121308737868986-2601230356-13,28363,2601230432.0,2601230432.0,1,,S,S3,Backnang|Maubach|Nellmersbach|Winnenden|Schwaikheim|Neustadt-Hohenacker|Waiblingen|Fellbach|Stuttgart-Sommerrain|Stuttgart Nürnberger Str.|Stuttgart-Bad Cannstatt|Stuttgart Hbf (tief),8006700,Stuttgart Stadtmitte,Baden-Württemberg,Stuttgart,70173,9.173046906,48.77632953,3,2601230432.0,,2601230432.0,,,,,,,,,,,0.0,0.0
