ID,train_number,planned_arrival,planned_departure,planned_platform,planned_status,category_train,train,path,eva_nr,station_name,station_state,station_city,station_zipcode,station_long,station_lat,station_category,changed_arrival,changed_platform_arrival,changed_departure,changed_platform_departure,message_status,priority,info,arrival_hidden,departure_hidden,arrival_path,departure_path,arrival_status,departure_status,arrival_delay_m,departure_delay_m
2030665799069320566-2603270107-6,7180,2603270120.0,2603270120.0,4.0,,S,S1,Stuttgart-Obertürkheim|Esslingen-Mettingen|Esslingen(Neckar)|Oberesslingen|Esslingen-Zell,8000508,Altbach,Baden-Württemberg,Altbach,73776,9.382434033,48.72031354,3,2603270119.0,,2603270120.0,,,,,,,,,,,-1.0,0.0
7365903133354661246-2603270052-9,7580,2603270117.0,2603270117.0,4.0,,S,S5,Stuttgart Schwabstr.|Stuttgart Feuersee|Stuttgart Stadtmitte|Stuttgart Hbf (tief)|Stuttgart Nordbahnhof|Stuttgart-Zuffenhausen|Kornwestheim Pbf|Ludwigsburg,8000630,Asperg,Baden-Württemberg,Asperg,71679,9.147977466,48.90725609,4,2603270117.0,,2603270118.0,,,,,,,,,,,0.0,1.0
4029757619719024765-2603270100-7,7378,2603270118.0,,5.0,,S,,Waiblingen|Neustadt-Hohenacker|Schwaikheim|Winnenden|Nellmersbach|Maubach,8000016,Backnang,Baden-Württemberg,Backnang,71522,9.425986107,48.94264844,3,2603270219.0,,,,,,,,,Waiblingen|Neustadt-Hohenacker|Schwaikheim|Winnenden|Nellmersbach|Maubach,,,,61.0,0.0
3212831510387931381-2603270130-7,7380,2603270148.0,,4.0,,S,,Waiblingen|Neustadt-Hohenacker|Schwaikheim|Winnenden|Nellmersbach|Maubach,8000016,Backnang,Baden-Württemberg,Backnang,71522,9.425986107,48.94264844,3,2603270222.0,,,,,,,,,Waiblingen|Neustadt-Hohenacker|Schwaikheim|Winnenden|Nellmersbach|Maubach,,,,34.0,0.0
6022170079335753158-2603270102-10,7478,2603270132.0,2603270133.0,1.0,,S,S4,Stuttgart Schwabstr.|Stuttgart Feuersee|Stuttgart Stadtmitte|Stuttgart Hbf (tief)|Stuttgart-Zuffenhausen|Kornwestheim Pbf|Ludwigsburg|Favoritepark|Freiberg(Neckar),8000873,Benningen (Neckar),Baden-Württemberg,Benningen am Neckar,71726,9.244299075,48.94379773,5,2603270135.0,,2603270135.0,,,,,,,,,,,3.0,2.0
-3094267637294118702-2603270032-10,7476,2603270102.0,2603270103.0,1.0,,S,S4,Stuttgart Schwabstr.|Stuttgart Feuersee|Stuttgart Stadtmitte|Stuttgart Hbf (tief)|Stuttgart-Zuffenhausen|Kornwestheim Pbf|Ludwigsburg|Favoritepark|Freiberg(Neckar),8000873,Benningen (Neckar),Baden-Württemberg,Benningen am Neckar,71726,9.244299075,48.94379773,5,2603270104.0,,2603270104.0,,,,,,,,,,,2.0,1.0
5788512131322567824-2603270120-5,7278,2603270128.0,2603270128.0,1.0,,S,S2,Waiblingen|Rommelshausen|Stetten-Beinstein|Endersbach,8000934,Beutelsbach,Baden-Württemberg,Weinstadt,71384,9.38551589,48.81038925,5,2603270137.0,,2603270137.0,,,,,,,,,,,9.0,9.0
7365903133354661246-2603270052-11,7580,2603270124.0,,5.0,,S,,Stuttgart Schwabstr.|Stuttgart Feuersee|Stuttgart Stadtmitte|Stuttgart Hbf (tief)|Stuttgart Nordbahnhof|Stuttgart-Zuffenhausen|Kornwestheim Pbf|Ludwigsburg|Asperg|Tamm(Württ),8000038,Bietigheim-Bissingen,Baden-Württemberg,Bietigheim-Bissingen,74321,9.137217396,48.94794988,2,2603270125.0,6.0,,,,,,,,,,,,1.0,0.0
951476230854119248-2603270129-1,7969,,2603270129.0,,,S,S1,,8001055,Böblingen,Baden-Württemberg,Böblingen,71034,9.004531864,48.68784871,3,,,2603270129.0,,,,,,,,,,,0.0,0.0
8861760534950546127-2603270042-11,7678,2603270106.0,2603270106.0,2.0,,S,S6,Stuttgart Schwabstr.|Stuttgart Feuersee|Stuttgart Stadtmitte|Stuttgart Hbf (tief)|Stuttgart Nordbahnhof|Stuttgart-Feuerbach|Stuttgart-Zuffenhausen|Neuwirtshaus(Porscheplatz)|Korntal|Weilimdorf,8001476,Ditzingen,Baden-Württemberg,Ditzingen,71254,9.067095186,48.82358726,4,2603270106.0,3.0,2603270107.0,3.0,,,,,,,,,,0.0,1.0
4033076616569581680-2603270051-12,7971,2603270119.0,2603270120.0,1.0,,S,S2,Stuttgart-Bad Cannstatt|Stuttgart Hbf (tief)|Stuttgart Stadtmitte|Stuttgart Feuersee|Stuttgart Schwabstr.|Stuttgart Universität|Stuttgart-Österfeld|Stuttgart-Vaihingen|Stuttgart-Rohr|Oberaichen|Leinfelden,8001650,Echterdingen,Baden-Württemberg,Echterdingen,70771,9.169307175,48.69214787,4,2603270120.0,,2603270121.0,,,,,,,,,,,1.0,1.0
3796198842089900746-2603270059-3,7967,2603270104.0,2603270104.0,2.0,,S,S1,Böblingen|Hulb,8001689,Ehningen (b Böblingen),Baden-Württemberg,Ehningen,71139,8.944310368,48.66275549,4,2603270104.0,,2603270104.0,,,,,,,,,,,0.0,0.0
951476230854119248-2603270129-3,7969,2603270134.0,2603270134.0,2.0,,S,S1,Böblingen|Hulb,8001689,Ehningen (b Böblingen),Baden-Württemberg,Ehningen,71139,8.944310368,48.66275549,4,2603270134.0,,2603270134.0,,,,,,,,,,,0.0,0.0
5788512131322567824-2603270120-4,7278,2603270126.0,2603270126.0,2.0,,S,S2,Waiblingen|Rommelshausen|Stetten-Beinstein,8001785,Endersbach,Baden-Württemberg,Weinstadt,71384,9.370192421,48.81317323,4,2603270135.0,,2603270136.0,,,,,,,,,,,9.0,10.0
-6785574060646483821-2603270100-1,19343,,2603270100.0,,,RE,MEX12,,8001920,Esslingen (Neckar),Baden-Württemberg,Esslingen am Neckar,73728,9.300578149,48.73854148,3,,,2603270100.0,,,,,,,,,,,0.0,0.0
2030665799069320566-2603270107-3,7180,2603270112.0,2603270113.0,8.0,,S,S1,Stuttgart-Obertürkheim|Esslingen-Mettingen,8001920,Esslingen (Neckar),Baden-Württemberg,Esslingen am Neckar,73728,9.300578149,48.73854148,3,2603270112.0,,2603270113.0,,,,,,,,,,,0.0,0.0
2030665799069320566-2603270107-2,7180,2603270109.0,2603270109.0,4.0,,S,S1,Stuttgart-Obertürkheim,8001921,Esslingen-Mettingen,Baden-Württemberg,Esslingen am Neckar,73733,9.275799007,48.74696655,3,2603270109.0,,2603270109.0,,,,,,,,,,,0.0,0.0
2030665799069320566-2603270107-5,7180,2603270117.0,2603270118.0,4.0,,S,S1,Stuttgart-Obertürkheim|Esslingen-Mettingen|Esslingen(Neckar)|Oberesslingen,8006642,Esslingen-Zell,Baden-Württemberg,Esslingen am Neckar,73730,9.359739507,48.72436142,3,2603270117.0,,2603270118.0,,,,,,,,,,,0.0,0.0
6022170079335753158-2603270102-8,7478,2603270126.0,2603270126.0,1.0,,S,S4,Stuttgart Schwabstr.|Stuttgart Feuersee|Stuttgart Stadtmitte|Stuttgart Hbf (tief)|Stuttgart-Zuffenhausen|Kornwestheim Pbf|Ludwigsburg,8001967,Favoritepark,Baden-Württemberg,Ludwigsburg,71634,9.180574277,48.90948451,5,2603270128.0,,2603270128.0,,,,,,,,,,,2.0,2.0
4033076616569581680-2603270051-13,7971,2603270122.0,2603270123.0,1.0,,S,S2,Stuttgart-Bad Cannstatt|Stuttgart Hbf (tief)|Stuttgart Stadtmitte|Stuttgart Feuersee|Stuttgart Schwabstr.|Stuttgart Universität|Stuttgart-Österfeld|Stuttgart-Vaihingen|Stuttgart-Rohr|Oberaichen|Leinfelden|Echterdingen,8005768,Stuttgart Flughafen/Messe,Baden-Württemberg,Leinfelden-Echterdingen,70629,9.193411574,48.69075193,4,2603270123.0,,2603270123.0,,,,,,,,,,,1.0,0.0
6022170079335753158-2603270102-9,7478,2603270129.0,2603270129.0,3.0,,S,S4,Stuttgart Schwabstr.|Stuttgart Feuersee|Stuttgart Stadtmitte|Stuttgart Hbf (tief)|Stuttgart-Zuffenhausen|Kornwestheim Pbf|Ludwigsburg|Favoritepark,8002065,Freiberg (Neckar),Baden-Württemberg,Freiberg am Neckar,71691,9.197530085,48.92994974,5,2603270131.0,,2603270131.0,,,,,,,,,,,2.0,2.0
3796198842089900746-2603270059-4,7967,2603270107.0,2603270107.0,1.0,,S,S1,Böblingen|Hulb|Ehningen(b Böblingen),8002165,Gärtringen,Baden-Württemberg,Gärtringen,71116,8.908864487,48.64080021,5,2603270107.0,,2603270108.0,,,,,,,,,,,0.0,1.0
951476230854119248-2603270129-4,7969,2603270137.0,2603270137.0,1.0,,S,S1,Böblingen|Hulb|Ehningen(b Böblingen),8002165,Gärtringen,Baden-Württemberg,Gärtringen,71116,8.908864487,48.64080021,5,2603270137.0,,2603270139.0,,,,,,,,,,,0.0,2.0
5788512131322567824-2603270120-7,7278,2603270132.0,2603270132.0,2.0,,S,S2,Waiblingen|Rommelshausen|Stetten-Beinstein|Endersbach|Beutelsbach|Grunbach,8002240,Geradstetten,Baden-Württemberg,Remshalden,73630,9.439522346,48.80527689,5,2603270141.0,,2603270141.0,,,,,,,,,,,9.0,9.0
-7630775927595037256-2603270050-7,7276,2603270102.0,2603270102.0,2.0,,S,S2,Waiblingen|Rommelshausen|Stetten-Beinstein|Endersbach|Beutelsbach|Grunbach,8002240,Geradstetten,Baden-Württemberg,Remshalden,73630,9.439522346,48.80527689,5,2603270107.0,,2603270107.0,,,,,,,,,,,5.0,5.0
5788512131322567824-2603270120-6,7278,2603270130.0,2603270130.0,3.0,,S,S2,Waiblingen|Rommelshausen|Stetten-Beinstein|Endersbach|Beutelsbach,8002448,Grunbach,Baden-Württemberg,Remshalden,73630,9.419580601,48.810414,4,2603270139.0,,2603270140.0,,,,,,,,,,,9.0,10.0
-7630775927595037256-2603270050-6,7276,2603270100.0,2603270100.0,3.0,,S,S2,Waiblingen|Rommelshausen|Stetten-Beinstein|Endersbach|Beutelsbach,8002448,Grunbach,Baden-Württemberg,Remshalden,73630,9.419580601,48.810414,4,2603270105.0,,2603270105.0,,,,,,,,,,,5.0,5.0
3796198842089900746-2603270059-6,7967,2603270114.0,,,,S,,Böblingen|Hulb|Ehningen(b Böblingen)|Gärtringen|Nufringen,8002785,Herrenberg,Baden-Württemberg,Herrenberg,71083,8.862625253,48.59395697,3,2603270115.0,3.0,,,,,,,,,,,,1.0,0.0
951476230854119248-2603270129-6,7969,2603270144.0,,3.0,,S,,Böblingen|Hulb|Ehningen(b Böblingen)|Gärtringen|Nufringen,8002785,Herrenberg,Baden-Württemberg,Herrenberg,71083,8.862625253,48.59395697,3,2603270146.0,,,,,,,,,,,,,2.0,0.0
8861760534950546127-2603270042-12,7678,2603270109.0,2603270109.0,2.0,,S,S6,Stuttgart Schwabstr.|Stuttgart Feuersee|Stuttgart Stadtmitte|Stuttgart Hbf (tief)|Stuttgart Nordbahnhof|Stuttgart-Feuerbach|Stuttgart-Zuffenhausen|Neuwirtshaus(Porscheplatz)|Korntal|Weilimdorf|Ditzingen,8002892,Höfingen,Baden-Württemberg,Leonberg,71229,9.026180834,48.81503436,5,2603270109.0,,2603270110.0,,,,,,,,,,,0.0,1.0
3796198842089900746-2603270059-2,7967,2603270101.0,2603270101.0,1.0,,S,S1,Böblingen,8003022,Hulb,Baden-Württemberg,Böblingen-Hulb,71032,8.982396429,48.67924173,5,2603270101.0,,2603270101.0,,,,,,,,,,,0.0,0.0
951476230854119248-2603270129-2,7969,2603270131.0,2603270131.0,1.0,,S,S1,Böblingen,8003022,Hulb,Baden-Württemberg,Böblingen-Hulb,71032,8.982396429,48.67924173,5,2603270131.0,,2603270131.0,,,,,,,,,,,0.0,0.0
4033076616569581680-2603270051-14,7971,2603270127.0,,1.0,,S,,Stuttgart-Bad Cannstatt|Stuttgart Hbf (tief)|Stuttgart Stadtmitte|Stuttgart Feuersee|Stuttgart Schwabstr.|Stuttgart Universität|Stuttgart-Österfeld|Stuttgart-Vaihingen|Stuttgart-Rohr|Oberaichen|Leinfelden|Echterdingen|Stuttgart Flughafen/Messe,8001984,Filderstadt,Baden-Württemberg,Filderstadt,70794,9.217581315,48.67649151,5,2603270127.0,2.0,,,,,,,,,,,,0.0,0.0
6401841659482002545-2603270037-11,7178,2603270109.0,,2.0,,S,,Stuttgart-Obertürkheim|Esslingen-Mettingen|Esslingen(Neckar)|Oberesslingen|Esslingen-Zell|Altbach|Plochingen|Wernau(Neckar)|Wendlingen(Neckar)|Kirchheim(Teck)-Ötlingen,8003280,Kirchheim (Teck),Baden-Württemberg,Kirchheim unter Teck,73230,9.443872422,48.64415981,4,2603270110.0,,,,,,,,,,,,,1.0,0.0
2030665799069320566-2603270107-11,7180,2603270139.0,,2.0,,S,,Stuttgart-Obertürkheim|Esslingen-Mettingen|Esslingen(Neckar)|Oberesslingen|Esslingen-Zell|Altbach|Plochingen|Wernau(Neckar)|Wendlingen(Neckar)|Kirchheim(Teck)-Ötlingen,8003280,Kirchheim (Teck),Baden-Württemberg,Kirchheim unter Teck,73230,9.443872422,48.64415981,4,2603270140.0,,,,,,,,,,,,,1.0,0.0
6401841659482002545-2603270037-10,7178,2603270106.0,2603270107.0,1.0,,S,S1,Stuttgart-Obertürkheim|Esslingen-Mettingen|Esslingen(Neckar)|Oberesslingen|Esslingen-Zell|Altbach|Plochingen|Wernau(Neckar)|Wendlingen(Neckar),8003282,Kirchheim (Teck)-Ötlingen,Baden-Württemberg,Kirchheim unter Teck,73230,9.416261302,48.65782388,5,2603270107.0,2.0,2603270107.0,2.0,,,,,,,,,,1.0,0.0
2030665799069320566-2603270107-10,7180,2603270136.0,2603270137.0,1.0,,S,S1,Stuttgart-Obertürkheim|Esslingen-Mettingen|Esslingen(Neckar)|Oberesslingen|Esslingen-Zell|Altbach|Plochingen|Wernau(Neckar)|Wendlingen(Neckar),8003282,Kirchheim (Teck)-Ötlingen,Baden-Württemberg,Kirchheim unter Teck,73230,9.416261302,48.65782388,5,2603270137.0,2.0,2603270138.0,2.0,,,,,,,,,,1.0,1.0
8861760534950546127-2603270042-9,7678,2603270101.0,2603270101.0,1.0,,S,S6,Stuttgart Schwabstr.|Stuttgart Feuersee|Stuttgart Stadtmitte|Stuttgart Hbf (tief)|Stuttgart Nordbahnhof|Stuttgart-Feuerbach|Stuttgart-Zuffenhausen|Neuwirtshaus(Porscheplatz),8003409,Korntal,Baden-Württemberg,Korntal,70825,9.121099128,48.82640246,4,2603270101.0,,2603270102.0,,,,,,,,,,,0.0,1.0
6022170079335753158-2603270102-6,7478,2603270120.0,2603270120.0,5.0,,S,S4,Stuttgart Schwabstr.|Stuttgart Feuersee|Stuttgart Stadtmitte|Stuttgart Hbf (tief)|Stuttgart-Zuffenhausen,8003411,Kornwestheim Pbf,Baden-Württemberg,Kornwestheim,70806,9.179967278,48.86215948,3,2603270122.0,,2603270123.0,,,,,,,,,,,2.0,3.0
7365903133354661246-2603270052-7,7580,2603270110.0,2603270110.0,5.0,,S,S5,Stuttgart Schwabstr.|Stuttgart Feuersee|Stuttgart Stadtmitte|Stuttgart Hbf (tief)|Stuttgart Nordbahnhof|Stuttgart-Zuffenhausen,8003411,Kornwestheim Pbf,Baden-Württemberg,Kornwestheim,70806,9.179967278,48.86215948,3,2603270110.0,,2603270110.0,,,,,,,,,,,0.0,0.0
4033076616569581680-2603270051-11,7971,2603270116.0,2603270117.0,1.0,,S,S2,Stuttgart-Bad Cannstatt|Stuttgart Hbf (tief)|Stuttgart Stadtmitte|Stuttgart Feuersee|Stuttgart Schwabstr.|Stuttgart Universität|Stuttgart-Österfeld|Stuttgart-Vaihingen|Stuttgart-Rohr|Oberaichen,8003622,Leinfelden,Baden-Württemberg,Leinfelden-Echterdingen,70771,9.142859698,48.6964193,4,2603270117.0,,2603270118.0,,,,,,,,,,,1.0,1.0
8861760534950546127-2603270042-13,7678,2603270113.0,2603270113.0,2.0,,S,S6,Stuttgart Schwabstr.|Stuttgart Feuersee|Stuttgart Stadtmitte|Stuttgart Hbf (tief)|Stuttgart Nordbahnhof|Stuttgart-Feuerbach|Stuttgart-Zuffenhausen|Neuwirtshaus(Porscheplatz)|Korntal|Weilimdorf|Ditzingen|Höfingen,8003652,Leonberg,Baden-Württemberg,Leonberg,71229,9.004025993,48.79970547,3,2603270113.0,,2603270114.0,,,,,,,,,,,0.0,1.0
6022170079335753158-2603270102-7,7478,2603270123.0,2603270124.0,2.0,,S,S4,Stuttgart Schwabstr.|Stuttgart Feuersee|Stuttgart Stadtmitte|Stuttgart Hbf (tief)|Stuttgart-Zuffenhausen|Kornwestheim Pbf,8000235,Ludwigsburg,Baden-Württemberg,Ludwigsburg,71638,9.185229823,48.89208622,3,2603270126.0,,2603270126.0,,,,,,,,,,,3.0,2.0
7365903133354661246-2603270052-8,7580,2603270113.0,2603270114.0,2.0,,S,S5,Stuttgart Schwabstr.|Stuttgart Feuersee|Stuttgart Stadtmitte|Stuttgart Hbf (tief)|Stuttgart Nordbahnhof|Stuttgart-Zuffenhausen|Kornwestheim Pbf,8000235,Ludwigsburg,Baden-Württemberg,Ludwigsburg,71638,9.185229823,48.89208622,3,2603270114.0,,2603270114.0,,,,,,,,,,,1.0,0.0
8861760534950546127-2603270042-16,7678,2603270124.0,2603270124.0,1.0,,S,S6,Stuttgart Schwabstr.|Stuttgart Feuersee|Stuttgart Stadtmitte|Stuttgart Hbf (tief)|Stuttgart Nordbahnhof|Stuttgart-Feuerbach|Stuttgart-Zuffenhausen|Neuwirtshaus(Porscheplatz)|Korntal|Weilimdorf|Ditzingen|Höfingen|Leonberg|Rutesheim|Renningen,8003831,Malmsheim,Baden-Württemberg,Renningen,71272,8.905105557,48.77183564,5,2603270124.0,,2603270124.0,,,,,,,,,,,0.0,0.0
6022170079335753158-2603270102-11,7478,2603270135.0,,1.0,,S,,Stuttgart Schwabstr.|Stuttgart Feuersee|Stuttgart Stadtmitte|Stuttgart Hbf (tief)|Stuttgart-Zuffenhausen|Kornwestheim Pbf|Ludwigsburg|Favoritepark|Freiberg(Neckar)|Benningen(Neckar),8003853,Marbach (Neckar),Baden-Württemberg,Marbach am Neckar,71672,9.264611825,48.9437708,3,2603270137.0,,,,,,,,,,,,,2.0,0.0
-3094267637294118702-2603270032-11,7476,2603270105.0,,1.0,,S,,Stuttgart Schwabstr.|Stuttgart Feuersee|Stuttgart Stadtmitte|Stuttgart Hbf (tief)|Stuttgart-Zuffenhausen|Kornwestheim Pbf|Ludwigsburg|Favoritepark|Freiberg(Neckar)|Benningen(Neckar),8003853,Marbach (Neckar),Baden-Württemberg,Marbach am Neckar,71672,9.264611825,48.9437708,3,2603270106.0,,,,,,,,,,,,,1.0,0.0
4029757619719024765-2603270100-6,7378,2603270114.0,2603270115.0,2.0,,S,S3,Waiblingen|Neustadt-Hohenacker|Schwaikheim|Winnenden|Nellmersbach,8003913,Maubach,Baden-Württemberg,Backnang,71522,9.419487062,48.92623463,4,2603270152.0,,2603270216.0,,,,,,,Waiblingen|Neustadt-Hohenacker|Schwaikheim|Winnenden|Nellmersbach,Backnang,,,38.0,61.0
3212831510387931381-2603270130-6,7380,2603270144.0,2603270145.0,2.0,,S,S3,Waiblingen|Neustadt-Hohenacker|Schwaikheim|Winnenden|Nellmersbach,8003913,Maubach,Baden-Württemberg,Backnang,71522,9.419487062,48.92623463,4,2603270219.0,,2603270220.0,,,,,,,Waiblingen|Neustadt-Hohenacker|Schwaikheim|Winnenden|Nellmersbach,Backnang,,,35.0,35.0
4029757619719024765-2603270100-5,7378,2603270111.0,2603270112.0,2.0,,S,S3,Waiblingen|Neustadt-Hohenacker|Schwaikheim|Winnenden,8004233,Nellmersbach,Baden-Württemberg,Leutenbach,71397,9.415421538,48.90336425,5,2603270149.0,1.0,2603270150.0,1.0,,,,,,Waiblingen|Neustadt-Hohenacker|Schwaikheim|Winnenden,Maubach|Backnang,,,38.0,38.0
3212831510387931381-2603270130-5,7380,2603270141.0,2603270142.0,2.0,,S,S3,Waiblingen|Neustadt-Hohenacker|Schwaikheim|Winnenden,8004233,Nellmersbach,Baden-Württemberg,Leutenbach,71397,9.415421538,48.90336425,5,2603270216.0,1.0,2603270217.0,1.0,,,,,,Waiblingen|Neustadt-Hohenacker|Schwaikheim|Winnenden,Maubach|Backnang,,,35.0,35.0
4029757619719024765-2603270100-2,7378,2603270103.0,2603270103.0,1.0,,S,S3,Waiblingen,8004333,Neustadt-Hohenacker,Baden-Württemberg,Waiblingen,71336,9.32455106,48.85921668,5,2603270104.0,,2603270105.0,,,,,,,,,,,1.0,2.0
3212831510387931381-2603270130-2,7380,2603270133.0,2603270133.0,1.0,,S,S3,Waiblingen,8004333,Neustadt-Hohenacker,Baden-Württemberg,Waiblingen,71336,9.32455106,48.85921668,5,2603270133.0,,2603270208.0,,,,,,,Waiblingen,Schwaikheim|Winnenden|Nellmersbach|Maubach|Backnang,,,0.0,35.0
3796198842089900746-2603270059-5,7967,2603270110.0,2603270110.0,1.0,,S,S1,Böblingen|Hulb|Ehningen(b Böblingen)|Gärtringen,8004490,Nufringen,Baden-Württemberg,Nufringen,71154,8.889817485,48.62010967,5,2603270111.0,2.0,2603270111.0,2.0,,,,,,,,,,1.0,1.0
951476230854119248-2603270129-5,7969,2603270140.0,2603270140.0,1.0,,S,S1,Böblingen|Hulb|Ehningen(b Böblingen)|Gärtringen,8004490,Nufringen,Baden-Württemberg,Nufringen,71154,8.889817485,48.62010967,5,2603270142.0,2.0,2603270142.0,2.0,,,,,,,,,,2.0,2.0
4033076616569581680-2603270051-10,7971,2603270114.0,2603270114.0,1.0,,S,S2,Stuttgart-Bad Cannstatt|Stuttgart Hbf (tief)|Stuttgart Stadtmitte|Stuttgart Feuersee|Stuttgart Schwabstr.|Stuttgart Universität|Stuttgart-Österfeld|Stuttgart-Vaihingen|Stuttgart-Rohr,8004496,Oberaichen,Baden-Württemberg,Leinfelden-Echterdingen,70771,9.12743664,48.70512422,5,2603270115.0,,2603270116.0,,,,,,,,,,,1.0,2.0
2030665799069320566-2603270107-4,7180,2603270115.0,2603270115.0,4.0,,S,S1,Stuttgart-Obertürkheim|Esslingen-Mettingen|Esslingen(Neckar),8004528,Oberesslingen,Baden-Württemberg,Esslingen am Neckar,73730,9.327277435,48.72983585,3,2603270115.0,,2603270115.0,,,,,,,,,,,0.0,0.0
-6785574060646483821-2603270100-2,19343,2603270106.0,2603270107.0,7.0,,RE,MEX12,Esslingen(Neckar),8000302,Plochingen,Baden-Württemberg,Plochingen,73207,9.411294578,48.71293906,2,2603270107.0,9.0,2603270107.0,9.0,,,,,,,,,,1.0,0.0
2030665799069320566-2603270107-7,7180,2603270123.0,2603270125.0,10.0,,S,S1,Stuttgart-Obertürkheim|Esslingen-Mettingen|Esslingen(Neckar)|Oberesslingen|Esslingen-Zell|Altbach,8000302,Plochingen,Baden-Württemberg,Plochingen,73207,9.411294578,48.71293906,2,2603270122.0,,2603270127.0,,,,,,,,,,,-1.0,2.0
2175151577106820598-2603270100-1,19189,,2603270100.0,,,ARV,MEX16,,8000302,Plochingen,Baden-Württemberg,Plochingen,73207,9.411294578,48.71293906,2,,,2603270105.0,1.0,,,,,,,,,,0.0,5.0
8861760534950546127-2603270042-15,7678,2603270119.0,2603270122.0,3.0,,S,S6,Stuttgart Schwabstr.|Stuttgart Feuersee|Stuttgart Stadtmitte|Stuttgart Hbf (tief)|Stuttgart Nordbahnhof|Stuttgart-Feuerbach|Stuttgart-Zuffenhausen|Neuwirtshaus(Porscheplatz)|Korntal|Weilimdorf|Ditzingen|Höfingen|Leonberg|Rutesheim,8000313,Renningen,Baden-Württemberg,Renningen,71272,8.932650148,48.77515509,3,2603270119.0,,2603270122.0,,,,,,,,,,,0.0,0.0
5788512131322567824-2603270120-2,7278,2603270122.0,2603270122.0,1.0,,S,S2,Waiblingen,8005157,Rommelshausen,Baden-Württemberg,Kernen,71394,9.319175885,48.81552017,4,2603270131.0,,2603270132.0,,,,,,,,,,,9.0,10.0
8861760534950546127-2603270042-14,7678,2603270116.0,2603270116.0,2.0,,S,S6,Stuttgart Schwabstr.|Stuttgart Feuersee|Stuttgart Stadtmitte|Stuttgart Hbf (tief)|Stuttgart Nordbahnhof|Stuttgart-Feuerbach|Stuttgart-Zuffenhausen|Neuwirtshaus(Porscheplatz)|Korntal|Weilimdorf|Ditzingen|Höfingen|Leonberg,8005236,Rutesheim,Baden-Württemberg,Leonberg,71229,8.960325242,48.79031093,5,2603270117.0,,2603270117.0,,,,,,,,,,,1.0,1.0
-5038180826055651422-2603270037-9,19446,2603270113.0,2603270114.0,3.0,,ARV,MEX13,Aalen Hbf|Mögglingen(Gmünd)|Böbingen(Rems)|Schwäbisch Gmünd|Lorch(Württ)|Waldhausen(b Schorndorf)|Plüderhausen|Urbach(b Schorndorf),8005424,Schorndorf,Baden-Württemberg,Schorndorf,73614,9.525686251,48.80693898,3,2603270113.0,,2603270114.0,,,,,,,,,,,0.0,0.0
5788512131322567824-2603270120-10,7278,2603270140.0,,1.0,,S,,Waiblingen|Rommelshausen|Stetten-Beinstein|Endersbach|Beutelsbach|Grunbach|Geradstetten|Winterbach(b Schorndorf)|Weiler(Rems),8005424,Schorndorf,Baden-Württemberg,Schorndorf,73614,9.525686251,48.80693898,3,2603270147.0,,,,,,,,,,,,,7.0,0.0
-7630775927595037256-2603270050-10,7276,2603270110.0,,1.0,,S,,Waiblingen|Rommelshausen|Stetten-Beinstein|Endersbach|Beutelsbach|Grunbach|Geradstetten|Winterbach(b Schorndorf)|Weiler(Rems),8005424,Schorndorf,Baden-Württemberg,Schorndorf,73614,9.525686251,48.80693898,3,2603270113.0,,,,,,,,,,,,,3.0,0.0
4029757619719024765-2603270100-3,7378,2603270106.0,2603270106.0,2.0,,S,S3,Waiblingen|Neustadt-Hohenacker,8005454,Schwaikheim,Baden-Württemberg,Schwaikheim,71409,9.354747358,48.86832665,4,2603270107.0,,2603270144.0,,,,,,,Waiblingen|Neustadt-Hohenacker,Winnenden|Nellmersbach|Maubach|Backnang,,,1.0,38.0
3212831510387931381-2603270130-3,7380,2603270136.0,2603270136.0,2.0,,S,S3,Waiblingen|Neustadt-Hohenacker,8005454,Schwaikheim,Baden-Württemberg,Schwaikheim,71409,9.354747358,48.86832665,4,2603270210.0,,2603270211.0,,,,,,,Waiblingen|Neustadt-Hohenacker,Winnenden|Nellmersbach|Maubach|Backnang,,,34.0,35.0
5788512131322567824-2603270120-3,7278,2603270124.0,2603270124.0,1.0,,S,S2,Waiblingen|Rommelshausen,8005726,Stetten-Beinstein,Baden-Württemberg,Weinstadt,71384,9.352769725,48.81199601,5,2603270134.0,,2603270134.0,,,,,,,,,,,10.0,10.0
7108274583246193747-2603262246-5,698,2603270058.0,2603270109.0,9.0,,ICE,,München Hbf|München-Pasing|Augsburg Hbf|Ulm Hbf,8000096,Stuttgart Hbf,Baden-Württemberg,Stuttgart,70173,9.183172973,48.78473069,1,2603270049.0,,2603270109.0,,h,3.0,Information,,,,,,,-9.0,0.0
7365903133354661246-2603270052-5,7580,2603270101.0,2603270101.0,3.0,,S,S5,Stuttgart Schwabstr.|Stuttgart Feuersee|Stuttgart Stadtmitte|Stuttgart Hbf (tief),8005767,Stuttgart Nord,Baden-Württemberg,Stuttgard-Nord,70174,9.188061449,48.80374161,5,2603270101.0,,2603270102.0,,,,,,,,,,,0.0,1.0
4033076616569581680-2603270051-7,7971,2603270107.0,2603270107.0,1.0,,S,S2,Stuttgart-Bad Cannstatt|Stuttgart Hbf (tief)|Stuttgart Stadtmitte|Stuttgart Feuersee|Stuttgart Schwabstr.|Stuttgart Universität,8005779,Stuttgart Österfeld,Baden-Württemberg,Stuttgart,70563,9.116751457,48.73749946,4,2603270108.0,,2603270109.0,,,,,,,,,,,1.0,2.0
4033076616569581680-2603270051-6,7971,2603270105.0,2603270105.0,1.0,,S,S2,Stuttgart-Bad Cannstatt|Stuttgart Hbf (tief)|Stuttgart Stadtmitte|Stuttgart Feuersee|Stuttgart Schwabstr.,8006513,Stuttgart Universität,Baden-Württemberg,Stuttgart,70569,9.105864214,48.74511762,4,2603270106.0,,2603270106.0,,,,,,,,,,,1.0,1.0
7386663596761635454-2603270033-14,7902,2603270109.0,,1.0,,S,,Filderstadt|Stuttgart Flughafen/Messe|Echterdingen|Leinfelden|Oberaichen|Stuttgart-Rohr|Stuttgart-Vaihingen|Stuttgart-Österfeld|Stuttgart Universität|Stuttgart Schwabstr.|Stuttgart Feuersee|Stuttgart Stadtmitte|Stuttgart Hbf (tief),8005769,Stuttgart-Bad Cannstatt,Baden-Württemberg,Stuttgart,70372,9.217468636,48.80127978,3,2603270112.0,,,,,,,,,,,,,3.0,0.0
6022170079335753158-2603270102-2,7478,2603270104.0,2603270104.0,2.0,,S,S4,Stuttgart Schwabstr.,8006699,Stuttgart Feuersee,Baden-Württemberg,Stuttgart,70176,9.165850846,48.7726173,3,2603270107.0,,2603270107.0,,,,,,,,,,,3.0,3.0
7386663596761635454-2603270033-11,7902,2603270101.0,2603270102.0,2.0,,S,S2,Filderstadt|Stuttgart Flughafen/Messe|Echterdingen|Leinfelden|Oberaichen|Stuttgart-Rohr|Stuttgart-Vaihingen|Stuttgart-Österfeld|Stuttgart Universität|Stuttgart Schwabstr.,8006699,Stuttgart Feuersee,Baden-Württemberg,Stuttgart,70176,9.165850846,48.7726173,3,2603270101.0,,2603270102.0,,,,,,,,,,,0.0,0.0
2030665799069320566-2603270107-1,7180,,2603270107.0,,,S,S1,,8005772,Stuttgart-Obertürkheim,Baden-Württemberg,Stuttgart,70329,9.268167932,48.76175015,4,,,2603270107.0,,,,,,,,,,,0.0,0.0
4033076616569581680-2603270051-9,7971,2603270111.0,2603270112.0,2.0,,S,S2,Stuttgart-Bad Cannstatt|Stuttgart Hbf (tief)|Stuttgart Stadtmitte|Stuttgart Feuersee|Stuttgart Schwabstr.|Stuttgart Universität|Stuttgart-Österfeld|Stuttgart-Vaihingen,8005773,Stuttgart-Rohr,Baden-Württemberg,Stuttgart,70565,9.108158025,48.71799427,4,2603270112.0,,2603270113.0,,,,,,,,,,,1.0,1.0
6022170079335753158-2603270102-1,7478,,2603270102.0,,,S,S4,,8006698,Stuttgart Schwabstraße,Baden-Württemberg,Stuttgart,70197,9.156496717,48.77013954,3,,,2603270106.0,,,,,,,,,,,0.0,4.0
7386663596761635454-2603270033-10,7902,2603270100.0,2603270100.0,2.0,,S,S2,Filderstadt|Stuttgart Flughafen/Messe|Echterdingen|Leinfelden|Oberaichen|Stuttgart-Rohr|Stuttgart-Vaihingen|Stuttgart-Österfeld|Stuttgart Universität,8006698,Stuttgart Schwabstraße,Baden-Württemberg,Stuttgart,70197,9.156496717,48.77013954,3,2603270100.0,,2603270100.0,,,,,,,,,,,0.0,0.0
4033076616569581680-2603270051-5,7971,2603270100.0,2603270100.0,1.0,,S,S2,Stuttgart-Bad Cannstatt|Stuttgart Hbf (tief)|Stuttgart Stadtmitte|Stuttgart Feuersee,8006698,Stuttgart Schwabstraße,Baden-Württemberg,Stuttgart,70197,9.156496717,48.77013954,3,2603270101.0,,2603270101.0,,,,,,,,,,,1.0,1.0
6022170079335753158-2603270102-3,7478,2603270105.0,2603270106.0,2.0,,S,S4,Stuttgart Schwabstr.|Stuttgart Feuersee,8006700,Stuttgart Stadtmitte,Baden-Württemberg,Stuttgart,70173,9.173046906,48.77632953,3,2603270108.0,,2603270109.0,,,,,,,,,,,3.0,3.0
7386663596761635454-2603270033-12,7902,2603270103.0,2603270103.0,2.0,,S,S2,Filderstadt|Stuttgart Flughafen/Messe|Echterdingen|Leinfelden|Oberaichen|Stuttgart-Rohr|Stuttgart-Vaihingen|Stuttgart-Österfeld|Stuttgart Universität|Stuttgart Schwabstr.|Stuttgart Feuersee,8006700,Stuttgart Stadtmitte,Baden-Württemberg,Stuttgart,70173,9.173046906,48.77632953,3,2603270103.0,,2603270104.0,,,,,,,,,,,0.0,1.0
4033076616569581680-2603270051-8,7971,2603270109.0,2603270110.0,,,S,S2,Stuttgart-Bad Cannstatt|Stuttgart Hbf (tief)|Stuttgart Stadtmitte|Stuttgart Feuersee|Stuttgart Schwabstr.|Stuttgart Universität|Stuttgart-Österfeld,8005776,Stuttgart-Vaihingen,Baden-Württemberg,Stuttgart,70563,9.113913368,48.72698116,3,2603270110.0,2.0,2603270111.0,2.0,,,,,,,,,,1.0,1.0
8861760534950546127-2603270042-10,7678,2603270103.0,2603270103.0,1.0,,S,S6,Stuttgart Schwabstr.|Stuttgart Feuersee|Stuttgart Stadtmitte|Stuttgart Hbf (tief)|Stuttgart Nordbahnhof|Stuttgart-Feuerbach|Stuttgart-Zuffenhausen|Neuwirtshaus(Porscheplatz)|Korntal,8006268,Stuttgart-Weilimdorf,Baden-Württemberg,Stuttgart,70499,9.094370086,48.82208429,5,2603270103.0,,2603270104.0,,,,,,,,,,,0.0,1.0
6022170079335753158-2603270102-5,7478,2603270116.0,2603270117.0,6.0,,S,S4,Stuttgart Schwabstr.|Stuttgart Feuersee|Stuttgart Stadtmitte|Stuttgart Hbf (tief),8005778,Stuttgart-Zuffenhausen,Baden-Württemberg,Stuttgart,70435,9.167156375,48.82960884,3,2603270119.0,,2603270119.0,,,,,,,,,,,3.0,2.0
7365903133354661246-2603270052-6,7580,2603270106.0,2603270107.0,6.0,,S,S5,Stuttgart Schwabstr.|Stuttgart Feuersee|Stuttgart Stadtmitte|Stuttgart Hbf (tief)|Stuttgart Nordbahnhof,8005778,Stuttgart-Zuffenhausen,Baden-Württemberg,Stuttgart,70435,9.167156375,48.82960884,3,2603270106.0,,2603270107.0,,,,,,,,,,,0.0,0.0
7365903133354661246-2603270052-10,7580,2603270119.0,2603270120.0,3.0,,S,S5,Stuttgart Schwabstr.|Stuttgart Feuersee|Stuttgart Stadtmitte|Stuttgart Hbf (tief)|Stuttgart Nordbahnhof|Stuttgart-Zuffenhausen|Kornwestheim Pbf|Ludwigsburg|Asperg,8005820,Tamm (Württ),Baden-Württemberg,Tamm,71732,9.125288012,48.92187736,4,2603270120.0,,2603270121.0,,,,,,,,,,,1.0,1.0
-5038180826055651422-2603270037-10,19446,2603270128.0,,6.0,,ARV,,Aalen Hbf|Mögglingen(Gmünd)|Böbingen(Rems)|Schwäbisch Gmünd|Lorch(Württ)|Waldhausen(b Schorndorf)|Plüderhausen|Urbach(b Schorndorf)|Schorndorf,8000180,Waiblingen,Baden-Württemberg,Waiblingen,71332,9.300476874,48.8262444,3,2603270129.0,,,,,,,,,,,,,1.0,0.0
5788512131322567824-2603270120-1,7278,,2603270120.0,,,S,S2,,8000180,Waiblingen,Baden-Württemberg,Waiblingen,71332,9.300476874,48.8262444,3,,,2603270130.0,5.0,,,,,,,,,,0.0,10.0
4029757619719024765-2603270100-1,7378,,2603270100.0,,,S,S3,,8000180,Waiblingen,Baden-Württemberg,Waiblingen,71332,9.300476874,48.8262444,3,,,2603270101.0,,,,,,,,,,,0.0,1.0
3212831510387931381-2603270130-1,7380,,2603270130.0,,,S,S3,,8000180,Waiblingen,Baden-Württemberg,Waiblingen,71332,9.300476874,48.8262444,3,,,2603270130.0,,,,,,,,,,,0.0,0.0
8861760534950546127-2603270042-17,7678,2603270127.0,,2.0,,S,,Stuttgart Schwabstr.|Stuttgart Feuersee|Stuttgart Stadtmitte|Stuttgart Hbf (tief)|Stuttgart Nordbahnhof|Stuttgart-Feuerbach|Stuttgart-Zuffenhausen|Neuwirtshaus(Porscheplatz)|Korntal|Weilimdorf|Ditzingen|Höfingen|Leonberg|Rutesheim|Renningen|Malmsheim,8006271,Weil der Stadt,Baden-Württemberg,Weil der Stadt,71263,8.873189074,48.7557357,4,2603270127.0,,,,,,,,,,,,,0.0,0.0
5788512131322567824-2603270120-9,7278,2603270137.0,2603270137.0,1.0,,S,S2,Waiblingen|Rommelshausen|Stetten-Beinstein|Endersbach|Beutelsbach|Grunbach|Geradstetten|Winterbach(b Schorndorf),8006277,Weiler (Rems),Baden-Württemberg,Schorndorf,76314,9.501891172,48.80034585,5,2603270145.0,,2603270146.0,,,,,,,,,,,8.0,9.0
-7630775927595037256-2603270050-9,7276,2603270107.0,2603270107.0,1.0,,S,S2,Waiblingen|Rommelshausen|Stetten-Beinstein|Endersbach|Beutelsbach|Grunbach|Geradstetten|Winterbach(b Schorndorf),8006277,Weiler (Rems),Baden-Württemberg,Schorndorf,76314,9.501891172,48.80034585,5,2603270112.0,,2603270112.0,,,,,,,,,,,5.0,5.0
6401841659482002545-2603270037-9,7178,2603270102.0,2603270103.0,11.0,,S,S1,Stuttgart-Obertürkheim|Esslingen-Mettingen|Esslingen(Neckar)|Oberesslingen|Esslingen-Zell|Altbach|Plochingen|Wernau(Neckar),8006331,Wendlingen (Neckar),Baden-Württemberg,Wendlingen am Neckar,73240,9.373662098,48.67368917,3,2603270102.0,,2603270103.0,,,,,,,,,,,0.0,0.0
-6785574060646483821-2603270100-4,19343,2603270114.0,2603270115.0,2.0,,RE,MEX12,Esslingen(Neckar)|Plochingen|Wernau(Neckar),8006331,Wendlingen (Neckar),Baden-Württemberg,Wendlingen am Neckar,73240,9.373662098,48.67368917,3,2603270114.0,,2603270115.0,,,,,,,,,,,0.0,0.0
2030665799069320566-2603270107-9,7180,2603270132.0,2603270133.0,11.0,,S,S1,Stuttgart-Obertürkheim|Esslingen-Mettingen|Esslingen(Neckar)|Oberesslingen|Esslingen-Zell|Altbach|Plochingen|Wernau(Neckar),8006331,Wendlingen (Neckar),Baden-Württemberg,Wendlingen am Neckar,73240,9.373662098,48.67368917,3,2603270133.0,,2603270134.0,,,,,,,,,,,1.0,1.0
-6785574060646483821-2603270100-3,19343,2603270110.0,2603270111.0,2.0,,RE,MEX12,Esslingen(Neckar)|Plochingen,8006346,Wernau (Neckar),Baden-Württemberg,Wernau (Neckar),73249,9.413654423,48.69417221,4,2603270110.0,,2603270111.0,,,,,,,,,,,0.0,0.0
2030665799069320566-2603270107-8,7180,2603270128.0,2603270129.0,2.0,,S,S1,Stuttgart-Obertürkheim|Esslingen-Mettingen|Esslingen(Neckar)|Oberesslingen|Esslingen-Zell|Altbach|Plochingen,8006346,Wernau (Neckar),Baden-Württemberg,Wernau (Neckar),73249,9.413654423,48.69417221,4,2603270130.0,,2603270130.0,,,,,,,,,,,2.0,1.0
4029757619719024765-2603270100-4,7378,2603270109.0,2603270109.0,2.0,,S,S3,Waiblingen|Neustadt-Hohenacker|Schwaikheim,8006479,Winnenden,Baden-Württemberg,Winnenden,71364,9.392155928,48.8795625,3,2603270146.0,1.0,2603270147.0,1.0,,,,,,Waiblingen|Neustadt-Hohenacker|Schwaikheim,Nellmersbach|Maubach|Backnang,,,37.0,38.0
3212831510387931381-2603270130-4,7380,2603270139.0,2603270139.0,2.0,,S,S3,Waiblingen|Neustadt-Hohenacker|Schwaikheim,8006479,Winnenden,Baden-Württemberg,Winnenden,71364,9.392155928,48.8795625,3,2603270213.0,,2603270214.0,,,,,,,Waiblingen|Neustadt-Hohenacker|Schwaikheim,Nellmersbach|Maubach|Backnang,,,34.0,35.0
5788512131322567824-2603270120-8,7278,2603270135.0,2603270135.0,2.0,,S,S2,Waiblingen|Rommelshausen|Stetten-Beinstein|Endersbach|Beutelsbach|Grunbach|Geradstetten,8006485,Winterbach (b Schorndorf),Baden-Württemberg,Winterbach,73650,9.481549751,48.79842743,4,2603270144.0,,2603270144.0,,,,,,,,,,,9.0,9.0
-7630775927595037256-2603270050-8,7276,2603270105.0,2603270105.0,2.0,,S,S2,Waiblingen|Rommelshausen|Stetten-Beinstein|Endersbach|Beutelsbach|Grunbach|Geradstetten,8006485,Winterbach (b Schorndorf),Baden-Württemberg,Winterbach,73650,9.481549751,48.79842743,4,2603270110.0,,2603270110.0,,,,,,,,,,,5.0,5.0
6022170079335753158-2603270102-4,7478,2603270107.0,2603270108.0,102.0,,S,S4,Stuttgart Schwabstr.|Stuttgart Feuersee|Stuttgart Stadtmitte,8098096,Stuttgart Hbf (tief),Baden-Württemberg,Stuttgart,70173,9.180228831,48.78338649,1,2603270110.0,,2603270111.0,,,,,,,,,,,3.0,3.0
7386663596761635454-2603270033-13,7902,2603270105.0,2603270105.0,102.0,,S,S2,Filderstadt|Stuttgart Flughafen/Messe|Echterdingen|Leinfelden|Oberaichen|Stuttgart-Rohr|Stuttgart-Vaihingen|Stuttgart-Österfeld|Stuttgart Universität|Stuttgart Schwabstr.|Stuttgart Feuersee|Stuttgart Stadtmitte,8098096,Stuttgart Hbf (tief),Baden-Württemberg,Stuttgart,70173,9.180228831,48.78338649,1,2603270105.0,,2603270106.0,,,,,,,,,,,0.0,1.0
2686007473625185344-2603270001-6,618,2603270216.0,2603270222.0,10.0,,ICE,,München Hbf|München-Pasing|Augsburg Hbf|Günzburg|Ulm Hbf,8000096,Stuttgart Hbf,Baden-Württemberg,Stuttgart,70173,9.183172973,48.78473069,1,2603270213.0,,2603270222.0,,,,,,,,,,,-3.0,0.0
8092363418274949423-2603262350-6,7179,2603270010.0,2603270010.0,3.0,,S,S1,Kirchheim(Teck)|Kirchheim(Teck)-Ötlingen|Wendlingen(Neckar)|Wernau(Neckar)|Plochingen,8000508,Altbach,Baden-Württemberg,Altbach,73776,9.382434033,48.72031354,3,2603270013.0,,2603270013.0,,h,1.0,Bauarbeiten,,,,,,,3.0,3.0
6401841659482002545-2603270037-6,7178,2603270050.0,2603270050.0,4.0,,S,S1,Stuttgart-Obertürkheim|Esslingen-Mettingen|Esslingen(Neckar)|Oberesslingen|Esslingen-Zell,8000508,Altbach,Baden-Württemberg,Altbach,73776,9.382434033,48.72031354,3,2603270050.0,,2603270050.0,,,,,,,,,,,0.0,0.0
-6924786814638383431-2603270007-6,7176,2603270020.0,2603270020.0,4.0,,S,S1,Stuttgart-Obertürkheim|Esslingen-Mettingen|Esslingen(Neckar)|Oberesslingen|Esslingen-Zell,8000508,Altbach,Baden-Württemberg,Altbach,73776,9.382434033,48.72031354,3,2603270020.0,,2603270020.0,,,,,,,,,,,0.0,0.0
-8775031481172421761-2603270020-6,7181,2603270040.0,2603270040.0,3.0,,S,S1,Kirchheim(Teck)|Kirchheim(Teck)-Ötlingen|Wendlingen(Neckar)|Wernau(Neckar)|Plochingen,8000508,Altbach,Baden-Württemberg,Altbach,73776,9.382434033,48.72031354,3,2603270041.0,,2603270041.0,,,,,,,,,,,1.0,1.0
8164387048971779418-2603270007-3,7579,2603270012.0,2603270013.0,3.0,,S,S5,Bietigheim-Bissingen|Tamm(Württ),8000630,Asperg,Baden-Württemberg,Asperg,71679,9.147977466,48.90725609,4,2603270021.0,,2603270021.0,,,,,,,,,,,9.0,8.0
7234757278039714020-2603270022-9,7578,2603270047.0,2603270047.0,4.0,,S,S5,Stuttgart Schwabstr.|Stuttgart Feuersee|Stuttgart Stadtmitte|Stuttgart Hbf (tief)|Stuttgart Nordbahnhof|Stuttgart-Zuffenhausen|Kornwestheim Pbf|Ludwigsburg,8000630,Asperg,Baden-Württemberg,Asperg,71679,9.147977466,48.90725609,4,2603270050.0,,2603270051.0,,,,,,,,,,,3.0,4.0
-3066283384668269754-2603262352-10,7576,2603270017.0,2603270017.0,4.0,,S,S5,Stuttgart Schwabstr.|Stuttgart Feuersee|Stuttgart Stadtmitte|Stuttgart Hbf (tief)|Stuttgart Nordbahnhof|Stuttgart-Feuerbach|Stuttgart-Zuffenhausen|Kornwestheim Pbf|Ludwigsburg,8000630,Asperg,Baden-Württemberg,Asperg,71679,9.147977466,48.90725609,4,2603270017.0,,2603270017.0,,h,2.0,Störung,,,,,,,0.0,0.0
4459260690798420105-2603270000-7,7374,2603270018.0,,5.0,,S,,Waiblingen|Neustadt-Hohenacker|Schwaikheim|Winnenden|Nellmersbach|Maubach,8000016,Backnang,Baden-Württemberg,Backnang,71522,9.425986107,48.94264844,3,2603270020.0,,,,,,,,,,,,,2.0,0.0
1481285002460915742-2603270030-2,17501,2603270058.0,,4.0,,RB,,Stuttgart Hbf,8000016,Backnang,Baden-Württemberg,Backnang,71522,9.425986107,48.94264844,3,2603270109.0,3,,,,,,,,,,,,11.0,0.0
-3442537638264139385-2603270030-7,7376,2603270048.0,,5.0,,S,,Waiblingen|Neustadt-Hohenacker|Schwaikheim|Winnenden|Nellmersbach|Maubach,8000016,Backnang,Baden-Württemberg,Backnang,71522,9.425986107,48.94264844,3,2603270048.0,,,,,,,,,,,,,0.0,0.0
-177803341276164614-2603270002-17,7474,2603270052.0,,1.0,,S,,Stuttgart Schwabstr.|Stuttgart Feuersee|Stuttgart Stadtmitte|Stuttgart Hbf (tief)|Stuttgart Nordbahnhof|Stuttgart-Feuerbach|Stuttgart-Zuffenhausen|Kornwestheim Pbf|Ludwigsburg|Favoritepark|Freiberg(Neckar)|Benningen(Neckar)|Marbach(Neckar)|Erdmannhausen|Kirchberg(Murr)|Burgstall(Murr),8000016,Backnang,Baden-Württemberg,Backnang,71522,9.425986107,48.94264844,3,2603270052.0,,,,,,,,,,,,,0.0,0.0
5658139106684580012-2603270020-1,4778,,2603270020.0,,,RB,MEX19,,8000016,Backnang,Baden-Württemberg,Backnang,71522,9.425986107,48.94264844,3,,,2603270020.0,4,,,,,,,,,,0.0,0.0
-3149719527161341561-2603262332-12,7472,2603270002.0,2603270003.0,1.0,,S,S4,Stuttgart Schwabstr.|Stuttgart Feuersee|Stuttgart Stadtmitte|Stuttgart Hbf (tief)|Stuttgart Nordbahnhof|Stuttgart-Feuerbach|Stuttgart-Zuffenhausen|Kornwestheim Pbf|Ludwigsburg|Favoritepark|Freiberg(Neckar),8000873,Benningen (Neckar),Baden-Württemberg,Benningen am Neckar,71726,9.244299075,48.94379773,5,2603270004.0,,2603270005.0,,h,2.0,Störung,,,,,,,2.0,2.0
-177803341276164614-2603270002-12,7474,2603270032.0,2603270033.0,1.0,,S,S4,Stuttgart Schwabstr.|Stuttgart Feuersee|Stuttgart Stadtmitte|Stuttgart Hbf (tief)|Stuttgart Nordbahnhof|Stuttgart-Feuerbach|Stuttgart-Zuffenhausen|Kornwestheim Pbf|Ludwigsburg|Favoritepark|Freiberg(Neckar),8000873,Benningen (Neckar),Baden-Württemberg,Benningen am Neckar,71726,9.244299075,48.94379773,5,2603270034.0,,2603270034.0,,,,,,,,,,,2.0,1.0
-7630775927595037256-2603270050-5,7276,2603270058.0,2603270058.0,1.0,,S,S2,Waiblingen|Rommelshausen|Stetten-Beinstein|Endersbach,8000934,Beutelsbach,Baden-Württemberg,Weinstadt,71384,9.38551589,48.81038925,5,2603270102.0,,2603270103.0,,,,,,,,,,,4.0,5.0
-8097229136581884814-2603270018-6,7281,2603270030.0,2603270030.0,2.0,,S,S2,Schorndorf|Weiler(Rems)|Winterbach(b Schorndorf)|Geradstetten|Grunbach,8000934,Beutelsbach,Baden-Württemberg,Weinstadt,71384,9.38551589,48.81038925,5,2603270033.0,1,2603270034.0,1,,,,,,,,,,3.0,4.0
2404193397898438893-2603270020-5,7274,2603270028.0,2603270028.0,1.0,,S,S2,Waiblingen|Rommelshausen|Stetten-Beinstein|Endersbach,8000934,Beutelsbach,Baden-Württemberg,Weinstadt,71384,9.38551589,48.81038925,5,2603270043.0,,2603270044.0,,,,,,,,,c,c,15.0,16.0
6570008134094305920-2603262348-6,7279,2603270000.0,2603270000.0,2.0,,S,S2,Schorndorf|Weiler(Rems)|Winterbach(b Schorndorf)|Geradstetten|Grunbach,8000934,Beutelsbach,Baden-Württemberg,Weinstadt,71384,9.38551589,48.81038925,5,2603270040.0,,2603270040.0,,h,1.0,Störung,,,Schorndorf|Weiler(Rems)|Winterbach(b Schorndorf)|Geradstetten|Grunbach,Endersbach|Stetten-Beinstein|Rommelshausen|Waiblingen,c,c,40.0,40.0
-777260281010664973-2603270016-3,19036,2603270032.0,2603270032.0,7.0,,ARV,RE1,Stuttgart Hbf|Ludwigsburg,8000038,Bietigheim-Bissingen,Baden-Württemberg,Bietigheim-Bissingen,74321,9.137217396,48.94794988,2,2603270032.0,,2603270033.0,,,,,,,,,,,0.0,1.0
503863255708873152-2603262305-13,19364,2603270035.0,2603270036.0,10.0,,RE,MEX12,Tübingen Hbf|Reutlingen Hbf|Metzingen(Württ)|Bempflingen|Nürtingen|Oberboihingen|Wendlingen(Neckar)|Plochingen|Esslingen(Neckar)|Stuttgart-Bad Cannstatt|Stuttgart Hbf|Ludwigsburg,8000038,Bietigheim-Bissingen,Baden-Württemberg,Bietigheim-Bissingen,74321,9.137217396,48.94794988,2,2603270036.0,,2603270039.0,,,,,,,,,,,1.0,3.0
7219425221088281801-2603270004-1,19362,,2603270004.0,,,RE,MEX17,,8000038,Bietigheim-Bissingen,Baden-Württemberg,Bietigheim-Bissingen,74321,9.137217396,48.94794988,2,,,2603270006.0,,,,,,,,,,,0.0,2.0
8164387048971779418-2603270007-1,7579,,2603270007.0,,,S,S5,,8000038,Bietigheim-Bissingen,Baden-Württemberg,Bietigheim-Bissingen,74321,9.137217396,48.94794988,2,,,2603270015.0,,,,,,,,,,,0.0,8.0
-6342382568126164390-2603262312-4,19037,2603270002.0,2603270003.0,4.0,,ARV,RE1,Karlsruhe Hbf|Karlsruhe-Durlach|Vaihingen(Enz),8000038,Bietigheim-Bissingen,Baden-Württemberg,Bietigheim-Bissingen,74321,9.137217396,48.94794988,2,2603270003.0,,2603270004.0,,h,1.0,Information,,,,,,,1.0,1.0
-8784335190639872074-2603262344-11,19373,2603270021.0,2603270030.0,3.0,,RE,MEX17,Pforzheim Hbf|Eutingen(Baden)|Niefern|Mühlacker|Mühlacker Rößlesweg|Illingen(Württ)|Vaihingen(Enz)|Sersheim|Sachsenheim|Ellental,8000038,Bietigheim-Bissingen,Baden-Württemberg,Bietigheim-Bissingen,74321,9.137217396,48.94794988,2,2603270036.0,4,2603270037.0,4,h,2.0,Information,,,,,,,15.0,7.0
-2156184823073248932-2603270023-3,19584,2603270039.0,2603270040.0,7.0,,RE,MEX17,Stuttgart Hbf|Ludwigsburg,8000038,Bietigheim-Bissingen,Baden-Württemberg,Bietigheim-Bissingen,74321,9.137217396,48.94794988,2,2603270040.0,,2603270041.0,,,,,,,,,,,1.0,1.0
7234757278039714020-2603270022-11,7578,2603270054.0,,5.0,,S,,Stuttgart Schwabstr.|Stuttgart Feuersee|Stuttgart Stadtmitte|Stuttgart Hbf (tief)|Stuttgart Nordbahnhof|Stuttgart-Zuffenhausen|Kornwestheim Pbf|Ludwigsburg|Asperg|Tamm(Württ),8000038,Bietigheim-Bissingen,Baden-Württemberg,Bietigheim-Bissingen,74321,9.137217396,48.94794988,2,2603270058.0,6,,,,,,,,,,,,4.0,0.0
-3066283384668269754-2603262352-12,7576,2603270024.0,,5.0,,S,,Stuttgart Schwabstr.|Stuttgart Feuersee|Stuttgart Stadtmitte|Stuttgart Hbf (tief)|Stuttgart Nordbahnhof|Stuttgart-Feuerbach|Stuttgart-Zuffenhausen|Kornwestheim Pbf|Ludwigsburg|Asperg|Tamm(Württ),8000038,Bietigheim-Bissingen,Baden-Württemberg,Bietigheim-Bissingen,74321,9.137217396,48.94794988,2,2603270024.0,,,,h,2.0,Störung,,,,,,,0.0,0.0
-2554246829515785153-2603270027-1,19377,,2603270027.0,,,RE,MEX12,,8000038,Bietigheim-Bissingen,Baden-Württemberg,Bietigheim-Bissingen,74321,9.137217396,48.94794988,2,,,2603270033.0,,,,,,,,,,,0.0,6.0
3135343690013222861-2603270009-7,7078,2603270026.0,,5.0,,S,,Renningen|Renningen Süd|Magstadt|Maichingen Nord|Maichingen|Sindelfingen,8001055,Böblingen,Baden-Württemberg,Böblingen,71034,9.004531864,48.68784871,3,2603270032.0,,,,,,,,,,,,,6.0,0.0
-6259882265361652539-2603270035-1,8004,,2603270035.0,,,WEG,RB46,,8001055,Böblingen,Baden-Württemberg,Böblingen,71034,9.004531864,48.68784871,3,,,2603270035.0,,,,,,,,,,,0.0,0.0
-1749959168913802135-2603262335-2,2387,2603270010.0,2603270012.0,5.0,,IC,,Stuttgart Hbf,8001055,Böblingen,Baden-Württemberg,Böblingen,71034,9.004531864,48.68784871,3,2603270016.0,,2603270017.0,,h,1.0,Information,,,,,,,6.0,5.0
-9074467080985277700-2603270034-1,7079,,2603270034.0,,,S,S60,,8001055,Böblingen,Baden-Württemberg,Böblingen,71034,9.004531864,48.68784871,3,,,2603270036.0,,,,,,,,,,,0.0,2.0
3796198842089900746-2603270059-1,7967,,2603270059.0,,,S,S1,,8001055,Böblingen,Baden-Württemberg,Böblingen,71034,9.004531864,48.68784871,3,,,2603270059.0,3,,,,,,,,,,0.0,0.0
4489850678279006572-2603270005-1,8000,,2603270005.0,,,WEG,RB46,,8001055,Böblingen,Baden-Württemberg,Böblingen,71034,9.004531864,48.68784871,3,,,2603270005.0,,,,,,,,,,,0.0,0.0
-8935308159601877692-2603270029-1,7901,,2603270029.0,,,S,S1,,8001055,Böblingen,Baden-Württemberg,Böblingen,71034,9.004531864,48.68784871,3,,,2603270030.0,3,,,,,,,,,,0.0,1.0
-924266248706315035-2603262335-2,52387,2603270010.0,2603270012.0,5.0,,RE,IC87,Stuttgart Hbf,8001055,Böblingen,Baden-Württemberg,Böblingen,71034,9.004531864,48.68784871,3,2603270016.0,,2603270017.0,,h,1.0,Information,,,,,,,6.0,5.0
-4429961813474362097-2603270002-12,8001,2603270025.0,,1.0,,WEG,,Dettenhausen|Weil im Schönbuch Untere Halde|Weil im Schönbuch Röte|Weil im Schönbuch Troppel|Holzgerlingen Buch|Holzgerlingen Bf|Holzgerlingen Hülben|Böblingen Zimmerschlag|Böblingen Heusteigstr|Böblingen Südbf|Böblingen Danziger Str,8001055,Böblingen,Baden-Württemberg,Böblingen,71034,9.004531864,48.68784871,3,2603270025.0,,,,,,,,,,,,,0.0,0.0
-7406274068668704421-2603262346-6,7902,2603270000.0,,2.0,,S,,Herrenberg|Nufringen|Gärtringen|Ehningen(b Böblingen)|Hulb,8001055,Böblingen,Baden-Württemberg,Böblingen,71034,9.004531864,48.68784871,3,2603270003.0,3,,,,,,,,,,,,3.0,0.0
-4493778549557081988-2603270016-6,7968,2603270030.0,,3.0,,S,,Herrenberg|Nufringen|Gärtringen|Ehningen(b Böblingen)|Hulb,8001055,Böblingen,Baden-Württemberg,Böblingen,71034,9.004531864,48.68784871,3,2603270034.0,,,,,,,,,,,,,4.0,0.0
-8774147686098078692-2603270004-1,7077,,2603270004.0,,,S,S60,,8001055,Böblingen,Baden-Württemberg,Böblingen,71034,9.004531864,48.68784871,3,,,2603270004.0,,,,,,,,,,,0.0,0.0
-177803341276164614-2603270002-16,7474,2603270047.0,2603270047.0,1.0,,S,S4,Stuttgart Schwabstr.|Stuttgart Feuersee|Stuttgart Stadtmitte|Stuttgart Hbf (tief)|Stuttgart Nordbahnhof|Stuttgart-Feuerbach|Stuttgart-Zuffenhausen|Kornwestheim Pbf|Ludwigsburg|Favoritepark|Freiberg(Neckar)|Benningen(Neckar)|Marbach(Neckar)|Erdmannhausen|Kirchberg(Murr),8001296,Burgstall (Murr),Baden-Württemberg,Burgstetten,71576,9.36973562,48.92851826,6,2603270047.0,,2603270047.0,,,,,,,,,,,0.0,0.0
-2875027575093930885-2603270003-7,7679,2603270024.0,2603270024.0,3.0,,S,S6,Weil der Stadt|Malmsheim|Renningen|Rutesheim|Leonberg|Höfingen,8001476,Ditzingen,Baden-Württemberg,Ditzingen,71254,9.067095186,48.82358726,4,2603270028.0,,2603270028.0,,,,,,,,,,,4.0,4.0
-6901459863372467670-2603262342-11,7674,2603270006.0,2603270006.0,2.0,,S,S6,Stuttgart Schwabstr.|Stuttgart Feuersee|Stuttgart Stadtmitte|Stuttgart Hbf (tief)|Stuttgart Nordbahnhof|Stuttgart-Feuerbach|Stuttgart-Zuffenhausen|Neuwirtshaus(Porscheplatz)|Korntal|Weilimdorf,8001476,Ditzingen,Baden-Württemberg,Ditzingen,71254,9.067095186,48.82358726,4,2603270007.0,,2603270008.0,,,,,,,,,,,1.0,2.0
4089091533218825122-2603270012-11,7676,2603270036.0,2603270036.0,2.0,,S,S6,Stuttgart Schwabstr.|Stuttgart Feuersee|Stuttgart Stadtmitte|Stuttgart Hbf (tief)|Stuttgart Nordbahnhof|Stuttgart-Feuerbach|Stuttgart-Zuffenhausen|Neuwirtshaus(Porscheplatz)|Korntal|Weilimdorf,8001476,Ditzingen,Baden-Württemberg,Ditzingen,71254,9.067095186,48.82358726,4,2603270036.0,,2603270036.0,,,,,,,,,,,0.0,0.0
8721469626637288760-2603270003-3,7900,2603270010.0,2603270010.0,2.0,,S,S2,Filderstadt|Stuttgart Flughafen/Messe,8001650,Echterdingen,Baden-Württemberg,Echterdingen,70771,9.169307175,48.69214787,4,2603270011.0,,2603270011.0,,,,,,,,,,,1.0,1.0
7386663596761635454-2603270033-3,7902,2603270040.0,2603270040.0,2.0,,S,S2,Filderstadt|Stuttgart Flughafen/Messe,8001650,Echterdingen,Baden-Württemberg,Echterdingen,70771,9.169307175,48.69214787,4,2603270040.0,,2603270040.0,,,,,,,,,,,0.0,0.0
1240726514319453532-2603262351-12,7297,2603270019.0,2603270020.0,1.0,,S,S2,Stuttgart-Bad Cannstatt|Stuttgart Hbf (tief)|Stuttgart Stadtmitte|Stuttgart Feuersee|Stuttgart Schwabstr.|Stuttgart Universität|Stuttgart-Österfeld|Stuttgart-Vaihingen|Stuttgart-Rohr|Oberaichen|Leinfelden,8001650,Echterdingen,Baden-Württemberg,Echterdingen,70771,9.169307175,48.69214787,4,2603270020.0,,2603270021.0,,,,,,,,,,,1.0,1.0
-6994769295340789699-2603270021-12,7299,2603270049.0,2603270050.0,1.0,,S,S2,Stuttgart-Bad Cannstatt|Stuttgart Hbf (tief)|Stuttgart Stadtmitte|Stuttgart Feuersee|Stuttgart Schwabstr.|Stuttgart Universität|Stuttgart-Österfeld|Stuttgart-Vaihingen|Stuttgart-Rohr|Oberaichen|Leinfelden,8001650,Echterdingen,Baden-Württemberg,Echterdingen,70771,9.169307175,48.69214787,4,2603270049.0,,2603270050.0,,,,,,,,,,,0.0,0.0
-8935308159601877692-2603270029-3,7901,2603270034.0,2603270034.0,2.0,,S,S1,Böblingen|Hulb,8001689,Ehningen (b Böblingen),Baden-Württemberg,Ehningen,71139,8.944310368,48.66275549,4,2603270035.0,,2603270035.0,,,,,,,,,,,1.0,1.0
-524380939564393534-2603262359-3,7699,2603270004.0,2603270004.0,2.0,,S,S1,Böblingen|Hulb,8001689,Ehningen (b Böblingen),Baden-Württemberg,Ehningen,71139,8.944310368,48.66275549,4,2603270004.0,,2603270005.0,,,,,,,,,,,0.0,1.0
-4493778549557081988-2603270016-4,7968,2603270025.0,2603270025.0,1.0,,S,S1,Herrenberg|Nufringen|Gärtringen,8001689,Ehningen (b Böblingen),Baden-Württemberg,Ehningen,71139,8.944310368,48.66275549,4,2603270028.0,,2603270028.0,,,,,,,,,,,3.0,3.0
-7630775927595037256-2603270050-4,7276,2603270056.0,2603270056.0,2.0,,S,S2,Waiblingen|Rommelshausen|Stetten-Beinstein,8001785,Endersbach,Baden-Württemberg,Weinstadt,71384,9.370192421,48.81317323,4,2603270100.0,,2603270101.0,,,,,,,,,,,4.0,5.0
-8097229136581884814-2603270018-7,7281,2603270032.0,2603270032.0,3.0,,S,S2,Schorndorf|Weiler(Rems)|Winterbach(b Schorndorf)|Geradstetten|Grunbach|Beutelsbach,8001785,Endersbach,Baden-Württemberg,Weinstadt,71384,9.370192421,48.81317323,4,2603270035.0,1,2603270036.0,1,,,,,,,,,,3.0,4.0
2404193397898438893-2603270020-4,7274,2603270026.0,2603270026.0,2.0,,S,S2,Waiblingen|Rommelshausen|Stetten-Beinstein,8001785,Endersbach,Baden-Württemberg,Weinstadt,71384,9.370192421,48.81317323,4,2603270042.0,,2603270042.0,,,,,,,,,c,c,16.0,16.0
6570008134094305920-2603262348-7,7279,2603270002.0,2603270002.0,3.0,,S,S2,Schorndorf|Weiler(Rems)|Winterbach(b Schorndorf)|Geradstetten|Grunbach|Beutelsbach,8001785,Endersbach,Baden-Württemberg,Weinstadt,71384,9.370192421,48.81317323,4,2603270042.0,,2603270042.0,,h,1.0,Störung,,,Schorndorf|Weiler(Rems)|Winterbach(b Schorndorf)|Geradstetten|Grunbach|Beutelsbach,Stetten-Beinstein|Rommelshausen|Waiblingen,c,c,40.0,40.0
-177803341276164614-2603270002-14,7474,2603270040.0,2603270040.0,1.0,,S,S4,Stuttgart Schwabstr.|Stuttgart Feuersee|Stuttgart Stadtmitte|Stuttgart Hbf (tief)|Stuttgart Nordbahnhof|Stuttgart-Feuerbach|Stuttgart-Zuffenhausen|Kornwestheim Pbf|Ludwigsburg|Favoritepark|Freiberg(Neckar)|Benningen(Neckar)|Marbach(Neckar),8001827,Erdmannhausen,Baden-Württemberg,Erdmannhausen,71729,9.298930848,48.9483447,6,2603270040.0,,2603270041.0,,,,,,,,,,,0.0,1.0
3092414202901393595-2603262219-10,4236,2603270009.0,2603270010.0,3.0,,RE,RE5,Ravensburg|Aulendorf|Bad Schussenried|Biberach(Riß)|Laupheim West|Ulm Hbf|Geislingen(Steige)|Göppingen|Plochingen,8001920,Esslingen (Neckar),Baden-Württemberg,Esslingen am Neckar,73728,9.300578149,48.73854148,3,2603270018.0,2,2603270019.0,2,h,2.0,Information,,,,,,,9.0,9.0
8092363418274949423-2603262350-9,7179,2603270017.0,2603270018.0,7.0,,S,S1,Kirchheim(Teck)|Kirchheim(Teck)-Ötlingen|Wendlingen(Neckar)|Wernau(Neckar)|Plochingen|Altbach|Esslingen-Zell|Oberesslingen,8001920,Esslingen (Neckar),Baden-Württemberg,Esslingen am Neckar,73728,9.300578149,48.73854148,3,2603270019.0,,2603270020.0,,h,1.0,Bauarbeiten,,,,,,,2.0,2.0
-2262821663572106176-2603262333-9,19342,2603270020.0,,3.0,,RE,,Tübingen Hbf|Reutlingen Hbf|Metzingen(Württ)|Bempflingen|Nürtingen|Oberboihingen|Wendlingen(Neckar)|Plochingen,8001920,Esslingen (Neckar),Baden-Württemberg,Esslingen am Neckar,73728,9.300578149,48.73854148,3,2603270023.0,5,,,,,,,,,,,,3.0,0.0
6401841659482002545-2603270037-3,7178,2603270042.0,2603270043.0,8.0,,S,S1,Stuttgart-Obertürkheim|Esslingen-Mettingen,8001920,Esslingen (Neckar),Baden-Württemberg,Esslingen am Neckar,73728,9.300578149,48.73854148,3,2603270042.0,,2603270043.0,,,,,,,,,,,0.0,0.0
-6924786814638383431-2603270007-3,7176,2603270012.0,2603270013.0,8.0,,S,S1,Stuttgart-Obertürkheim|Esslingen-Mettingen,8001920,Esslingen (Neckar),Baden-Württemberg,Esslingen am Neckar,73728,9.300578149,48.73854148,3,2603270012.0,,2603270013.0,,,,,,,,,,,0.0,0.0
-8775031481172421761-2603270020-9,7181,2603270047.0,2603270048.0,7.0,,S,S1,Kirchheim(Teck)|Kirchheim(Teck)-Ötlingen|Wendlingen(Neckar)|Wernau(Neckar)|Plochingen|Altbach|Esslingen-Zell|Oberesslingen,8001920,Esslingen (Neckar),Baden-Württemberg,Esslingen am Neckar,73728,9.300578149,48.73854148,3,2603270048.0,,2603270049.0,,,,,,,,,,,1.0,1.0
8092363418274949423-2603262350-10,7179,2603270020.0,2603270020.0,3.0,,S,S1,Kirchheim(Teck)|Kirchheim(Teck)-Ötlingen|Wendlingen(Neckar)|Wernau(Neckar)|Plochingen|Altbach|Esslingen-Zell|Oberesslingen|Esslingen(Neckar),8001921,Esslingen-Mettingen,Baden-Württemberg,Esslingen am Neckar,73733,9.275799007,48.74696655,3,2603270022.0,4,2603270023.0,4,h,1.0,Bauarbeiten,,,,,,,2.0,3.0
6401841659482002545-2603270037-2,7178,2603270039.0,2603270039.0,4.0,,S,S1,Stuttgart-Obertürkheim,8001921,Esslingen-Mettingen,Baden-Württemberg,Esslingen am Neckar,73733,9.275799007,48.74696655,3,2603270039.0,,2603270039.0,,,,,,,,,,,0.0,0.0
-6924786814638383431-2603270007-2,7176,2603270009.0,2603270009.0,4.0,,S,S1,Stuttgart-Obertürkheim,8001921,Esslingen-Mettingen,Baden-Württemberg,Esslingen am Neckar,73733,9.275799007,48.74696655,3,2603270009.0,,2603270010.0,,,,,,,,,,,0.0,1.0
-8775031481172421761-2603270020-10,7181,2603270050.0,2603270050.0,3.0,,S,S1,Kirchheim(Teck)|Kirchheim(Teck)-Ötlingen|Wendlingen(Neckar)|Wernau(Neckar)|Plochingen|Altbach|Esslingen-Zell|Oberesslingen|Esslingen(Neckar),8001921,Esslingen-Mettingen,Baden-Württemberg,Esslingen am Neckar,73733,9.275799007,48.74696655,3,2603270051.0,4,2603270052.0,4,,,,,,,,,,1.0,2.0
8092363418274949423-2603262350-7,7179,2603270012.0,2603270012.0,3.0,,S,S1,Kirchheim(Teck)|Kirchheim(Teck)-Ötlingen|Wendlingen(Neckar)|Wernau(Neckar)|Plochingen|Altbach,8006642,Esslingen-Zell,Baden-Württemberg,Esslingen am Neckar,73730,9.359739507,48.72436142,3,2603270015.0,,2603270015.0,,h,1.0,Bauarbeiten,,,,,,,3.0,3.0
6401841659482002545-2603270037-5,7178,2603270047.0,2603270048.0,4.0,,S,S1,Stuttgart-Obertürkheim|Esslingen-Mettingen|Esslingen(Neckar)|Oberesslingen,8006642,Esslingen-Zell,Baden-Württemberg,Esslingen am Neckar,73730,9.359739507,48.72436142,3,2603270047.0,,2603270048.0,,,,,,,,,,,0.0,0.0
-6924786814638383431-2603270007-5,7176,2603270017.0,2603270018.0,4.0,,S,S1,Stuttgart-Obertürkheim|Esslingen-Mettingen|Esslingen(Neckar)|Oberesslingen,8006642,Esslingen-Zell,Baden-Württemberg,Esslingen am Neckar,73730,9.359739507,48.72436142,3,2603270017.0,,2603270018.0,,,,,,,,,,,0.0,0.0
-8775031481172421761-2603270020-7,7181,2603270042.0,2603270042.0,3.0,,S,S1,Kirchheim(Teck)|Kirchheim(Teck)-Ötlingen|Wendlingen(Neckar)|Wernau(Neckar)|Plochingen|Altbach,8006642,Esslingen-Zell,Baden-Württemberg,Esslingen am Neckar,73730,9.359739507,48.72436142,3,2603270043.0,,2603270043.0,,,,,,,,,,,1.0,1.0
-3094267637294118702-2603270032-8,7476,2603270056.0,2603270056.0,1.0,,S,S4,Stuttgart Schwabstr.|Stuttgart Feuersee|Stuttgart Stadtmitte|Stuttgart Hbf (tief)|Stuttgart-Zuffenhausen|Kornwestheim Pbf|Ludwigsburg,8001967,Favoritepark,Baden-Württemberg,Ludwigsburg,71634,9.180574277,48.90948451,5,2603270057.0,,2603270057.0,,,,,,,,,,,1.0,1.0
-177803341276164614-2603270002-10,7474,2603270026.0,2603270026.0,1.0,,S,S4,Stuttgart Schwabstr.|Stuttgart Feuersee|Stuttgart Stadtmitte|Stuttgart Hbf (tief)|Stuttgart Nordbahnhof|Stuttgart-Feuerbach|Stuttgart-Zuffenhausen|Kornwestheim Pbf|Ludwigsburg,8001967,Favoritepark,Baden-Württemberg,Ludwigsburg,71634,9.180574277,48.90948451,5,2603270027.0,,2603270028.0,,,,,,,,,,,1.0,2.0
2977099434128495599-2603262355-4,7477,2603270003.0,2603270003.0,2.0,,S,S4,Marbach(Neckar)|Benningen(Neckar)|Freiberg(Neckar),8001967,Favoritepark,Baden-Württemberg,Ludwigsburg,71634,9.180574277,48.90948451,5,2603270003.0,,2603270004.0,,h,2.0,Störung,,,,,,,0.0,1.0
8721469626637288760-2603270003-2,7900,2603270007.0,2603270008.0,2.0,,S,S2,Filderstadt,8005768,Stuttgart Flughafen/Messe,Baden-Württemberg,Leinfelden-Echterdingen,70629,9.193411574,48.69075193,4,2603270009.0,,2603270009.0,,,,,,,,,,,2.0,1.0
7386663596761635454-2603270033-2,7902,2603270037.0,2603270038.0,2.0,,S,S2,Filderstadt,8005768,Stuttgart Flughafen/Messe,Baden-Württemberg,Leinfelden-Echterdingen,70629,9.193411574,48.69075193,4,2603270037.0,,2603270038.0,,,,,,,,,,,0.0,0.0
1240726514319453532-2603262351-13,7297,2603270022.0,2603270023.0,1.0,,S,S2,Stuttgart-Bad Cannstatt|Stuttgart Hbf (tief)|Stuttgart Stadtmitte|Stuttgart Feuersee|Stuttgart Schwabstr.|Stuttgart Universität|Stuttgart-Österfeld|Stuttgart-Vaihingen|Stuttgart-Rohr|Oberaichen|Leinfelden|Echterdingen,8005768,Stuttgart Flughafen/Messe,Baden-Württemberg,Leinfelden-Echterdingen,70629,9.193411574,48.69075193,4,2603270023.0,,2603270023.0,,,,,,,,,,,1.0,0.0
-6994769295340789699-2603270021-13,7299,2603270052.0,2603270053.0,1.0,,S,S2,Stuttgart-Bad Cannstatt|Stuttgart Hbf (tief)|Stuttgart Stadtmitte|Stuttgart Feuersee|Stuttgart Schwabstr.|Stuttgart Universität|Stuttgart-Österfeld|Stuttgart-Vaihingen|Stuttgart-Rohr|Oberaichen|Leinfelden|Echterdingen,8005768,Stuttgart Flughafen/Messe,Baden-Württemberg,Leinfelden-Echterdingen,70629,9.193411574,48.69075193,4,2603270052.0,,2603270053.0,,,,,,,,,,,0.0,0.0
-3094267637294118702-2603270032-9,7476,2603270059.0,2603270059.0,3.0,,S,S4,Stuttgart Schwabstr.|Stuttgart Feuersee|Stuttgart Stadtmitte|Stuttgart Hbf (tief)|Stuttgart-Zuffenhausen|Kornwestheim Pbf|Ludwigsburg|Favoritepark,8002065,Freiberg (Neckar),Baden-Württemberg,Freiberg am Neckar,71691,9.197530085,48.92994974,5,2603270100.0,,2603270101.0,,,,,,,,,,,1.0,2.0
-177803341276164614-2603270002-11,7474,2603270029.0,2603270029.0,3.0,,S,S4,Stuttgart Schwabstr.|Stuttgart Feuersee|Stuttgart Stadtmitte|Stuttgart Hbf (tief)|Stuttgart Nordbahnhof|Stuttgart-Feuerbach|Stuttgart-Zuffenhausen|Kornwestheim Pbf|Ludwigsburg|Favoritepark,8002065,Freiberg (Neckar),Baden-Württemberg,Freiberg am Neckar,71691,9.197530085,48.92994974,5,2603270030.0,,2603270031.0,,,,,,,,,,,1.0,2.0
2977099434128495599-2603262355-3,7477,2603270000.0,2603270001.0,2.0,,S,S4,Marbach(Neckar)|Benningen(Neckar),8002065,Freiberg (Neckar),Baden-Württemberg,Freiberg am Neckar,71691,9.197530085,48.92994974,5,2603270000.0,,2603270001.0,,h,2.0,Störung,,,,,,,0.0,0.0
-8935308159601877692-2603270029-4,7901,2603270037.0,2603270037.0,1.0,,S,S1,Böblingen|Hulb|Ehningen(b Böblingen),8002165,Gärtringen,Baden-Württemberg,Gärtringen,71116,8.908864487,48.64080021,5,2603270038.0,,2603270042.0,,,,,,,,,,,1.0,5.0
-524380939564393534-2603262359-4,7699,2603270007.0,2603270007.0,1.0,,S,S1,Böblingen|Hulb|Ehningen(b Böblingen),8002165,Gärtringen,Baden-Württemberg,Gärtringen,71116,8.908864487,48.64080021,5,2603270008.0,,2603270009.0,,,,,,,,,,,1.0,2.0
-4493778549557081988-2603270016-3,7968,2603270022.0,2603270022.0,2.0,,S,S1,Herrenberg|Nufringen,8002165,Gärtringen,Baden-Württemberg,Gärtringen,71116,8.908864487,48.64080021,5,2603270025.0,,2603270025.0,,,,,,,,,,,3.0,3.0
-8097229136581884814-2603270018-4,7281,2603270025.0,2603270026.0,1.0,,S,S2,Schorndorf|Weiler(Rems)|Winterbach(b Schorndorf),8002240,Geradstetten,Baden-Württemberg,Remshalden,73630,9.439522346,48.80527689,5,2603270028.0,,2603270028.0,,,,,,,,,,,3.0,2.0
2404193397898438893-2603270020-7,7274,2603270032.0,2603270032.0,2.0,,S,S2,Waiblingen|Rommelshausen|Stetten-Beinstein|Endersbach|Beutelsbach|Grunbach,8002240,Geradstetten,Baden-Württemberg,Remshalden,73630,9.439522346,48.80527689,5,2603270048.0,,2603270048.0,,,,,,,,,c,c,16.0,16.0
-1494204691606976539-2603262350-7,7272,2603270002.0,2603270002.0,2.0,,S,S2,Waiblingen|Rommelshausen|Stetten-Beinstein|Endersbach|Beutelsbach|Grunbach,8002240,Geradstetten,Baden-Württemberg,Remshalden,73630,9.439522346,48.80527689,5,2603270027.0,,2603270027.0,,h,1.0,Störung,,,,,c,c,25.0,25.0
-8097229136581884814-2603270018-5,7281,2603270027.0,2603270028.0,2.0,,S,S2,Schorndorf|Weiler(Rems)|Winterbach(b Schorndorf)|Geradstetten,8002448,Grunbach,Baden-Württemberg,Remshalden,73630,9.419580601,48.810414,4,2603270030.0,,2603270031.0,,,,,,,,,,,3.0,3.0
2404193397898438893-2603270020-6,7274,2603270030.0,2603270030.0,3.0,,S,S2,Waiblingen|Rommelshausen|Stetten-Beinstein|Endersbach|Beutelsbach,8002448,Grunbach,Baden-Württemberg,Remshalden,73630,9.419580601,48.810414,4,2603270046.0,,2603270046.0,,,,,,,,,c,c,16.0,16.0
-1494204691606976539-2603262350-6,7272,2603270000.0,2603270000.0,3.0,,S,S2,Waiblingen|Rommelshausen|Stetten-Beinstein|Endersbach|Beutelsbach,8002448,Grunbach,Baden-Württemberg,Remshalden,73630,9.419580601,48.810414,4,2603270025.0,,2603270025.0,,h,1.0,Störung,,,,,c,c,25.0,25.0
7006300575087121655-2603270019-1,22886,,2603270019.0,,,RB,RB63,,8002785,Herrenberg,Baden-Württemberg,Herrenberg,71083,8.862625253,48.59395697,3,,,2603270019.0,,,,,,,,,,,0.0,0.0
-1749959168913802135-2603262335-3,2387,2603270021.0,2603270021.0,1.0,,IC,,Stuttgart Hbf|Böblingen,8002785,Herrenberg,Baden-Württemberg,Herrenberg,71083,8.862625253,48.59395697,3,2603270032.0,,2603270034.0,,h,1.0,Information,,,,,,,11.0,13.0
1240629729131169412-2603270049-1,22890,,2603270049.0,,,RB,RB63,,8002785,Herrenberg,Baden-Württemberg,Herrenberg,71083,8.862625253,48.59395697,3,,,2603270049.0,,,,,,,,,,,0.0,0.0
-2640907366748827010-2603270011-10,22701,2603270041.0,,102.0,,RB,,Tübingen Hbf|Tübingen West|Unterjesingen Sandäcker|Unterjesingen Mitte|Pfäffingen|Entringen|Altingen(Württ)|Gültstein|Herrenberg Zwerchweg,8002785,Herrenberg,Baden-Württemberg,Herrenberg,71083,8.862625253,48.59395697,3,2603270041.0,,,,,,,,,,,,,0.0,0.0
4466967580549170140-2603262341-10,22893,2603270011.0,,102.0,,RB,,Tübingen Hbf|Tübingen West|Unterjesingen Sandäcker|Unterjesingen Mitte|Pfäffingen|Entringen|Altingen(Württ)|Gültstein|Herrenberg Zwerchweg,8002785,Herrenberg,Baden-Württemberg,Herrenberg,71083,8.862625253,48.59395697,3,2603270011.0,,,,h,2.0,Bauarbeiten,,,,,,,0.0,0.0
-8935308159601877692-2603270029-6,7901,2603270044.0,,3.0,,S,,Böblingen|Hulb|Ehningen(b Böblingen)|Gärtringen|Nufringen,8002785,Herrenberg,Baden-Württemberg,Herrenberg,71083,8.862625253,48.59395697,3,2603270050.0,2,,,,,,,,,,,,6.0,0.0
-924266248706315035-2603262335-3,52387,2603270021.0,2603270021.0,1.0,,RE,IC87,Stuttgart Hbf|Böblingen,8002785,Herrenberg,Baden-Württemberg,Herrenberg,71083,8.862625253,48.59395697,3,2603270032.0,,2603270034.0,,h,1.0,Information,,,,,,,11.0,13.0
-524380939564393534-2603262359-6,7699,2603270014.0,,3.0,,S,,Böblingen|Hulb|Ehningen(b Böblingen)|Gärtringen|Nufringen,8002785,Herrenberg,Baden-Württemberg,Herrenberg,71083,8.862625253,48.59395697,3,2603270018.0,,,,,,,,,,,,,4.0,0.0
-4493778549557081988-2603270016-1,7968,,2603270016.0,,,S,S1,,8002785,Herrenberg,Baden-Württemberg,Herrenberg,71083,8.862625253,48.59395697,3,,,2603270019.0,,,,,,,,,,,0.0,3.0
-2875027575093930885-2603270003-6,7679,2603270020.0,2603270021.0,1.0,,S,S6,Weil der Stadt|Malmsheim|Renningen|Rutesheim|Leonberg,8002892,Höfingen,Baden-Württemberg,Leonberg,71229,9.026180834,48.81503436,5,2603270025.0,,2603270025.0,,,,,,,,,,,5.0,4.0
-6901459863372467670-2603262342-12,7674,2603270009.0,2603270009.0,2.0,,S,S6,Stuttgart Schwabstr.|Stuttgart Feuersee|Stuttgart Stadtmitte|Stuttgart Hbf (tief)|Stuttgart Nordbahnhof|Stuttgart-Feuerbach|Stuttgart-Zuffenhausen|Neuwirtshaus(Porscheplatz)|Korntal|Weilimdorf|Ditzingen,8002892,Höfingen,Baden-Württemberg,Leonberg,71229,9.026180834,48.81503436,5,2603270011.0,,2603270011.0,,,,,,,,,,,2.0,2.0
4089091533218825122-2603270012-12,7676,2603270039.0,2603270039.0,2.0,,S,S6,Stuttgart Schwabstr.|Stuttgart Feuersee|Stuttgart Stadtmitte|Stuttgart Hbf (tief)|Stuttgart Nordbahnhof|Stuttgart-Feuerbach|Stuttgart-Zuffenhausen|Neuwirtshaus(Porscheplatz)|Korntal|Weilimdorf|Ditzingen,8002892,Höfingen,Baden-Württemberg,Leonberg,71229,9.026180834,48.81503436,5,2603270039.0,,2603270039.0,,,,,,,,,,,0.0,0.0
-8935308159601877692-2603270029-2,7901,2603270031.0,2603270031.0,1.0,,S,S1,Böblingen,8003022,Hulb,Baden-Württemberg,Böblingen-Hulb,71032,8.982396429,48.67924173,5,2603270032.0,,2603270032.0,,,,,,,,,,,1.0,1.0
-524380939564393534-2603262359-2,7699,2603270001.0,2603270001.0,1.0,,S,S1,Böblingen,8003022,Hulb,Baden-Württemberg,Böblingen-Hulb,71032,8.982396429,48.67924173,5,2603270001.0,,2603270002.0,,,,,,,,,,,0.0,1.0
-4493778549557081988-2603270016-5,7968,2603270028.0,2603270028.0,2.0,,S,S1,Herrenberg|Nufringen|Gärtringen|Ehningen(b Böblingen),8003022,Hulb,Baden-Württemberg,Böblingen-Hulb,71032,8.982396429,48.67924173,5,2603270031.0,,2603270032.0,,,,,,,,,,,3.0,4.0
8721469626637288760-2603270003-1,7900,,2603270003.0,,,S,S2,,8001984,Filderstadt,Baden-Württemberg,Filderstadt,70794,9.217581315,48.67649151,5,,,2603270005.0,1,,,,,,,,,,0.0,2.0
7386663596761635454-2603270033-1,7902,,2603270033.0,,,S,S2,,8001984,Filderstadt,Baden-Württemberg,Filderstadt,70794,9.217581315,48.67649151,5,,,2603270033.0,1,,,,,,,,,,0.0,0.0
1240726514319453532-2603262351-14,7297,2603270027.0,,1.0,,S,,Stuttgart-Bad Cannstatt|Stuttgart Hbf (tief)|Stuttgart Stadtmitte|Stuttgart Feuersee|Stuttgart Schwabstr.|Stuttgart Universität|Stuttgart-Österfeld|Stuttgart-Vaihingen|Stuttgart-Rohr|Oberaichen|Leinfelden|Echterdingen|Stuttgart Flughafen/Messe,8001984,Filderstadt,Baden-Württemberg,Filderstadt,70794,9.217581315,48.67649151,5,2603270027.0,,,,,,,,,,,,,0.0,0.0
-6994769295340789699-2603270021-14,7299,2603270057.0,,1.0,,S,,Stuttgart-Bad Cannstatt|Stuttgart Hbf (tief)|Stuttgart Stadtmitte|Stuttgart Feuersee|Stuttgart Schwabstr.|Stuttgart Universität|Stuttgart-Österfeld|Stuttgart-Vaihingen|Stuttgart-Rohr|Oberaichen|Leinfelden|Echterdingen|Stuttgart Flughafen/Messe,8001984,Filderstadt,Baden-Württemberg,Filderstadt,70794,9.217581315,48.67649151,5,2603270057.0,,,,,,,,,,,,,0.0,0.0
-177803341276164614-2603270002-15,7474,2603270043.0,2603270043.0,2.0,,S,S4,Stuttgart Schwabstr.|Stuttgart Feuersee|Stuttgart Stadtmitte|Stuttgart Hbf (tief)|Stuttgart Nordbahnhof|Stuttgart-Feuerbach|Stuttgart-Zuffenhausen|Kornwestheim Pbf|Ludwigsburg|Favoritepark|Freiberg(Neckar)|Benningen(Neckar)|Marbach(Neckar)|Erdmannhausen,8003266,Kirchberg (Murr),Baden-Württemberg,Kirchberg an der Murr,71737,9.328210283,48.93928182,6,2603270043.0,,2603270043.0,,,,,,,,,,,0.0,0.0
-2915172136470747133-2603262337-11,7174,2603270009.0,,2.0,,S,,Stuttgart-Obertürkheim|Esslingen-Mettingen|Esslingen(Neckar)|Oberesslingen|Esslingen-Zell|Altbach|Plochingen|Wernau(Neckar)|Wendlingen(Neckar)|Kirchheim(Teck)-Ötlingen,8003280,Kirchheim (Teck),Baden-Württemberg,Kirchheim unter Teck,73230,9.443872422,48.64415981,4,2603270013.0,,,,h,1.0,Bauarbeiten,,,,,,,4.0,0.0
-6924786814638383431-2603270007-11,7176,2603270039.0,,2.0,,S,,Stuttgart-Obertürkheim|Esslingen-Mettingen|Esslingen(Neckar)|Oberesslingen|Esslingen-Zell|Altbach|Plochingen|Wernau(Neckar)|Wendlingen(Neckar)|Kirchheim(Teck)-Ötlingen,8003280,Kirchheim (Teck),Baden-Württemberg,Kirchheim unter Teck,73230,9.443872422,48.64415981,4,2603270040.0,,,,,,,,,,,,,1.0,0.0
-8775031481172421761-2603270020-1,7181,,2603270020.0,,,S,S1,,8003280,Kirchheim (Teck),Baden-Württemberg,Kirchheim unter Teck,73230,9.443872422,48.64415981,4,,,2603270020.0,,,,,,,,,,,0.0,0.0
-2915172136470747133-2603262337-10,7174,2603270006.0,2603270007.0,1.0,,S,S1,Stuttgart-Obertürkheim|Esslingen-Mettingen|Esslingen(Neckar)|Oberesslingen|Esslingen-Zell|Altbach|Plochingen|Wernau(Neckar)|Wendlingen(Neckar),8003282,Kirchheim (Teck)-Ötlingen,Baden-Württemberg,Kirchheim unter Teck,73230,9.416261302,48.65782388,5,2603270009.0,2,2603270010.0,2,h,1.0,Bauarbeiten,,,,,,,3.0,3.0
-6924786814638383431-2603270007-10,7176,2603270036.0,2603270037.0,1.0,,S,S1,Stuttgart-Obertürkheim|Esslingen-Mettingen|Esslingen(Neckar)|Oberesslingen|Esslingen-Zell|Altbach|Plochingen|Wernau(Neckar)|Wendlingen(Neckar),8003282,Kirchheim (Teck)-Ötlingen,Baden-Württemberg,Kirchheim unter Teck,73230,9.416261302,48.65782388,5,2603270036.0,2,2603270037.0,2,,,,,,,,,,0.0,0.0
-8775031481172421761-2603270020-2,7181,2603270023.0,2603270023.0,1.0,,S,S1,Kirchheim(Teck),8003282,Kirchheim (Teck)-Ötlingen,Baden-Württemberg,Kirchheim unter Teck,73230,9.416261302,48.65782388,5,2603270023.0,1,2603270023.0,1,,,,,,,,,,0.0,0.0
-2875027575093930885-2603270003-9,7679,2603270028.0,2603270029.0,3.0,,S,S6,Weil der Stadt|Malmsheim|Renningen|Rutesheim|Leonberg|Höfingen|Ditzingen|Weilimdorf,8003409,Korntal,Baden-Württemberg,Korntal,70825,9.121099128,48.82640246,4,2603270032.0,,2603270032.0,,,,,,,,,,,4.0,3.0
-6901459863372467670-2603262342-9,7674,2603270001.0,2603270001.0,1.0,,S,S6,Stuttgart Schwabstr.|Stuttgart Feuersee|Stuttgart Stadtmitte|Stuttgart Hbf (tief)|Stuttgart Nordbahnhof|Stuttgart-Feuerbach|Stuttgart-Zuffenhausen|Neuwirtshaus(Porscheplatz),8003409,Korntal,Baden-Württemberg,Korntal,70825,9.121099128,48.82640246,4,2603270002.0,,2603270003.0,,,,,,,,,,,1.0,2.0
-4886226872455518347-2603270005-1,1000,,2603270005.0,,,WEG,RB47,,8003409,Korntal,Baden-Württemberg,Korntal,70825,9.121099128,48.82640246,4,,,2603270005.0,,,,,,,,,,,0.0,0.0
5793407647973528623-2603270031-7,1007,2603270054.0,,7.0,,WEG,,Heimerdingen|Hemmingen|Schwieberdingen|Münchingen|Münchingen Rührberg|Korntal Gymnasium,8003409,Korntal,Baden-Württemberg,Korntal,70825,9.121099128,48.82640246,4,2603270054.0,,,,,,,,,,,,,0.0,0.0
4089091533218825122-2603270012-9,7676,2603270031.0,2603270031.0,1.0,,S,S6,Stuttgart Schwabstr.|Stuttgart Feuersee|Stuttgart Stadtmitte|Stuttgart Hbf (tief)|Stuttgart Nordbahnhof|Stuttgart-Feuerbach|Stuttgart-Zuffenhausen|Neuwirtshaus(Porscheplatz),8003409,Korntal,Baden-Württemberg,Korntal,70825,9.121099128,48.82640246,4,2603270031.0,,2603270032.0,,,,,,,,,,,0.0,1.0
-3094267637294118702-2603270032-6,7476,2603270050.0,2603270050.0,5.0,,S,S4,Stuttgart Schwabstr.|Stuttgart Feuersee|Stuttgart Stadtmitte|Stuttgart Hbf (tief)|Stuttgart-Zuffenhausen,8003411,Kornwestheim Pbf,Baden-Württemberg,Kornwestheim,70806,9.179967278,48.86215948,3,2603270050.0,,2603270051.0,,,,,,,,,,,0.0,1.0
8164387048971779418-2603270007-5,7579,2603270019.0,2603270020.0,3.0,,S,S5,Bietigheim-Bissingen|Tamm(Württ)|Asperg|Ludwigsburg,8003411,Kornwestheim Pbf,Baden-Württemberg,Kornwestheim,70806,9.179967278,48.86215948,3,2603270028.0,,2603270029.0,,,,,,,,,,,9.0,9.0
-177803341276164614-2603270002-8,7474,2603270020.0,2603270020.0,4.0,,S,S4,Stuttgart Schwabstr.|Stuttgart Feuersee|Stuttgart Stadtmitte|Stuttgart Hbf (tief)|Stuttgart Nordbahnhof|Stuttgart-Feuerbach|Stuttgart-Zuffenhausen,8003411,Kornwestheim Pbf,Baden-Württemberg,Kornwestheim,70806,9.179967278,48.86215948,3,2603270021.0,,2603270022.0,,,,,,,,,,,1.0,2.0
2977099434128495599-2603262355-6,7477,2603270009.0,2603270010.0,3.0,,S,S4,Marbach(Neckar)|Benningen(Neckar)|Freiberg(Neckar)|Favoritepark|Ludwigsburg,8003411,Kornwestheim Pbf,Baden-Württemberg,Kornwestheim,70806,9.179967278,48.86215948,3,2603270013.0,,2603270017.0,,h,2.0,Störung,,,,,,,4.0,7.0
7234757278039714020-2603270022-7,7578,2603270040.0,2603270040.0,5.0,,S,S5,Stuttgart Schwabstr.|Stuttgart Feuersee|Stuttgart Stadtmitte|Stuttgart Hbf (tief)|Stuttgart Nordbahnhof|Stuttgart-Zuffenhausen,8003411,Kornwestheim Pbf,Baden-Württemberg,Kornwestheim,70806,9.179967278,48.86215948,3,2603270044.0,,2603270044.0,,,,,,,,,,,4.0,4.0
-3066283384668269754-2603262352-8,7576,2603270010.0,2603270010.0,4.0,,S,S5,Stuttgart Schwabstr.|Stuttgart Feuersee|Stuttgart Stadtmitte|Stuttgart Hbf (tief)|Stuttgart Nordbahnhof|Stuttgart-Feuerbach|Stuttgart-Zuffenhausen,8003411,Kornwestheim Pbf,Baden-Württemberg,Kornwestheim,70806,9.179967278,48.86215948,3,2603270010.0,,2603270011.0,,h,2.0,Störung,,,,,,,0.0,1.0
8721469626637288760-2603270003-4,7900,2603270012.0,2603270013.0,2.0,,S,S2,Filderstadt|Stuttgart Flughafen/Messe|Echterdingen,8003622,Leinfelden,Baden-Württemberg,Leinfelden-Echterdingen,70771,9.142859698,48.6964193,4,2603270013.0,,2603270014.0,,,,,,,,,,,1.0,1.0
7386663596761635454-2603270033-4,7902,2603270042.0,2603270043.0,2.0,,S,S2,Filderstadt|Stuttgart Flughafen/Messe|Echterdingen,8003622,Leinfelden,Baden-Württemberg,Leinfelden-Echterdingen,70771,9.142859698,48.6964193,4,2603270042.0,,2603270043.0,,,,,,,,,,,0.0,0.0
1240726514319453532-2603262351-11,7297,2603270016.0,2603270017.0,1.0,,S,S2,Stuttgart-Bad Cannstatt|Stuttgart Hbf (tief)|Stuttgart Stadtmitte|Stuttgart Feuersee|Stuttgart Schwabstr.|Stuttgart Universität|Stuttgart-Österfeld|Stuttgart-Vaihingen|Stuttgart-Rohr|Oberaichen,8003622,Leinfelden,Baden-Württemberg,Leinfelden-Echterdingen,70771,9.142859698,48.6964193,4,2603270018.0,,2603270018.0,,,,,,,,,,,2.0,1.0
-6994769295340789699-2603270021-11,7299,2603270046.0,2603270047.0,1.0,,S,S2,Stuttgart-Bad Cannstatt|Stuttgart Hbf (tief)|Stuttgart Stadtmitte|Stuttgart Feuersee|Stuttgart Schwabstr.|Stuttgart Universität|Stuttgart-Österfeld|Stuttgart-Vaihingen|Stuttgart-Rohr|Oberaichen,8003622,Leinfelden,Baden-Württemberg,Leinfelden-Echterdingen,70771,9.142859698,48.6964193,4,2603270046.0,,2603270047.0,,,,,,,,,,,0.0,0.0
-2875027575093930885-2603270003-5,7679,2603270017.0,2603270017.0,1.0,,S,S6,Weil der Stadt|Malmsheim|Renningen|Rutesheim,8003652,Leonberg,Baden-Württemberg,Leonberg,71229,9.004025993,48.79970547,3,2603270021.0,,2603270022.0,,,,,,,,,,,4.0,5.0
-6901459863372467670-2603262342-13,7674,2603270013.0,2603270013.0,2.0,,S,S6,Stuttgart Schwabstr.|Stuttgart Feuersee|Stuttgart Stadtmitte|Stuttgart Hbf (tief)|Stuttgart Nordbahnhof|Stuttgart-Feuerbach|Stuttgart-Zuffenhausen|Neuwirtshaus(Porscheplatz)|Korntal|Weilimdorf|Ditzingen|Höfingen,8003652,Leonberg,Baden-Württemberg,Leonberg,71229,9.004025993,48.79970547,3,2603270015.0,,2603270016.0,,,,,,,,,,,2.0,3.0
4089091533218825122-2603270012-13,7676,2603270043.0,2603270043.0,2.0,,S,S6,Stuttgart Schwabstr.|Stuttgart Feuersee|Stuttgart Stadtmitte|Stuttgart Hbf (tief)|Stuttgart Nordbahnhof|Stuttgart-Feuerbach|Stuttgart-Zuffenhausen|Neuwirtshaus(Porscheplatz)|Korntal|Weilimdorf|Ditzingen|Höfingen,8003652,Leonberg,Baden-Württemberg,Leonberg,71229,9.004025993,48.79970547,3,2603270043.0,,2603270043.0,,,,,,,,,,,0.0,0.0
-777260281010664973-2603270016-2,19036,2603270025.0,2603270025.0,1.0,,ARV,RE1,Stuttgart Hbf,8000235,Ludwigsburg,Baden-Württemberg,Ludwigsburg,71638,9.185229823,48.89208622,3,2603270026.0,,2603270026.0,,,,,,,,,,,1.0,1.0
-4937690951843013146-2603262357-2,19375,2603270004.0,2603270005.0,4.0,,RE,MEX18,Bietigheim-Bissingen,8000235,Ludwigsburg,Baden-Württemberg,Ludwigsburg,71638,9.185229823,48.89208622,3,2603270004.0,,2603270005.0,,,,,,,,,,,0.0,0.0
503863255708873152-2603262305-12,19364,2603270028.0,2603270029.0,1.0,,RE,MEX12,Tübingen Hbf|Reutlingen Hbf|Metzingen(Württ)|Bempflingen|Nürtingen|Oberboihingen|Wendlingen(Neckar)|Plochingen|Esslingen(Neckar)|Stuttgart-Bad Cannstatt|Stuttgart Hbf,8000235,Ludwigsburg,Baden-Württemberg,Ludwigsburg,71638,9.185229823,48.89208622,3,2603270029.0,,2603270030.0,,,,,,,,,,,1.0,1.0
-3094267637294118702-2603270032-7,7476,2603270053.0,2603270054.0,2.0,,S,S4,Stuttgart Schwabstr.|Stuttgart Feuersee|Stuttgart Stadtmitte|Stuttgart Hbf (tief)|Stuttgart-Zuffenhausen|Kornwestheim Pbf,8000235,Ludwigsburg,Baden-Württemberg,Ludwigsburg,71638,9.185229823,48.89208622,3,2603270054.0,,2603270055.0,,,,,,,,,,,1.0,1.0
8164387048971779418-2603270007-4,7579,2603270016.0,2603270016.0,3.0,,S,S5,Bietigheim-Bissingen|Tamm(Württ)|Asperg,8000235,Ludwigsburg,Baden-Württemberg,Ludwigsburg,71638,9.185229823,48.89208622,3,2603270024.0,,2603270025.0,,,,,,,,,,,8.0,9.0
-177803341276164614-2603270002-9,7474,2603270023.0,2603270024.0,2.0,,S,S4,Stuttgart Schwabstr.|Stuttgart Feuersee|Stuttgart Stadtmitte|Stuttgart Hbf (tief)|Stuttgart Nordbahnhof|Stuttgart-Feuerbach|Stuttgart-Zuffenhausen|Kornwestheim Pbf,8000235,Ludwigsburg,Baden-Württemberg,Ludwigsburg,71638,9.185229823,48.89208622,3,2603270025.0,,2603270025.0,,,,,,,,,,,2.0,1.0
-6342382568126164390-2603262312-5,19037,2603270010.0,2603270011.0,4.0,,ARV,RE1,Karlsruhe Hbf|Karlsruhe-Durlach|Vaihingen(Enz)|Bietigheim-Bissingen,8000235,Ludwigsburg,Baden-Württemberg,Ludwigsburg,71638,9.185229823,48.89208622,3,2603270010.0,,2603270011.0,,h,1.0,Information,,,,,,,0.0,0.0
-8784335190639872074-2603262344-12,19373,2603270037.0,2603270037.0,4.0,,RE,MEX17,Pforzheim Hbf|Eutingen(Baden)|Niefern|Mühlacker|Mühlacker Rößlesweg|Illingen(Württ)|Vaihingen(Enz)|Sersheim|Sachsenheim|Ellental|Bietigheim-Bissingen,8000235,Ludwigsburg,Baden-Württemberg,Ludwigsburg,71638,9.185229823,48.89208622,3,2603270044.0,,2603270045.0,,h,2.0,Information,,,,,,,7.0,8.0
-2156184823073248932-2603270023-2,19584,2603270033.0,2603270033.0,1.0,,RE,MEX17,Stuttgart Hbf,8000235,Ludwigsburg,Baden-Württemberg,Ludwigsburg,71638,9.185229823,48.89208622,3,2603270033.0,,2603270034.0,,,,,,,,,,,0.0,1.0
2977099434128495599-2603262355-5,7477,2603270006.0,2603270006.0,3.0,,S,S4,Marbach(Neckar)|Benningen(Neckar)|Freiberg(Neckar)|Favoritepark,8000235,Ludwigsburg,Baden-Württemberg,Ludwigsburg,71638,9.185229823,48.89208622,3,2603270006.0,2,2603270009.0,2,h,2.0,Störung,,,,,,,0.0,3.0
7234757278039714020-2603270022-8,7578,2603270043.0,2603270044.0,2.0,,S,S5,Stuttgart Schwabstr.|Stuttgart Feuersee|Stuttgart Stadtmitte|Stuttgart Hbf (tief)|Stuttgart Nordbahnhof|Stuttgart-Zuffenhausen|Kornwestheim Pbf,8000235,Ludwigsburg,Baden-Württemberg,Ludwigsburg,71638,9.185229823,48.89208622,3,2603270048.0,,2603270048.0,,,,,,,,,,,5.0,4.0
-3066283384668269754-2603262352-9,7576,2603270013.0,2603270014.0,2.0,,S,S5,Stuttgart Schwabstr.|Stuttgart Feuersee|Stuttgart Stadtmitte|Stuttgart Hbf (tief)|Stuttgart Nordbahnhof|Stuttgart-Feuerbach|Stuttgart-Zuffenhausen|Kornwestheim Pbf,8000235,Ludwigsburg,Baden-Württemberg,Ludwigsburg,71638,9.185229823,48.89208622,3,2603270013.0,,2603270014.0,,h,2.0,Störung,,,,,,,0.0,0.0
-2554246829515785153-2603270027-2,19377,2603270034.0,2603270034.0,4.0,,RE,MEX12,Bietigheim-Bissingen,8000235,Ludwigsburg,Baden-Württemberg,Ludwigsburg,71638,9.185229823,48.89208622,3,2603270039.0,,2603270040.0,,,,,,,,,,,5.0,6.0
-2875027575093930885-2603270003-2,7679,2603270005.0,2603270005.0,2.0,,S,S6,Weil der Stadt,8003831,Malmsheim,Baden-Württemberg,Renningen,71272,8.905105557,48.77183564,5,2603270013.0,,2603270014.0,,,,,,,,,,,8.0,9.0
-6901459863372467670-2603262342-16,7674,2603270024.0,2603270024.0,1.0,,S,S6,Stuttgart Schwabstr.|Stuttgart Feuersee|Stuttgart Stadtmitte|Stuttgart Hbf (tief)|Stuttgart Nordbahnhof|Stuttgart-Feuerbach|Stuttgart-Zuffenhausen|Neuwirtshaus(Porscheplatz)|Korntal|Weilimdorf|Ditzingen|Höfingen|Leonberg|Rutesheim|Renningen,8003831,Malmsheim,Baden-Württemberg,Renningen,71272,8.905105557,48.77183564,5,2603270024.0,,2603270025.0,,,,,,,,,,,0.0,1.0
4089091533218825122-2603270012-16,7676,2603270054.0,2603270054.0,1.0,,S,S6,Stuttgart Schwabstr.|Stuttgart Feuersee|Stuttgart Stadtmitte|Stuttgart Hbf (tief)|Stuttgart Nordbahnhof|Stuttgart-Feuerbach|Stuttgart-Zuffenhausen|Neuwirtshaus(Porscheplatz)|Korntal|Weilimdorf|Ditzingen|Höfingen|Leonberg|Rutesheim|Renningen,8003831,Malmsheim,Baden-Württemberg,Renningen,71272,8.905105557,48.77183564,5,2603270055.0,,2603270055.0,,,,,,,,,,,1.0,1.0
-3149719527161341561-2603262332-13,7472,2603270005.0,,1.0,,S,,Stuttgart Schwabstr.|Stuttgart Feuersee|Stuttgart Stadtmitte|Stuttgart Hbf (tief)|Stuttgart Nordbahnhof|Stuttgart-Feuerbach|Stuttgart-Zuffenhausen|Kornwestheim Pbf|Ludwigsburg|Favoritepark|Freiberg(Neckar)|Benningen(Neckar),8003853,Marbach (Neckar),Baden-Württemberg,Marbach am Neckar,71672,9.264611825,48.9437708,3,2603270006.0,,,,h,2.0,Störung,,,,,,,1.0,0.0
-177803341276164614-2603270002-13,7474,2603270035.0,2603270038.0,1.0,,S,S4,Stuttgart Schwabstr.|Stuttgart Feuersee|Stuttgart Stadtmitte|Stuttgart Hbf (tief)|Stuttgart Nordbahnhof|Stuttgart-Feuerbach|Stuttgart-Zuffenhausen|Kornwestheim Pbf|Ludwigsburg|Favoritepark|Freiberg(Neckar)|Benningen(Neckar),8003853,Marbach (Neckar),Baden-Württemberg,Marbach am Neckar,71672,9.264611825,48.9437708,3,2603270037.0,,2603270038.0,,,,,,,,,,,2.0,0.0
4459260690798420105-2603270000-6,7374,2603270014.0,2603270015.0,2.0,,S,S3,Waiblingen|Neustadt-Hohenacker|Schwaikheim|Winnenden|Nellmersbach,8003913,Maubach,Baden-Württemberg,Backnang,71522,9.419487062,48.92623463,4,2603270017.0,,2603270018.0,,,,,,,,,,,3.0,3.0
-3442537638264139385-2603270030-6,7376,2603270044.0,2603270045.0,2.0,,S,S3,Waiblingen|Neustadt-Hohenacker|Schwaikheim|Winnenden|Nellmersbach,8003913,Maubach,Baden-Württemberg,Backnang,71522,9.419487062,48.92623463,4,2603270045.0,,2603270045.0,,,,,,,,,,,1.0,0.0
4459260690798420105-2603270000-5,7374,2603270011.0,2603270012.0,2.0,,S,S3,Waiblingen|Neustadt-Hohenacker|Schwaikheim|Winnenden,8004233,Nellmersbach,Baden-Württemberg,Leutenbach,71397,9.415421538,48.90336425,5,2603270014.0,,2603270014.0,,,,,,,,,,,3.0,2.0
-3442537638264139385-2603270030-5,7376,2603270041.0,2603270042.0,2.0,,S,S3,Waiblingen|Neustadt-Hohenacker|Schwaikheim|Winnenden,8004233,Nellmersbach,Baden-Württemberg,Leutenbach,71397,9.415421538,48.90336425,5,2603270042.0,,2603270043.0,,,,,,,,,,,1.0,1.0
4459260690798420105-2603270000-2,7374,2603270003.0,2603270003.0,1.0,,S,S3,Waiblingen,8004333,Neustadt-Hohenacker,Baden-Württemberg,Waiblingen,71336,9.32455106,48.85921668,5,2603270004.0,,2603270005.0,,,,,,,,,,,1.0,2.0
-3442537638264139385-2603270030-2,7376,2603270033.0,2603270033.0,1.0,,S,S3,Waiblingen,8004333,Neustadt-Hohenacker,Baden-Württemberg,Waiblingen,71336,9.32455106,48.85921668,5,2603270033.0,,2603270034.0,,,,,,,,,,,0.0,1.0
8861760534950546127-2603270042-8,7678,2603270058.0,2603270058.0,1.0,,S,S6,Stuttgart Schwabstr.|Stuttgart Feuersee|Stuttgart Stadtmitte|Stuttgart Hbf (tief)|Stuttgart Nordbahnhof|Stuttgart-Feuerbach|Stuttgart-Zuffenhausen,8004338,Neuwirtshaus (Porscheplatz),Baden-Württemberg,Stuttgart,70435,9.151955614,48.83384734,4,2603270059.0,,2603270059.0,,,,,,,,,,,1.0,1.0
-2875027575093930885-2603270003-10,7679,2603270031.0,2603270031.0,2.0,,S,S6,Weil der Stadt|Malmsheim|Renningen|Rutesheim|Leonberg|Höfingen|Ditzingen|Weilimdorf|Korntal,8004338,Neuwirtshaus (Porscheplatz),Baden-Württemberg,Stuttgart,70435,9.151955614,48.83384734,4,2603270034.0,,2603270035.0,,,,,,,,,,,3.0,4.0
-6526775162747392382-2603262333-10,7677,2603270001.0,2603270001.0,2.0,,S,S6,Weil der Stadt|Malmsheim|Renningen|Rutesheim|Leonberg|Höfingen|Ditzingen|Weilimdorf|Korntal,8004338,Neuwirtshaus (Porscheplatz),Baden-Württemberg,Stuttgart,70435,9.151955614,48.83384734,4,2603270007.0,,2603270008.0,,,,,,,,,,,6.0,7.0
4089091533218825122-2603270012-8,7676,2603270028.0,2603270028.0,1.0,,S,S6,Stuttgart Schwabstr.|Stuttgart Feuersee|Stuttgart Stadtmitte|Stuttgart Hbf (tief)|Stuttgart Nordbahnhof|Stuttgart-Feuerbach|Stuttgart-Zuffenhausen,8004338,Neuwirtshaus (Porscheplatz),Baden-Württemberg,Stuttgart,70435,9.151955614,48.83384734,4,2603270029.0,,2603270029.0,,,,,,,,,,,1.0,1.0
-8935308159601877692-2603270029-5,7901,2603270040.0,2603270040.0,1.0,,S,S1,Böblingen|Hulb|Ehningen(b Böblingen)|Gärtringen,8004490,Nufringen,Baden-Württemberg,Nufringen,71154,8.889817485,48.62010967,5,2603270045.0,2,2603270046.0,2,,,,,,,,,,5.0,6.0
-524380939564393534-2603262359-5,7699,2603270010.0,2603270010.0,1.0,,S,S1,Böblingen|Hulb|Ehningen(b Böblingen)|Gärtringen,8004490,Nufringen,Baden-Württemberg,Nufringen,71154,8.889817485,48.62010967,5,2603270012.0,2,2603270014.0,2,,,,,,,,,,2.0,4.0
-4493778549557081988-2603270016-2,7968,2603270019.0,2603270019.0,1.0,,S,S1,Herrenberg,8004490,Nufringen,Baden-Württemberg,Nufringen,71154,8.889817485,48.62010967,5,2603270022.0,2,2603270023.0,2,,,,,,,,,,3.0,4.0
8721469626637288760-2603270003-5,7900,2603270015.0,2603270015.0,2.0,,S,S2,Filderstadt|Stuttgart Flughafen/Messe|Echterdingen|Leinfelden,8004496,Oberaichen,Baden-Württemberg,Leinfelden-Echterdingen,70771,9.12743664,48.70512422,5,2603270016.0,,2603270016.0,,,,,,,,,,,1.0,1.0
7386663596761635454-2603270033-5,7902,2603270045.0,2603270045.0,2.0,,S,S2,Filderstadt|Stuttgart Flughafen/Messe|Echterdingen|Leinfelden,8004496,Oberaichen,Baden-Württemberg,Leinfelden-Echterdingen,70771,9.12743664,48.70512422,5,2603270045.0,,2603270046.0,,,,,,,,,,,0.0,1.0
1240726514319453532-2603262351-10,7297,2603270014.0,2603270014.0,1.0,,S,S2,Stuttgart-Bad Cannstatt|Stuttgart Hbf (tief)|Stuttgart Stadtmitte|Stuttgart Feuersee|Stuttgart Schwabstr.|Stuttgart Universität|Stuttgart-Österfeld|Stuttgart-Vaihingen|Stuttgart-Rohr,8004496,Oberaichen,Baden-Württemberg,Leinfelden-Echterdingen,70771,9.12743664,48.70512422,5,2603270015.0,,2603270016.0,,,,,,,,,,,1.0,2.0
-6994769295340789699-2603270021-10,7299,2603270044.0,2603270044.0,1.0,,S,S2,Stuttgart-Bad Cannstatt|Stuttgart Hbf (tief)|Stuttgart Stadtmitte|Stuttgart Feuersee|Stuttgart Schwabstr.|Stuttgart Universität|Stuttgart-Österfeld|Stuttgart-Vaihingen|Stuttgart-Rohr,8004496,Oberaichen,Baden-Württemberg,Leinfelden-Echterdingen,70771,9.12743664,48.70512422,5,2603270044.0,,2603270044.0,,,,,,,,,,,0.0,0.0
8092363418274949423-2603262350-8,7179,2603270015.0,2603270015.0,3.0,,S,S1,Kirchheim(Teck)|Kirchheim(Teck)-Ötlingen|Wendlingen(Neckar)|Wernau(Neckar)|Plochingen|Altbach|Esslingen-Zell,8004528,Oberesslingen,Baden-Württemberg,Esslingen am Neckar,73730,9.327277435,48.72983585,3,2603270017.0,,2603270017.0,,h,1.0,Bauarbeiten,,,,,,,2.0,2.0
6401841659482002545-2603270037-4,7178,2603270045.0,2603270045.0,4.0,,S,S1,Stuttgart-Obertürkheim|Esslingen-Mettingen|Esslingen(Neckar),8004528,Oberesslingen,Baden-Württemberg,Esslingen am Neckar,73730,9.327277435,48.72983585,3,2603270045.0,,2603270045.0,,,,,,,,,,,0.0,0.0
-6924786814638383431-2603270007-4,7176,2603270015.0,2603270015.0,4.0,,S,S1,Stuttgart-Obertürkheim|Esslingen-Mettingen|Esslingen(Neckar),8004528,Oberesslingen,Baden-Württemberg,Esslingen am Neckar,73730,9.327277435,48.72983585,3,2603270015.0,,2603270015.0,,,,,,,,,,,0.0,0.0
-8775031481172421761-2603270020-8,7181,2603270045.0,2603270045.0,3.0,,S,S1,Kirchheim(Teck)|Kirchheim(Teck)-Ötlingen|Wendlingen(Neckar)|Wernau(Neckar)|Plochingen|Altbach|Esslingen-Zell,8004528,Oberesslingen,Baden-Württemberg,Esslingen am Neckar,73730,9.327277435,48.72983585,3,2603270045.0,,2603270046.0,,,,,,,,,,,0.0,1.0
3092414202901393595-2603262219-9,4236,2603270002.0,2603270003.0,1.0,,RE,RE5,Ravensburg|Aulendorf|Bad Schussenried|Biberach(Riß)|Laupheim West|Ulm Hbf|Geislingen(Steige)|Göppingen,8000302,Plochingen,Baden-Württemberg,Plochingen,73207,9.411294578,48.71293906,2,2603270006.0,,2603270008.0,,h,2.0,Information,,,,,,,4.0,5.0
-3587358155349765613-2603270030-1,19187,,2603270030.0,,,ARV,MEX16,,8000302,Plochingen,Baden-Württemberg,Plochingen,73207,9.411294578,48.71293906,2,,,2603270030.0,6,,,,,,,,,,0.0,0.0
8092363418274949423-2603262350-5,7179,2603270005.0,2603270007.0,9.0,,S,S1,Kirchheim(Teck)|Kirchheim(Teck)-Ötlingen|Wendlingen(Neckar)|Wernau(Neckar),8000302,Plochingen,Baden-Württemberg,Plochingen,73207,9.411294578,48.71293906,2,2603270010.0,,2603270011.0,,h,1.0,Bauarbeiten,,,,,,,5.0,4.0
-2262821663572106176-2603262333-8,19342,2603270013.0,2603270014.0,6.0,,RE,MEX18,Tübingen Hbf|Reutlingen Hbf|Metzingen(Württ)|Bempflingen|Nürtingen|Oberboihingen|Wendlingen(Neckar),8000302,Plochingen,Baden-Württemberg,Plochingen,73207,9.411294578,48.71293906,2,2603270014.0,7,2603270014.0,7,,,,,,,,,,1.0,0.0
6401841659482002545-2603270037-7,7178,2603270053.0,2603270055.0,10.0,,S,S1,Stuttgart-Obertürkheim|Esslingen-Mettingen|Esslingen(Neckar)|Oberesslingen|Esslingen-Zell|Altbach,8000302,Plochingen,Baden-Württemberg,Plochingen,73207,9.411294578,48.71293906,2,2603270053.0,,2603270055.0,,,,,,,,,,,0.0,0.0
-6924786814638383431-2603270007-7,7176,2603270023.0,2603270025.0,9.0,,S,S1,Stuttgart-Obertürkheim|Esslingen-Mettingen|Esslingen(Neckar)|Oberesslingen|Esslingen-Zell|Altbach,8000302,Plochingen,Baden-Württemberg,Plochingen,73207,9.411294578,48.71293906,2,2603270023.0,,2603270025.0,,,,,,,,,,,0.0,0.0
-191112917135559042-2603270000-1,19185,,2603270000.0,,,ARV,MEX16,,8000302,Plochingen,Baden-Württemberg,Plochingen,73207,9.411294578,48.71293906,2,,,2603270002.0,1,,,,,,,,,,0.0,2.0
-8775031481172421761-2603270020-5,7181,2603270035.0,2603270037.0,9.0,,S,S1,Kirchheim(Teck)|Kirchheim(Teck)-Ötlingen|Wendlingen(Neckar)|Wernau(Neckar),8000302,Plochingen,Baden-Württemberg,Plochingen,73207,9.411294578,48.71293906,2,2603270037.0,,2603270039.0,,,,,,,,,,,2.0,2.0
6538495934741560204-2603262346-19,19188,2603270056.0,,1.0,,ARV,,Ulm Hbf|Beimerstetten|Westerstetten|Lonsee|Urspring|Amstetten(Württ)|Geislingen(Steige)|Geislingen(Steige)West|Kuchen|Gingen(Fils)|Süßen|Salach|Eislingen(Fils)|Göppingen|Faurndau|Uhingen|Ebersbach(Fils)|Reichenbach(Fils),8000302,Plochingen,Baden-Württemberg,Plochingen,73207,9.411294578,48.71293906,2,2603270056.0,4,,,,,,,,,,,,0.0,0.0
-4359664030948879851-2603262348-13,19186,2603270028.0,,1.0,,ARV,,Geislingen(Steige)|Geislingen(Steige)West|Kuchen|Gingen(Fils)|Süßen|Salach|Eislingen(Fils)|Göppingen|Faurndau|Uhingen|Ebersbach(Fils)|Reichenbach(Fils),8000302,Plochingen,Baden-Württemberg,Plochingen,73207,9.411294578,48.71293906,2,2603270028.0,,,,,,,,,,,,,0.0,0.0
3135343690013222861-2603270009-1,7078,,2603270009.0,,,S,S60,,8000313,Renningen,Baden-Württemberg,Renningen,71272,8.932650148,48.77515509,3,,,2603270016.0,,,,,,,,,,,0.0,7.0
-9074467080985277700-2603270034-7,7079,2603270050.0,,2.0,,S,,Böblingen|Sindelfingen|Maichingen|Maichingen Nord|Magstadt|Renningen Süd,8000313,Renningen,Baden-Württemberg,Renningen,71272,8.932650148,48.77515509,3,2603270052.0,,,,,,,,,,,,,2.0,0.0
-2875027575093930885-2603270003-3,7679,2603270007.0,2603270011.0,2.0,,S,S6,Weil der Stadt|Malmsheim,8000313,Renningen,Baden-Württemberg,Renningen,71272,8.932650148,48.77515509,3,2603270016.0,,2603270016.0,,,,,,,,,,,9.0,5.0
-6901459863372467670-2603262342-15,7674,2603270019.0,2603270022.0,3.0,,S,S6,Stuttgart Schwabstr.|Stuttgart Feuersee|Stuttgart Stadtmitte|Stuttgart Hbf (tief)|Stuttgart Nordbahnhof|Stuttgart-Feuerbach|Stuttgart-Zuffenhausen|Neuwirtshaus(Porscheplatz)|Korntal|Weilimdorf|Ditzingen|Höfingen|Leonberg|Rutesheim,8000313,Renningen,Baden-Württemberg,Renningen,71272,8.932650148,48.77515509,3,2603270021.0,,2603270023.0,,,,,,,,,,,2.0,1.0
4089091533218825122-2603270012-15,7676,2603270049.0,2603270052.0,3.0,,S,S6,Stuttgart Schwabstr.|Stuttgart Feuersee|Stuttgart Stadtmitte|Stuttgart Hbf (tief)|Stuttgart Nordbahnhof|Stuttgart-Feuerbach|Stuttgart-Zuffenhausen|Neuwirtshaus(Porscheplatz)|Korntal|Weilimdorf|Ditzingen|Höfingen|Leonberg|Rutesheim,8000313,Renningen,Baden-Württemberg,Renningen,71272,8.932650148,48.77515509,3,2603270049.0,,2603270053.0,,,,,,,,,,,0.0,1.0
-8774147686098078692-2603270004-7,7077,2603270020.0,,2.0,,S,,Böblingen|Sindelfingen|Maichingen|Maichingen Nord|Magstadt|Renningen Süd,8000313,Renningen,Baden-Württemberg,Renningen,71272,8.932650148,48.77515509,3,2603270021.0,,,,,,,,,,,,,1.0,0.0
-7630775927595037256-2603270050-2,7276,2603270052.0,2603270052.0,1.0,,S,S2,Waiblingen,8005157,Rommelshausen,Baden-Württemberg,Kernen,71394,9.319175885,48.81552017,4,2603270055.0,,2603270056.0,,,,,,,,,,,3.0,4.0
-8097229136581884814-2603270018-9,7281,2603270036.0,2603270037.0,2.0,,S,S2,Schorndorf|Weiler(Rems)|Winterbach(b Schorndorf)|Geradstetten|Grunbach|Beutelsbach|Endersbach|Stetten-Beinstein,8005157,Rommelshausen,Baden-Württemberg,Kernen,71394,9.319175885,48.81552017,4,2603270041.0,1,2603270043.0,1,,,,,,,,,,5.0,6.0
2404193397898438893-2603270020-2,7274,2603270022.0,2603270022.0,1.0,,S,S2,Waiblingen,8005157,Rommelshausen,Baden-Württemberg,Kernen,71394,9.319175885,48.81552017,4,2603270037.0,,2603270038.0,,,,,,,,,c,c,15.0,16.0
6570008134094305920-2603262348-9,7279,2603270006.0,2603270007.0,2.0,,S,S2,Schorndorf|Weiler(Rems)|Winterbach(b Schorndorf)|Geradstetten|Grunbach|Beutelsbach|Endersbach|Stetten-Beinstein,8005157,Rommelshausen,Baden-Württemberg,Kernen,71394,9.319175885,48.81552017,4,2603270046.0,,2603270047.0,,h,1.0,Störung,,,Schorndorf|Weiler(Rems)|Winterbach(b Schorndorf)|Geradstetten|Grunbach|Beutelsbach|Endersbach|Stetten-Beinstein,Waiblingen,c,c,40.0,40.0
-2875027575093930885-2603270003-4,7679,2603270013.0,2603270014.0,1.0,,S,S6,Weil der Stadt|Malmsheim|Renningen,8005236,Rutesheim,Baden-Württemberg,Leonberg,71229,8.960325242,48.79031093,5,2603270019.0,,2603270019.0,,,,,,,,,,,6.0,5.0
-6901459863372467670-2603262342-14,7674,2603270016.0,2603270016.0,2.0,,S,S6,Stuttgart Schwabstr.|Stuttgart Feuersee|Stuttgart Stadtmitte|Stuttgart Hbf (tief)|Stuttgart Nordbahnhof|Stuttgart-Feuerbach|Stuttgart-Zuffenhausen|Neuwirtshaus(Porscheplatz)|Korntal|Weilimdorf|Ditzingen|Höfingen|Leonberg,8005236,Rutesheim,Baden-Württemberg,Leonberg,71229,8.960325242,48.79031093,5,2603270018.0,,2603270019.0,,,,,,,,,,,2.0,3.0
4089091533218825122-2603270012-14,7676,2603270046.0,2603270046.0,2.0,,S,S6,Stuttgart Schwabstr.|Stuttgart Feuersee|Stuttgart Stadtmitte|Stuttgart Hbf (tief)|Stuttgart Nordbahnhof|Stuttgart-Feuerbach|Stuttgart-Zuffenhausen|Neuwirtshaus(Porscheplatz)|Korntal|Weilimdorf|Ditzingen|Höfingen|Leonberg,8005236,Rutesheim,Baden-Württemberg,Leonberg,71229,8.960325242,48.79031093,5,2603270046.0,,2603270046.0,,,,,,,,,,,0.0,0.0
5967105885829265768-2603270032-2,19491,2603270043.0,2603270044.0,2.0,,ARV,MEX13,Waiblingen,8005424,Schorndorf,Baden-Württemberg,Schorndorf,73614,9.525686251,48.80693898,3,,,2603270044.0,,,,,,,,,c,,0.0,0.0
-8097229136581884814-2603270018-1,7281,,2603270018.0,,,S,S2,,8005424,Schorndorf,Baden-Württemberg,Schorndorf,73614,9.525686251,48.80693898,3,,,2603270020.0,,,,,,,,,,,0.0,2.0
2404193397898438893-2603270020-10,7274,2603270040.0,,14.0,,S,,Waiblingen|Rommelshausen|Stetten-Beinstein|Endersbach|Beutelsbach|Grunbach|Geradstetten|Winterbach(b Schorndorf)|Weiler(Rems),8005424,Schorndorf,Baden-Württemberg,Schorndorf,73614,9.525686251,48.80693898,3,2603270056.0,,,,,,,,,,,c,,16.0,0.0
3794757181233164765-2603270002-2,19441,2603270013.0,2603270014.0,2.0,,ARV,MEX13,Waiblingen,8005424,Schorndorf,Baden-Württemberg,Schorndorf,73614,9.525686251,48.80693898,3,,,2603270014.0,3,,,,,,,,c,,0.0,0.0
-1494204691606976539-2603262350-10,7272,2603270010.0,,1.0,,S,,Waiblingen|Rommelshausen|Stetten-Beinstein|Endersbach|Beutelsbach|Grunbach|Geradstetten|Winterbach(b Schorndorf)|Weiler(Rems),8005424,Schorndorf,Baden-Württemberg,Schorndorf,73614,9.525686251,48.80693898,3,2603270050.0,,,,h,1.0,Störung,,,Waiblingen|Rommelshausen|Stetten-Beinstein|Endersbach|Beutelsbach|Grunbach|Geradstetten|Winterbach(b Schorndorf)|Weiler(Rems),,c,,40.0,0.0
8663971145299139562-2603262311-15,19492,2603270013.0,2603270014.0,3.0,,ARV,MEX13,Ellwangen|Schrezheim|Schwabsberg|Goldshöfe|Hofen(b Aalen)|Wasseralfingen|Aalen Hbf|Mögglingen(Gmünd)|Böbingen(Rems)|Schwäbisch Gmünd|Lorch(Württ)|Waldhausen(b Schorndorf)|Plüderhausen|Urbach(b Schorndorf),8005424,Schorndorf,Baden-Württemberg,Schorndorf,73614,9.525686251,48.80693898,3,2603270019.0,2,,,,,,,,,,,c,6.0,0.0
4459260690798420105-2603270000-3,7374,2603270006.0,2603270006.0,2.0,,S,S3,Waiblingen|Neustadt-Hohenacker,8005454,Schwaikheim,Baden-Württemberg,Schwaikheim,71409,9.354747358,48.86832665,4,2603270007.0,,2603270008.0,,,,,,,,,,,1.0,2.0
-3442537638264139385-2603270030-3,7376,2603270036.0,2603270036.0,2.0,,S,S3,Waiblingen|Neustadt-Hohenacker,8005454,Schwaikheim,Baden-Württemberg,Schwaikheim,71409,9.354747358,48.86832665,4,2603270036.0,,2603270037.0,,,,,,,,,,,0.0,1.0
3135343690013222861-2603270009-6,7078,2603270022.0,2603270023.0,1.0,,S,S60,Renningen|Renningen Süd|Magstadt|Maichingen Nord|Maichingen,8005574,Sindelfingen,Baden-Württemberg,Sindelfingen,71063,8.999262079,48.70387346,6,2603270029.0,,2603270029.0,,,,,,,,,,,7.0,6.0
-9074467080985277700-2603270034-2,7079,2603270036.0,2603270037.0,1.0,,S,S60,Böblingen,8005574,Sindelfingen,Baden-Württemberg,Sindelfingen,71063,8.999262079,48.70387346,6,2603270039.0,,2603270039.0,,,,,,,,,,,3.0,2.0
-8774147686098078692-2603270004-2,7077,2603270006.0,2603270007.0,1.0,,S,S60,Böblingen,8005574,Sindelfingen,Baden-Württemberg,Sindelfingen,71063,8.999262079,48.70387346,6,2603270007.0,,2603270007.0,,,,,,,,,,,1.0,0.0
-7630775927595037256-2603270050-3,7276,2603270054.0,2603270054.0,1.0,,S,S2,Waiblingen|Rommelshausen,8005726,Stetten-Beinstein,Baden-Württemberg,Weinstadt,71384,9.352769725,48.81199601,5,2603270058.0,,2603270059.0,,,,,,,,,,,4.0,5.0
-8097229136581884814-2603270018-8,7281,2603270034.0,2603270034.0,2.0,,S,S2,Schorndorf|Weiler(Rems)|Winterbach(b Schorndorf)|Geradstetten|Grunbach|Beutelsbach|Endersbach,8005726,Stetten-Beinstein,Baden-Württemberg,Weinstadt,71384,9.352769725,48.81199601,5,2603270037.0,1,2603270039.0,1,,,,,,,,,,3.0,5.0
2404193397898438893-2603270020-3,7274,2603270024.0,2603270024.0,1.0,,S,S2,Waiblingen|Rommelshausen,8005726,Stetten-Beinstein,Baden-Württemberg,Weinstadt,71384,9.352769725,48.81199601,5,2603270040.0,,2603270040.0,,,,,,,,,c,c,16.0,16.0
6570008134094305920-2603262348-8,7279,2603270004.0,2603270004.0,2.0,,S,S2,Schorndorf|Weiler(Rems)|Winterbach(b Schorndorf)|Geradstetten|Grunbach|Beutelsbach|Endersbach,8005726,Stetten-Beinstein,Baden-Württemberg,Weinstadt,71384,9.352769725,48.81199601,5,2603270044.0,,2603270044.0,,h,1.0,Störung,,,Schorndorf|Weiler(Rems)|Winterbach(b Schorndorf)|Geradstetten|Grunbach|Beutelsbach|Endersbach,Rommelshausen|Waiblingen,c,c,40.0,40.0
-777260281010664973-2603270016-1,19036,,2603270016.0,,,ARV,RE1,,8000096,Stuttgart Hbf,Baden-Württemberg,Stuttgart,70173,9.183172973,48.78473069,1,,,2603270017.0,,,,,,,,,,,0.0,1.0
-4937690951843013146-2603262357-3,19375,2603270015.0,,6.0,,RE,,Bietigheim-Bissingen|Ludwigsburg,8000096,Stuttgart Hbf,Baden-Württemberg,Stuttgart,70173,9.183172973,48.78473069,1,2603270016.0,,,,,,,,,,,,,1.0,0.0
503863255708873152-2603262305-11,19364,2603270006.0,2603270019.0,9.0,,RE,MEX12,Tübingen Hbf|Reutlingen Hbf|Metzingen(Württ)|Bempflingen|Nürtingen|Oberboihingen|Wendlingen(Neckar)|Plochingen|Esslingen(Neckar)|Stuttgart-Bad Cannstatt,8000096,Stuttgart Hbf,Baden-Württemberg,Stuttgart,70173,9.183172973,48.78473069,1,2603270012.0,,2603270020.0,,,,,,,,,,,6.0,1.0
3092414202901393595-2603262219-11,4236,2603270020.0,,11.0,,RE,,Ravensburg|Aulendorf|Bad Schussenried|Biberach(Riß)|Laupheim West|Ulm Hbf|Geislingen(Steige)|Göppingen|Plochingen|Esslingen(Neckar),8000096,Stuttgart Hbf,Baden-Württemberg,Stuttgart,70173,9.183172973,48.78473069,1,2603270031.0,,,,h,2.0,Information,,,,,,,11.0,0.0
1481285002460915742-2603270030-1,17501,,2603270030.0,,,RB,MEX19,,8000096,Stuttgart Hbf,Baden-Württemberg,Stuttgart,70173,9.183172973,48.78473069,1,,,2603270030.0,,,,,,,,,,,0.0,0.0
7108274583246193747-2603262246-5,698,2603270058.0,2603270109.0,9.0,,ICE,,München Hbf|München-Pasing|Augsburg Hbf|Ulm Hbf,8000096,Stuttgart Hbf,Baden-Württemberg,Stuttgart,70173,9.183172973,48.78473069,1,2603270049.0,,2603270109.0,,h,3.0,Information,,,,,,,-9.0,0.0
-6342382568126164390-2603262312-6,19037,2603270022.0,,7.0,,ARV,,Karlsruhe Hbf|Karlsruhe-Durlach|Vaihingen(Enz)|Bietigheim-Bissingen|Ludwigsburg,8000096,Stuttgart Hbf,Baden-Württemberg,Stuttgart,70173,9.183172973,48.78473069,1,2603270025.0,,,,h,1.0,Information,,,,,,,3.0,0.0
-8784335190639872074-2603262344-13,19373,2603270047.0,,2.0,,RE,,Pforzheim Hbf|Eutingen(Baden)|Niefern|Mühlacker|Mühlacker Rößlesweg|Illingen(Württ)|Vaihingen(Enz)|Sersheim|Sachsenheim|Ellental|Bietigheim-Bissingen|Ludwigsburg,8000096,Stuttgart Hbf,Baden-Württemberg,Stuttgart,70173,9.183172973,48.78473069,1,2603270057.0,2,,,h,2.0,Information,,,,,,,10.0,0.0
6194893901306646476-2603261726-16,617,2603270011.0,,5.0,,ICE,,Hamburg-Altona|Hamburg Dammtor|Hamburg Hbf|Hamburg-Harburg|Bremen Hbf|Osnabrück Hbf|Münster(Westf)Hbf|Dortmund Hbf|Bochum Hbf|Essen Hbf|Duisburg Hbf|Düsseldorf Hbf|Köln Hbf|Frankfurt(M) Flughafen Fernbf|Mannheim Hbf,8000096,Stuttgart Hbf,Baden-Württemberg,Stuttgart,70173,9.183172973,48.78473069,1,2603270029.0,,,,h,1.0,Störung,,,,,,,18.0,0.0
-2156184823073248932-2603270023-1,19584,,2603270023.0,,,RE,MEX17,,8000096,Stuttgart Hbf,Baden-Württemberg,Stuttgart,70173,9.183172973,48.78473069,1,,,2603270023.0,,,,,,,,,,,0.0,0.0
5658139106684580012-2603270020-2,4778,2603270048.0,,8.0,,RB,,Backnang,8000096,Stuttgart Hbf,Baden-Württemberg,Stuttgart,70173,9.183172973,48.78473069,1,2603270051.0,,,,,,,,,,,,,3.0,0.0
-2554246829515785153-2603270027-3,19377,2603270044.0,,7.0,,RE,,Bietigheim-Bissingen|Ludwigsburg,8000096,Stuttgart Hbf,Baden-Württemberg,Stuttgart,70173,9.183172973,48.78473069,1,2603270050.0,,,,,,,,,,,,,6.0,0.0
8861760534950546127-2603270042-5,7678,2603270051.0,2603270051.0,3.0,,S,S6,Stuttgart Schwabstr.|Stuttgart Feuersee|Stuttgart Stadtmitte|Stuttgart Hbf (tief),8005767,Stuttgart Nord,Baden-Württemberg,Stuttgard-Nord,70174,9.188061449,48.80374161,5,,,,,,,,,,,,c,c,0.0,0.0
-2875027575093930885-2603270003-13,7679,2603270038.0,2603270039.0,4.0,,S,S6,Weil der Stadt|Malmsheim|Renningen|Rutesheim|Leonberg|Höfingen|Ditzingen|Weilimdorf|Korntal|Neuwirtshaus(Porscheplatz)|Stuttgart-Zuffenhausen|Stuttgart-Feuerbach,8005767,Stuttgart Nord,Baden-Württemberg,Stuttgard-Nord,70174,9.188061449,48.80374161,5,2603270047.0,,2603270047.0,,,,,,,,,,,9.0,8.0
8164387048971779418-2603270007-7,7579,2603270028.0,2603270029.0,4.0,,S,S5,Bietigheim-Bissingen|Tamm(Württ)|Asperg|Ludwigsburg|Kornwestheim Pbf|Stuttgart-Zuffenhausen,8005767,Stuttgart Nord,Baden-Württemberg,Stuttgard-Nord,70174,9.188061449,48.80374161,5,2603270041.0,,2603270041.0,,,,,,,,,,,13.0,12.0
-177803341276164614-2603270002-5,7474,2603270011.0,2603270011.0,3.0,,S,S4,Stuttgart Schwabstr.|Stuttgart Feuersee|Stuttgart Stadtmitte|Stuttgart Hbf (tief),8005767,Stuttgart Nord,Baden-Württemberg,Stuttgard-Nord,70174,9.188061449,48.80374161,5,2603270012.0,,2603270013.0,,,,,,,,,,,1.0,2.0
